# 
# Header Description:
# 
# Version: v3.0.5.6 Platform: 13 Manufacturer: Google Model: Pixel 6
# 
# Raw,utcTimeMillis,TimeNanos,LeapSecond,TimeUncertaintyNanos,FullBiasNanos,BiasNanos,BiasUncertaintyNanos,DriftNanosPerSecond,DriftUncertaintyNanosPerSecond,HardwareClockDiscontinuityCount,Svid,TimeOffsetNanos,State,ReceivedSvTimeNanos,ReceivedSvTimeUncertaintyNanos,Cn0DbHz,PseudorangeRateMetersPerSecond,PseudorangeRateUncertaintyMetersPerSecond,AccumulatedDeltaRangeState,AccumulatedDeltaRangeMeters,AccumulatedDeltaRangeUncertaintyMeters,CarrierFrequencyHz,CarrierCycles,CarrierPhase,CarrierPhaseUncertainty,MultipathIndicator,SnrInDb,ConstellationType,AgcDb,BasebandCn0DbHz,FullInterSignalBiasNanos,FullInterSignalBiasUncertaintyNanos,SatelliteInterSignalBiasNanos,SatelliteInterSignalBiasUncertaintyNanos,CodeType,ChipsetElapsedRealtimeNanos
# 
# UncalAccel,utcTimeMillis,elapsedRealtimeNanos,UncalAccelXMps2,UncalAccelYMps2,UncalAccelZMps2,BiasXMps2,BiasYMps2,BiasZMps2
# 
# Accel,utcTimeMillis,elapsedRealtimeNanos,AccelXMps2,AccelYMps2,AccelZMps2
# 
# UncalGyro,utcTimeMillis,elapsedRealtimeNanos,UncalGyroXRadPerSec,UncalGyroYRadPerSec,UncalGyroZRadPerSec,DriftXRadPerSec,DriftYRadPerSec,DriftZRadPerSec
# 
# Gyro,utcTimeMillis,elapsedRealtimeNanos,GyroXRadPerSec,GyroYRadPerSec,GyroZRadPerSec
# 
# UncalMag,utcTimeMillis,elapsedRealtimeNanos,UncalMagXMicroT,UncalMagYMicroT,UncalMagZMicroT,BiasXMicroT,BiasYMicroT,BiasZMicroT
# 
# Mag,utcTimeMillis,elapsedRealtimeNanos,MagXMicroT,MagYMicroT,MagZMicroT
# 
# OrientationDeg,utcTimeMillis,elapsedRealtimeNanos,yawDeg,rollDeg,pitchDeg
# 
# Fix,Provider,LatitudeDegrees,LongitudeDegrees,AltitudeMeters,SpeedMps,AccuracyMeters,BearingDegrees,UnixTimeMillis,SpeedAccuracyMps,BearingAccuracyDegrees,elapsedRealtimeNanos,VerticalAccuracyMeters
# 
# Nav,Svid,Type,Status,MessageId,Sub-messageId,Data(Bytes)
# 
# Status,UnixTimeMillis,SignalCount,SignalIndex,ConstellationType,Svid,CarrierFrequencyHz,Cn0DbHz,AzimuthDegrees,ElevationDegrees,UsedInFix,HasAlmanacData,HasEphemerisData,BasebandCn0DbHz
# 
UncalGyro,1676592195207,119698838852855,0.16539176,-0.8562804,0.04734206,0.00061608746,-0.00076961785,-0.0031181322
UncalAccel,1676592195207,119698838852855,0.718445,2.440679,10.628919,0.006110925,-0.043260336,-0.038735468
UncalGyro,1676592195216,119698847820140,0.19303341,-0.6033822,0.07192938,0.00061608746,-0.00076961785,-0.0031181322
UncalAccel,1676592195216,119698847820140,0.8847462,2.2337,11.424532,0.006110925,-0.043260336,-0.038735468
UncalMag,1676592195217,119698847864269,-47.6044,-28.425999,-104.8834,-47.646854,1.2478232,-64.42538
UncalGyro,1676592195226,119698856802135,0.1704314,-0.20204368,0.104610674,0.00061608746,-0.00076961785,-0.0031181322
UncalAccel,1676592195225,119698856802135,0.93978107,2.0656042,11.504691,0.006110925,-0.043260336,-0.038735468
UncalMag,1676592195226,119698857865978,-47.2872,-28.730999,-104.4076,-47.646854,1.2478232,-64.42538
OrientationDeg,1676592195225,119698856802135,194.0,-3.0,-17.0
Fix,FLP,37.4308032000,-122.1550523000,-15.0,0.1632018,4.623,261.3127,1676592194759,,,119698389848888,3.6387274
UncalGyro,1676592195234,119698865786448,0.10430524,0.22953261,0.15500705,0.00061608746,-0.00076961785,-0.0031181322
UncalAccel,1676592195234,119698865786448,1.0043873,2.050649,11.06142,0.006110925,-0.043260336,-0.038735468
OrientationDeg,1676592195234,119698865786448,194.0,-3.0,-17.0
UncalMag,1676592195237,119698867879406,-45.176598,-27.681799,-103.3584,-47.646854,1.2478232,-64.42538
UncalGyro,1676592195244,119698874761180,0.0009162979,0.5919284,0.22968534,0.00061608746,-0.00076961785,-0.0031181322
UncalAccel,1676592195243,119698874761180,0.9834501,2.103291,10.447063,0.006110925,-0.043260336,-0.038735468
OrientationDeg,1676592195243,119698874761180,194.0,-3.0,-17.0
UncalMag,1676592195247,119698877865734,-45.933,-27.9258,-104.029396,-47.646854,1.2478232,-64.42538
UncalGyro,1676592195253,119698883742199,-0.124769226,0.85062987,0.3295618,0.00061608746,-0.00076961785,-0.0031181322
UncalAccel,1676592195253,119698883742199,0.8111669,2.204986,9.80818,0.006110925,-0.043260336,-0.038735468
OrientationDeg,1676592195252,119698883742199,193.0,-2.0,-17.0
UncalMag,1676592195256,119698887865246,-44.591,-27.1938,-103.3218,-47.646854,1.2478232,-64.42538
UncalGyro,1676592195262,119698892721508,-0.26832256,0.9671524,0.47051895,0.00061608746,-0.00076961785,-0.0031181322
UncalAccel,1676592195261,119698892721508,0.5766702,2.1870399,9.016156,0.006110925,-0.043260336,-0.038735468
OrientationDeg,1676592195261,119698892721508,193.0,-2.0,-16.0
UncalMag,1676592195267,119698897864513,-45.408398,-27.9502,-104.7614,-47.646854,1.2478232,-64.42538
UncalGyro,1676592195270,119698901700634,-0.40301836,0.90392786,0.64873886,0.00061608746,-0.00076961785,-0.0031181322
UncalAccel,1676592195271,119698901700634,0.17288144,2.0500507,8.469994,0.006110925,-0.043260336,-0.038735468
OrientationDeg,1676592195271,119698901700634,193.0,-1.0,-16.0
UncalMag,1676592195277,119698907866710,-45.0302,-27.3524,-104.688194,-47.646854,1.2478232,-64.42538
UncalGyro,1676592195280,119698910682811,-0.5203045,0.75594574,0.8391761,0.00061608746,-0.00076961785,-0.0031181322
UncalAccel,1676592195280,119698910682811,-0.22731815,1.975275,8.382058,0.006110925,-0.043260336,-0.038735468
OrientationDeg,1676592195279,119698910682811,192.0,-1.0,-16.0
UncalMag,1676592195286,119698917868419,-43.798,-26.864399,-102.541,-47.646854,1.2478232,-64.42538
UncalGyro,1676592195289,119698919666942,-0.5902485,0.6711882,0.9627236,0.00061608746,-0.00076961785,-0.0031181322
UncalAccel,1676592195288,119698919666942,-0.36251262,2.5328028,8.603394,0.006110925,-0.043260336,-0.038735468
OrientationDeg,1676592195288,119698919666942,192.0,-1.0,-16.0
UncalMag,1676592195297,119698927867687,-45.2742,-27.1084,-102.8582,-47.646854,1.2478232,-64.42538
UncalGyro,1676592195298,119698928643505,-0.6059783,0.6478226,0.9957104,0.00061608746,-0.00076961785,-0.0031181322
UncalAccel,1676592195297,119698928643505,-0.44985065,3.022135,8.6961155,0.006110925,-0.043260336,-0.038735468
OrientationDeg,1676592195297,119698928643505,191.0,-1.0,-15.0
UncalGyro,1676592195307,119698937620189,-0.56321776,0.58093286,0.9401216,0.00061608746,-0.00076961785,-0.0031181322
UncalAccel,1676592195307,119698937620189,-0.3912265,3.237489,8.749954,0.006110925,-0.043260336,-0.038735468
UncalMag,1676592195307,119698937864269,-45.0668,-26.8156,-104.1758,-47.646854,1.2478232,-64.42538
OrientationDeg,1676592195307,119698937620189,191.0,-1.0,-15.0
UncalGyro,1676592195316,119698946604137,-0.4447099,0.38988474,0.84940815,0.00061608746,-0.00076961785,-0.0031181322
UncalAccel,1676592195316,119698946604137,-0.023928227,3.24048,8.656634,0.006110925,-0.043260336,-0.038735468
UncalMag,1676592195316,119698947864757,-44.859398,-26.7424,-103.8098,-47.646854,1.2478232,-64.42538
OrientationDeg,1676592195315,119698946604137,190.0,-1.0,-15.0
UncalGyro,1676592195324,119698955583934,-0.24648413,0.10399981,0.75670934,0.00061608746,-0.00076961785,-0.0031181322
UncalAccel,1676592195324,119698955583934,0.58265233,3.3230324,8.630911,0.006110925,-0.043260336,-0.038735468
OrientationDeg,1676592195324,119698955583934,190.0,-1.0,-15.0
UncalMag,1676592195327,119698957864269,-45.1522,-26.718,-105.1884,-47.646854,1.2478232,-64.42538
UncalGyro,1676592195333,119698964560191,0.016798794,-0.19135354,0.6574437,0.00061608746,-0.00076961785,-0.0031181322
UncalAccel,1676592195333,119698964560191,1.1455638,3.5928233,8.968299,0.006110925,-0.043260336,-0.038735468
OrientationDeg,1676592195333,119698964560191,190.0,-1.0,-15.0
UncalMag,1676592195336,119698967864757,-47.897198,-28.548,-110.8736,-47.646854,1.2478232,-64.42538
UncalGyro,1676592195342,119698973536205,0.32604933,-0.3368922,0.5381723,0.00061608746,-0.00076961785,-0.0031181322
UncalAccel,1676592195342,119698973536205,1.5044873,3.8739798,10.043873,0.006110925,-0.043260336,-0.038735468
OrientationDeg,1676592195343,119698973536205,189.0,-1.0,-15.0
UncalMag,1676592195347,119698977865734,-46.567398,-26.9986,-105.7008,-47.646854,1.2478232,-64.42538
UncalGyro,1676592195352,119698982522472,0.6750061,-0.31490102,0.41599923,0.00061608746,-0.00076961785,-0.0031181322
UncalAccel,1676592195352,119698982522472,1.7419748,3.676572,10.916057,0.006110925,-0.043260336,-0.038735468
OrientationDeg,1676592195351,119698982522472,189.0,-1.0,-15.0
UncalMag,1676592195357,119698987876232,-46.0672,-26.9742,-105.469,-47.646854,1.2478232,-64.42538
UncalGyro,1676592195360,119698991515147,1.0516045,-0.19379699,0.30726522,0.00061608746,-0.00076961785,-0.0031181322
UncalAccel,1676592195360,119698991515147,1.6522441,3.0107691,11.574681,0.006110925,-0.043260336,-0.038735468
OrientationDeg,1676592195361,119698991515147,189.0,-1.0,-16.0
UncalMag,1676592195367,119698997875988,-46.9334,-28.2186,-104.1148,-47.646854,1.2478232,-64.42538
OrientationDeg,1676592195370,119699000494457,189.0,-1.0,-16.0
UncalGyro,1676592195370,119699000494457,1.4243851,0.0071776668,0.24281894,0.00061608746,-0.00076961785,-0.0031181322
UncalAccel,1676592195370,119699000494457,1.247857,2.082952,11.944372,0.006110925,-0.043260336,-0.038735468
UncalMag,1676592195377,119699007875988,-47.1042,-28.4748,-104.31,-47.646854,1.2478232,-64.42538
UncalGyro,1676592195379,119699009472911,1.7198911,0.14187345,0.26343563,0.00061608746,-0.00076961785,-0.0031181322
UncalAccel,1676592195378,119699009472911,0.97806627,1.628914,10.825727,0.006110925,-0.043260336,-0.038735468
OrientationDeg,1676592195379,119699009472911,189.0,-1.0,-17.0
UncalMag,1676592195386,119699017875988,-45.640198,-28.5724,-101.1136,-47.646854,1.2478232,-64.42538
UncalGyro,1676592195387,119699018450999,1.7449366,-0.07819075,0.35246924,0.00061608746,-0.00076961785,-0.0031181322
UncalAccel,1676592195388,119699018450999,1.0725827,1.8861425,7.5678997,0.006110925,-0.043260336,-0.038735468
OrientationDeg,1676592195387,119699018450999,188.0,-2.0,-18.0
UncalGyro,1676592195396,119699027432933,1.402852,-0.784351,0.3915646,0.00061608746,-0.00076961785,-0.0031181322
UncalAccel,1676592195397,119699027432933,1.6426728,2.4759731,5.038088,0.006110925,-0.043260336,-0.038735468
UncalMag,1676592195397,119699027865001,-47.4092,-29.2556,-100.9672,-47.646854,1.2478232,-64.42538
OrientationDeg,1676592195396,119699027432933,188.0,-2.0,-19.0
UncalGyro,1676592195405,119699036415600,1.1010846,-1.5001323,0.2658791,0.00061608746,-0.00076961785,-0.0031181322
UncalAccel,1676592195406,119699036415600,2.7637103,2.3114667,5.6093745,0.006110925,-0.043260336,-0.038735468
UncalMag,1676592195407,119699037875988,-47.2994,-29.8168,-101.4674,-47.646854,1.2478232,-64.42538
OrientationDeg,1676592195405,119699036415600,188.0,-3.0,-19.0
UncalGyro,1676592195415,119699045392589,0.9828822,-2.0253236,0.06154467,0.00061608746,-0.00076961785,-0.0031181322
UncalAccel,1676592195414,119699045392589,2.9659038,2.079961,5.723632,0.006110925,-0.043260336,-0.038735468
OrientationDeg,1676592195414,119699045392589,188.0,-4.0,-20.0
UncalMag,1676592195417,119699047864269,-47.8728,-29.768,-100.1132,-47.646854,1.2478232,-64.42538
UncalGyro,1676592195423,119699054374278,0.9221011,-2.5557075,-0.13469578,0.00061608746,-0.00076961785,-0.0031181322
UncalAccel,1676592195423,119699054374278,2.9742785,2.0991037,5.061418,0.006110925,-0.043260336,-0.038735468
OrientationDeg,1676592195423,119699054374278,188.0,-6.0,-20.0
UncalMag,1676592195426,119699057859142,-50.2152,-31.109999,-100.3938,-47.646854,1.2478232,-64.42538
UncalGyro,1676592195433,119699063341380,0.8541423,-3.1403055,-0.30543262,0.00061608746,-0.00076961785,-0.0031181322
UncalAccel,1676592195433,119699063341380,3.1399815,2.3952155,4.8011985,0.006110925,-0.043260336,-0.038735468
OrientationDeg,1676592195432,119699063341380,188.0,-7.0,-21.0
UncalMag,1676592195436,119699067871349,-49.446598,-30.292599,-100.3816,-47.646854,1.2478232,-64.42538
UncalGyro,1676592195442,119699072332592,0.8388707,-3.6567922,-0.43401974,0.00061608746,-0.00076961785,-0.0031181322
UncalAccel,1676592195442,119699072332592,3.0610185,2.6883361,5.770292,0.006110925,-0.043260336,-0.038735468
OrientationDeg,1676592195442,119699072332592,188.0,-9.0,-21.0
UncalMag,1676592195446,119699077875744,-52.46,-31.7078,-102.5532,-47.646854,1.2478232,-64.42538
UncalGyro,1676592195451,119699081313060,0.9257663,-3.9587123,-0.50503284,0.00061608746,-0.00076961785,-0.0031181322
UncalAccel,1676592195450,119699081313060,2.821736,2.8725836,7.1617184,0.006110925,-0.043260336,-0.038735468
OrientationDeg,1676592195450,119699081313060,188.0,-11.0,-22.0
UncalMag,1676592195457,119699087875988,-52.1184,-31.536999,-99.698395,-47.646854,1.2478232,-64.42538
UncalGyro,1676592195459,119699090294139,1.0859656,-4.0043745,-0.5309946,0.00061608746,-0.00076961785,-0.0031181322
UncalAccel,1676592195459,119699090294139,2.4502504,2.9330025,8.1942215,0.006110925,-0.043260336,-0.038735468
OrientationDeg,1676592195460,119699090294139,188.0,-13.0,-22.0
UncalMag,1676592195467,119699097875988,-53.558,-32.0128,-99.1982,-47.646854,1.2478232,-64.42538
UncalGyro,1676592195468,119699099273143,1.1192578,-3.652058,-0.59605175,0.00061608746,-0.00076961785,-0.0031181322
UncalAccel,1676592195468,119699099273143,2.2055843,3.9517467,10.047462,0.006110925,-0.043260336,-0.038735468
OrientationDeg,1676592195469,119699099273143,189.0,-15.0,-23.0
UncalMag,1676592195477,119699107875988,-53.814198,-32.488598,-99.2592,-47.646854,1.2478232,-64.42538
UncalGyro,1676592195478,119699108253246,0.9627236,-2.765387,-0.75854194,0.00061608746,-0.00076961785,-0.0031181322
UncalAccel,1676592195477,119699108253246,1.777269,3.6233318,10.42493,0.006110925,-0.043260336,-0.038735468
OrientationDeg,1676592195478,119699108253246,189.0,-16.0,-24.0
UncalGyro,1676592195487,119699117233104,0.894154,-1.6380352,-0.82359904,0.00061608746,-0.00076961785,-0.0031181322
UncalAccel,1676592195487,119699117233104,1.2227324,3.531208,11.499308,0.006110925,-0.043260336,-0.038735468
UncalMag,1676592195486,119699117864513,-54.656,-33.0498,-97.514595,-47.646854,1.2478232,-64.42538
OrientationDeg,1676592195486,119699117233104,189.0,-17.0,-24.0
UncalGyro,1676592195496,119699126214488,0.79534656,-0.43035457,-0.7452556,0.00061608746,-0.00076961785,-0.0031181322
UncalAccel,1676592195495,119699126214488,-0.15433706,2.934797,9.555139,0.006110925,-0.043260336,-0.038735468
UncalMag,1676592195496,119699127876232,-54.0704,-32.4642,-99.7594,-47.646854,1.2478232,-64.42538
OrientationDeg,1676592195496,119699126214488,190.0,-17.0,-25.0
UncalGyro,1676592195505,119699135192393,0.66614854,0.3465133,-0.21227567,0.00061608746,-0.00076961785,-0.0031181322
UncalAccel,1676592195504,119699135192393,-5.675177,2.870789,6.7178497,0.006110925,-0.043260336,-0.038735468
OrientationDeg,1676592195504,119699135192393,190.0,-16.0,-25.0
UncalMag,1676592195507,119699137876232,-55.924797,-33.501198,-98.917595,-47.646854,1.2478232,-64.42538
UncalGyro,1676592195513,119699144173107,0.46639562,0.48151454,0.8555168,0.00061608746,-0.00076961785,-0.0031181322
UncalAccel,1676592195514,119699144173107,-8.407781,3.4133615,4.802395,0.006110925,-0.043260336,-0.038735468
OrientationDeg,1676592195514,119699144173107,189.0,-16.0,-25.0
UncalMag,1676592195516,119699147875988,-54.814598,-32.8546,-98.893196,-47.646854,1.2478232,-64.42538
UncalGyro,1676592195522,119699153154307,0.0804815,0.1863139,1.7449366,0.00061608746,-0.00076961785,-0.0031181322
UncalAccel,1676592195522,119699153154307,-2.5070798,2.5286152,2.6799614,0.006110925,-0.043260336,-0.038735468
OrientationDeg,1676592195523,119699153154307,188.0,-17.0,-25.0
UncalMag,1676592195527,119699157865978,-56.4738,-33.4646,-100.5768,-47.646854,1.2478232,-64.42538
UncalGyro,1676592195532,119699162122875,-0.3297145,-0.3465133,2.1358902,0.00061608746,-0.00076961785,-0.0031181322
UncalAccel,1676592195532,119699162122875,2.5106692,1.3669,2.3246272,0.006110925,-0.043260336,-0.038735468
OrientationDeg,1676592195532,119699162122875,187.0,-17.0,-24.0
UncalMag,1676592195537,119699167875988,-61.6466,-34.9652,-103.272995,-47.646854,1.2478232,-64.42538
UncalGyro,1676592195540,119699171113841,-0.5847508,-0.6047566,2.2670736,0.00061608746,-0.00076961785,-0.0031181322
UncalAccel,1676592195541,119699171113841,4.404588,1.1557333,5.5106707,0.006110925,-0.043260336,-0.038735468
OrientationDeg,1676592195541,119699171113841,186.0,-18.0,-24.0
UncalMag,1676592195547,119699177875988,-58.3892,-33.574398,-101.138,-47.646854,1.2478232,-64.42538
UncalGyro,1676592195549,119699180093578,-0.6601926,-0.46914452,2.3495405,0.00061608746,-0.00076961785,-0.0031181322
UncalAccel,1676592195549,119699180093578,4.7742796,1.288535,8.139186,0.006110925,-0.043260336,-0.038735468
OrientationDeg,1676592195550,119699180093578,185.0,-19.0,-23.0
UncalMag,1676592195557,119699187875988,-63.2936,-34.5992,-103.443794,-47.646854,1.2478232,-64.42538
UncalGyro,1676592195558,119699189073253,-0.59513545,-0.25579983,2.440254,0.00061608746,-0.00076961785,-0.0031181322
UncalAccel,1676592195558,119699189073253,4.7730827,1.2604194,9.273384,0.006110925,-0.043260336,-0.038735468
OrientationDeg,1676592195559,119699189073253,183.0,-20.0,-22.0
UncalMag,1676592195567,119699197875988,-61.3416,-33.184,-101.4308,-47.646854,1.2478232,-64.42538
UncalGyro,1676592195568,119699198052318,-0.46181414,-0.09239337,2.5421157,0.00061608746,-0.00076961785,-0.0031181322
UncalAccel,1676592195568,119699198052318,4.9250274,1.3986049,9.622736,0.006110925,-0.043260336,-0.038735468
OrientationDeg,1676592195568,119699198052318,182.0,-20.0,-22.0
UncalGyro,1676592195577,119699207031322,-0.32268956,0.026267206,2.604424,0.00061608746,-0.00076961785,-0.0031181322
UncalAccel,1676592195577,119699207031322,5.13739,1.7186449,9.510872,0.006110925,-0.043260336,-0.038735468
UncalMag,1676592195577,119699207862560,-63.3546,-33.0864,-101.9554,-47.646854,1.2478232,-64.42538
OrientationDeg,1676592195577,119699207031322,181.0,-21.0,-21.0
UncalGyro,1676592195585,119699216016368,-0.20693061,0.01985312,2.6548204,0.00061608746,-0.00076961785,-0.0031181322
UncalAccel,1676592195585,119699216016368,5.0937214,0.9320044,8.510672,0.006110925,-0.043260336,-0.038735468
OrientationDeg,1676592195585,119699216016368,180.0,-21.0,-20.0
UncalMag,1676592195587,119699217876232,-61.683197,-32.024998,-96.257996,-47.646854,1.2478232,-64.42538
UncalGyro,1676592195593,119699224993968,-0.12095132,-0.07971791,2.6968174,0.00061608746,-0.00076961785,-0.0031181322
UncalAccel,1676592195593,119699224993968,5.395217,0.97806627,8.33121,0.006110925,-0.043260336,-0.038735468
OrientationDeg,1676592195593,119699224993968,178.0,-22.0,-20.0
UncalMag,1676592195597,119699227875988,-62.0248,-31.3174,-94.879395,-47.646854,1.2478232,-64.42538
UncalGyro,1676592195602,119699233974864,-0.029168816,-0.21487185,2.7241535,0.00061608746,-0.00076961785,-0.0031181322
UncalAccel,1676592195602,119699233974864,5.703891,1.3310076,8.110473,0.006110925,-0.043260336,-0.038735468
OrientationDeg,1676592195603,119699233974864,177.0,-22.0,-19.0
UncalMag,1676592195607,119699237876232,-62.6348,-30.987999,-96.733795,-47.646854,1.2478232,-64.42538
UncalGyro,1676592195611,119699242953868,0.09315695,-0.441961,2.7354546,0.00061608746,-0.00076961785,-0.0031181322
UncalAccel,1676592195611,119699242953868,5.9760747,1.6648064,7.5463643,0.006110925,-0.043260336,-0.038735468
OrientationDeg,1676592195611,119699242953868,175.0,-23.0,-19.0
UncalMag,1676592195617,119699247864513,-62.3298,-30.646399,-94.3548,-47.646854,1.2478232,-64.42538
UncalGyro,1676592195620,119699251934093,0.28252518,-0.77381355,2.7441595,0.00061608746,-0.00076961785,-0.0031181322
UncalAccel,1676592195620,119699251934093,6.2350974,1.68694,7.347162,0.006110925,-0.043260336,-0.038735468
OrientationDeg,1676592195621,119699251934093,174.0,-24.0,-18.0
UncalMag,1676592195627,119699257862072,-65.440796,-30.987999,-96.0262,-47.646854,1.2478232,-64.42538
UncalGyro,1676592195629,119699260911266,0.4708244,-1.0673343,2.7183504,0.00061608746,-0.00076961785,-0.0031181322
UncalAccel,1676592195629,119699260911266,6.50429,1.4650056,7.4662046,0.006110925,-0.043260336,-0.038735468
OrientationDeg,1676592195629,119699260911266,173.0,-25.0,-18.0
UncalMag,1676592195637,119699267875744,-66.9658,-30.6952,-96.3678,-47.646854,1.2478232,-64.42538
UncalGyro,1676592195638,119699269895641,0.61453044,-1.3083206,2.6665795,0.00061608746,-0.00076961785,-0.0031181322
UncalAccel,1676592195639,119699269895641,6.7818575,0.91166544,7.4267235,0.006110925,-0.043260336,-0.038735468
OrientationDeg,1676592195638,119699269895641,171.0,-26.0,-18.0
UncalMag,1676592195647,119699277875988,-70.0402,-31.6712,-96.0628,-47.646854,1.2478232,-64.42538
UncalGyro,1676592195647,119699278871532,0.7160868,-1.464244,2.6476426,0.00061608746,-0.00076961785,-0.0031181322
UncalAccel,1676592195648,119699278871532,6.9655066,0.11485548,7.570891,0.006110925,-0.043260336,-0.038735468
OrientationDeg,1676592195647,119699278871532,170.0,-27.0,-17.0
UncalGyro,1676592195657,119699287854015,0.7892379,-1.5103643,2.6955955,0.00061608746,-0.00076961785,-0.0031181322
UncalAccel,1676592195657,119699287854015,6.979265,-0.9349955,8.075776,0.006110925,-0.043260336,-0.038735468
UncalMag,1676592195656,119699287884044,-72.138596,-30.878199,-94.8184,-47.646854,1.2478232,-64.42538
OrientationDeg,1676592195656,119699287854015,168.0,-28.0,-17.0
UncalGyro,1676592195665,119699296837474,0.86559606,-1.3556627,2.7895162,0.00061608746,-0.00076961785,-0.0031181322
UncalAccel,1676592195665,119699296837474,6.9744797,-2.0135603,9.304491,0.006110925,-0.043260336,-0.038735468
UncalMag,1676592195667,119699297864513,-73.4684,-31.073399,-94.1352,-47.646854,1.2478232,-64.42538
OrientationDeg,1676592195666,119699296837474,167.0,-30.0,-16.0
UncalGyro,1676592195674,119699305815257,0.923781,-1.0146471,2.8771753,0.00061608746,-0.00076961785,-0.0031181322
UncalAccel,1676592195674,119699305815257,7.350153,-2.8546374,10.059426,0.006110925,-0.043260336,-0.038735468
OrientationDeg,1676592195674,119699305815257,165.0,-31.0,-16.0
UncalMag,1676592195676,119699307864513,-73.7734,-29.828999,-94.379196,-47.646854,1.2478232,-64.42538
UncalGyro,1676592195683,119699314794506,0.93676186,-0.6386596,2.9173398,0.00061608746,-0.00076961785,-0.0031181322
UncalAccel,1676592195683,119699314794506,8.05125,-3.3385859,9.317053,0.006110925,-0.043260336,-0.038735468
OrientationDeg,1676592195684,119699314794506,163.0,-31.0,-16.0
UncalMag,1676592195687,119699317876232,-70.8454,-28.3772,-92.5614,-47.646854,1.2478232,-64.42538
UncalGyro,1676592195692,119699323774669,0.87017757,-0.28848112,2.884353,0.00061608746,-0.00076961785,-0.0031181322
UncalAccel,1676592195693,119699323774669,8.862417,-3.6263227,8.737391,0.006110925,-0.043260336,-0.038735468
OrientationDeg,1676592195693,119699323774669,162.0,-32.0,-15.0
UncalMag,1676592195697,119699327875988,-72.4314,-28.5724,-90.4264,-47.646854,1.2478232,-64.42538
UncalGyro,1676592195701,119699332754650,0.72066826,-0.009162978,2.7724118,0.00061608746,-0.00076961785,-0.0031181322
UncalAccel,1676592195701,119699332754650,9.198608,-3.7244284,7.9950185,0.006110925,-0.043260336,-0.038735468
OrientationDeg,1676592195702,119699332754650,160.0,-32.0,-15.0
UncalMag,1676592195707,119699337872814,-73.858795,-28.303999,-89.8652,-47.646854,1.2478232,-64.42538
UncalGyro,1676592195710,119699341736400,0.50793445,0.15424347,2.637258,0.00061608746,-0.00076961785,-0.0031181322
UncalAccel,1676592195710,119699341736400,8.621938,-3.577868,7.2352977,0.006110925,-0.043260336,-0.038735468
OrientationDeg,1676592195711,119699341736400,159.0,-33.0,-14.0
UncalMag,1676592195716,119699347876232,-75.3106,-28.0112,-92.2442,-47.646854,1.2478232,-64.42538
UncalGyro,1676592195720,119699350703014,0.29917124,0.14996742,2.5686884,0.00061608746,-0.00076961785,-0.0031181322
UncalAccel,1676592195719,119699350703014,7.536793,-3.365505,6.302695,0.006110925,-0.043260336,-0.038735468
OrientationDeg,1676592195720,119699350703014,158.0,-33.0,-13.0
UncalMag,1676592195727,119699357876232,-76.0914,-27.181599,-90.9022,-47.646854,1.2478232,-64.42538
UncalGyro,1676592195729,119699359694652,0.13332134,-0.0061086523,2.5662448,0.00061608746,-0.00076961785,-0.0031181322
UncalAccel,1676592195729,119699359694652,6.702894,-3.6771703,5.7631135,0.006110925,-0.043260336,-0.038735468
OrientationDeg,1676592195728,119699359694652,157.0,-33.0,-13.0
UncalMag,1676592195736,119699367875988,-78.994995,-27.6208,-92.829796,-47.646854,1.2478232,-64.42538
UncalGyro,1676592195738,119699368674816,0.015118915,-0.19898935,2.6039658,0.00061608746,-0.00076961785,-0.0031181322
UncalAccel,1676592195737,119699368674816,6.330212,-4.4518466,5.6907306,0.006110925,-0.043260336,-0.038735468
OrientationDeg,1676592195738,119699368674816,155.0,-34.0,-12.0
UncalGyro,1676592195747,119699377656017,-0.071776666,-0.376293,2.6746736,0.00061608746,-0.00076961785,-0.0031181322
UncalAccel,1676592195746,119699377656017,6.0861444,-5.255835,5.547161,0.006110925,-0.043260336,-0.038735468
UncalMag,1676592195746,119699377870617,-78.8974,-26.291,-92.1222,-47.646854,1.2478232,-64.42538
OrientationDeg,1676592195747,119699377656017,154.0,-34.0,-11.0
UncalGyro,1676592195755,119699386635021,-0.12232576,-0.5635232,2.7913487,0.00061608746,-0.00076961785,-0.0031181322
UncalAccel,1676592195755,119699386635021,6.0574307,-5.9174504,5.5393844,0.006110925,-0.043260336,-0.038735468
UncalMag,1676592195756,119699387875988,-79.3976,-25.156399,-90.340996,-47.646854,1.2478232,-64.42538
OrientationDeg,1676592195755,119699386635021,153.0,-35.0,-10.0
UncalGyro,1676592195764,119699395614940,-0.1301143,-0.7110472,2.9382617,0.00061608746,-0.00076961785,-0.0031181322
UncalAccel,1676592195764,119699395614940,6.2584276,-6.25424,5.8863435,0.006110925,-0.043260336,-0.038735468
OrientationDeg,1676592195764,119699395614940,152.0,-35.0,-9.0
UncalMag,1676592195766,119699397875988,-80.9836,-25.071,-90.3288,-47.646854,1.2478232,-64.42538
UncalGyro,1676592195774,119699404595043,-0.13225232,-0.7689266,3.0589077,0.00061608746,-0.00076961785,-0.0031181322
UncalAccel,1676592195774,119699404595043,6.463014,-6.168697,6.0831532,0.006110925,-0.043260336,-0.038735468
OrientationDeg,1676592195773,119699404595043,151.0,-36.0,-8.0
UncalMag,1676592195777,119699407876232,-80.947,-23.8876,-89.8286,-47.646854,1.2478232,-64.42538
UncalGyro,1676592195782,119699413576610,-0.1432479,-0.77549344,3.1230485,0.00061608746,-0.00076961785,-0.0031181322
UncalAccel,1676592195782,119699413576610,6.7615185,-5.9503517,5.785247,0.006110925,-0.043260336,-0.038735468
OrientationDeg,1676592195783,119699413576610,149.0,-37.0,-7.0
UncalMag,1676592195786,119699417875988,-81.435,-23.3386,-90.499596,-47.646854,1.2478232,-64.42538
UncalGyro,1676592195792,119699422543773,-0.1386664,-0.81504697,3.133128,0.00061608746,-0.00076961785,-0.0031181322
UncalAccel,1676592195792,119699422543773,7.027122,-5.933004,5.200202,0.006110925,-0.043260336,-0.038735468
OrientationDeg,1676592195791,119699422543773,148.0,-37.0,-6.0
UncalMag,1676592195797,119699427875744,-81.496,-21.6062,-87.4496,-47.646854,1.2478232,-64.42538
UncalGyro,1676592195800,119699431532542,-0.12614368,-0.9103419,3.1160235,0.00061608746,-0.00076961785,-0.0031181322
UncalAccel,1676592195801,119699431532542,7.0055866,-6.023931,4.566104,0.006110925,-0.043260336,-0.038735468
OrientationDeg,1676592195801,119699431532542,147.0,-38.0,-5.0
UncalMag,1676592195806,119699437875988,-82.9112,-20.447199,-88.486595,-47.646854,1.2478232,-64.42538
UncalGyro,1676592195810,119699440515392,-0.14446963,-1.040609,3.0921998,0.00061608746,-0.00076961785,-0.0031181322
UncalAccel,1676592195810,119699440515392,6.769295,-6.200402,3.8584266,0.006110925,-0.043260336,-0.038735468
OrientationDeg,1676592195809,119699440515392,146.0,-38.0,-4.0
UncalMag,1676592195817,119699447876232,-85.7294,-20.8132,-89.0112,-47.646854,1.2478232,-64.42538
UncalGyro,1676592195819,119699449486766,-0.22724187,-1.193478,3.094185,0.00061608746,-0.00076961785,-0.0031181322
UncalAccel,1676592195819,119699449486766,6.4181485,-6.524629,3.016751,0.006110925,-0.043260336,-0.038735468
OrientationDeg,1676592195818,119699449486766,145.0,-39.0,-3.0
UncalMag,1676592195827,119699457876476,-85.4854,-18.543999,-88.5842,-47.646854,1.2478232,-64.42538
UncalGyro,1676592195828,119699458476696,-0.37659842,-1.403921,3.1451924,0.00061608746,-0.00076961785,-0.0031181322
UncalAccel,1676592195828,119699458476696,6.099305,-7.045666,2.1499512,0.006110925,-0.043260336,-0.038735468
OrientationDeg,1676592195828,119699458476696,143.0,-40.0,-1.0
UncalGyro,1676592195837,119699467455150,-0.5571091,-1.6595682,3.2588134,0.00061608746,-0.00076961785,-0.0031181322
UncalAccel,1676592195837,119699467455150,5.973682,-7.5774713,1.6797615,0.006110925,-0.043260336,-0.038735468
OrientationDeg,1676592195836,119699467455150,142.0,-41.0,0.0
UncalMag,1676592195836,119699467864269,-87.657,-16.5432,-87.6326,-47.646854,1.2478232,-64.42538
UncalGyro,1676592195845,119699476434520,-0.7489208,-1.9141463,3.4093916,0.00061608746,-0.00076961785,-0.0031181322
UncalAccel,1676592195845,119699476434520,6.172286,-7.7126656,1.7318054,0.006110925,-0.043260336,-0.038735468
UncalMag,1676592195846,119699477875988,-87.9132,-15.189,-86.0588,-47.646854,1.2478232,-64.42538
OrientationDeg,1676592195845,119699476434520,141.0,-42.0,1.0
UncalGyro,1676592195855,119699485417308,-0.9408852,-2.1261165,3.552945,0.00061608746,-0.00076961785,-0.0031181322
UncalAccel,1676592195855,119699485417308,6.646663,-7.7108707,2.2061825,0.006110925,-0.043260336,-0.038735468
OrientationDeg,1676592195855,119699485417308,140.0,-43.0,2.0
UncalMag,1676592195857,119699487875988,-89.06,-13.822599,-84.265396,-47.646854,1.2478232,-64.42538
UncalGyro,1676592195864,119699494395397,-1.1120802,-2.2928827,3.661679,0.00061608746,-0.00076961785,-0.0031181322
UncalAccel,1676592195863,119699494395397,7.2382884,-7.838887,2.9659038,0.006110925,-0.043260336,-0.038735468
OrientationDeg,1676592195863,119699494395397,139.0,-44.0,4.0
UncalMag,1676592195867,119699497875988,-90.6338,-12.248799,-85.0096,-47.646854,1.2478232,-64.42538
UncalGyro,1676592195872,119699503375316,-1.2450961,-2.414903,3.7516289,0.00061608746,-0.00076961785,-0.0031181322
UncalAccel,1676592195872,119699503375316,7.8424764,-8.096115,3.7824545,0.006110925,-0.043260336,-0.038735468
OrientationDeg,1676592195873,119699503375316,138.0,-45.0,6.0
UncalMag,1676592195876,119699507875255,-90.816795,-10.3578,-84.0824,-47.646854,1.2478232,-64.42538
UncalGyro,1676592195882,119699512353527,-1.3322971,-2.4555256,3.820504,0.00061608746,-0.00076961785,-0.0031181322
UncalAccel,1676592195881,119699512353527,8.420941,-8.439486,4.855037,0.006110925,-0.043260336,-0.038735468
OrientationDeg,1676592195881,119699512353527,138.0,-47.0,8.0
UncalMag,1676592195887,119699517875988,-94.123,-9.577,-82.594,-47.646854,1.2478232,-64.42538
UncalGyro,1676592195891,119699521336925,-1.3787229,-2.4222333,3.870595,0.00061608746,-0.00076961785,-0.0031181322
UncalAccel,1676592195890,119699521336925,8.484351,-8.89472,5.7349977,0.006110925,-0.043260336,-0.038735468
OrientationDeg,1676592195890,119699521336925,137.0,-48.0,10.0
UncalMag,1676592195897,119699527875988,-93.6838,-7.137,-84.973,-47.646854,1.2478232,-64.42538
UncalGyro,1676592195899,119699530318187,-1.3750577,-2.3393085,3.9509237,0.00061608746,-0.00076961785,-0.0031181322
UncalAccel,1676592195899,119699530318187,8.172088,-9.4636135,6.3403816,0.006110925,-0.043260336,-0.038735468
OrientationDeg,1676592195900,119699530318187,136.0,-49.0,12.0
UncalMag,1676592195906,119699537876476,-94.1596,-5.3802,-81.9108,-47.646854,1.2478232,-64.42538
UncalGyro,1676592195908,119699539283946,-1.3307699,-2.248595,4.098753,0.00061608746,-0.00076961785,-0.0031181322
UncalAccel,1676592195908,119699539283946,8.053643,-9.942178,6.442675,0.006110925,-0.043260336,-0.038735468
OrientationDeg,1676592195909,119699539283946,135.0,-50.0,14.0
UncalMag,1676592195916,119699547876232,-93.9644,-2.379,-83.3992,-47.646854,1.2478232,-64.42538
UncalGyro,1676592195917,119699548276134,-1.294118,-2.1638374,4.275904,0.00061608746,-0.00076961785,-0.0031181322
UncalAccel,1676592195917,119699548276134,8.2348995,-10.039087,6.2285175,0.006110925,-0.043260336,-0.038735468
OrientationDeg,1676592195918,119699548276134,134.0,-51.0,16.0
UncalGyro,1676592195926,119699557257396,-1.3266466,-2.0810652,4.418236,0.00061608746,-0.00076961785,-0.0031181322
UncalAccel,1676592195927,119699557257396,8.598608,-9.993624,6.058627,0.006110925,-0.043260336,-0.038735468
UncalMag,1676592195927,119699557864269,-93.464195,-0.6344,-82.1548,-47.646854,1.2478232,-64.42538
OrientationDeg,1676592195927,119699557257396,133.0,-51.0,19.0
UncalGyro,1676592195935,119699566236400,-1.4752395,-2.0102048,4.5202503,0.00061608746,-0.00076961785,-0.0031181322
UncalAccel,1676592195935,119699566236400,9.205787,-10.462019,5.953941,0.006110925,-0.043260336,-0.038735468
OrientationDeg,1676592195936,119699566236400,132.0,-52.0,21.0
UncalMag,1676592195937,119699567875988,-95.6724,0.9882,-82.96,-47.646854,1.2478232,-64.42538
UncalGyro,1676592195944,119699575216137,-1.7676913,-1.9932534,4.623639,0.00061608746,-0.00076961785,-0.0031181322
UncalAccel,1676592195944,119699575216137,9.811171,-11.678769,5.9551373,0.006110925,-0.043260336,-0.038735468
OrientationDeg,1676592195944,119699575216137,132.0,-53.0,23.0
UncalMag,1676592195947,119699577875744,-95.6724,2.7084,-81.935196,-47.646854,1.2478232,-64.42538
UncalGyro,1676592195953,119699584184642,-2.0857995,-2.0409007,4.8359146,0.00061608746,-0.00076961785,-0.0031181322
UncalAccel,1676592195954,119699584184642,8.583055,-13.037294,7.481758,0.006110925,-0.043260336,-0.038735468
OrientationDeg,1676592195954,119699584184642,131.0,-54.0,26.0
UncalMag,1676592195956,119699587875988,-95.6968,5.7218,-80.886,-47.646854,1.2478232,-64.42538
UncalGyro,1676592195962,119699593177562,-2.2652411,-2.0019581,5.182581,0.00061608746,-0.00076961785,-0.0031181322
UncalAccel,1676592195962,119699593177562,7.6666036,-13.96571,10.1084795,0.006110925,-0.043260336,-0.038735468
OrientationDeg,1676592195963,119699593177562,131.0,-54.0,29.0
UncalMag,1676592195967,119699597861095,-97.4414,7.3932,-78.665596,-47.646854,1.2478232,-64.42538
UncalGyro,1676592195971,119699602156261,-2.209805,-1.8144225,5.55811,0.00061608746,-0.00076961785,-0.0031181322
UncalAccel,1676592195972,119699602156261,8.277371,-14.15534,12.631112,0.006110925,-0.043260336,-0.038735468
OrientationDeg,1676592195972,119699602156261,130.0,-55.0,32.0
UncalMag,1676592195976,119699607876232,-97.050995,10.2724,-77.909195,-47.646854,1.2478232,-64.42538
UncalGyro,1676592195980,119699611136486,-1.9190332,-1.5974126,5.843995,0.00061608746,-0.00076961785,-0.0031181322
UncalAccel,1676592195980,119699611136486,9.513863,-13.649259,13.940585,0.006110925,-0.043260336,-0.038735468
OrientationDeg,1676592195980,119699611136486,129.0,-55.0,35.0
UncalMag,1676592195986,119699617875988,-96.1604,13.2126,-75.7498,-47.646854,1.2478232,-64.42538
UncalGyro,1676592195989,119699620116466,-1.4332426,-1.4694363,5.9777746,0.00061608746,-0.00076961785,-0.0031181322
UncalAccel,1676592195990,119699620116466,10.713265,-12.841083,14.565111,0.006110925,-0.043260336,-0.038735468
OrientationDeg,1676592195990,119699620116466,127.0,-55.0,38.0
UncalMag,1676592195997,119699627875988,-95.0746,16.0552,-73.846596,-47.646854,1.2478232,-64.42538
UncalGyro,1676592195998,119699629097972,-0.8539896,-1.368949,5.960365,0.00061608746,-0.00076961785,-0.0031181322
UncalAccel,1676592195999,119699629097972,11.723037,-12.334402,14.548362,0.006110925,-0.043260336,-0.038735468
OrientationDeg,1676592195998,119699629097972,126.0,-54.0,41.0
UncalMag,1676592196007,119699637876476,-93.0738,19.2272,-71.992195,-47.646854,1.2478232,-64.42538
UncalGyro,1676592196007,119699638061900,-0.33765575,-1.3002267,5.848882,0.00061608746,-0.00076961785,-0.0031181322
UncalAccel,1676592196007,119699638061900,12.302697,-12.078969,13.460824,0.006110925,-0.043260336,-0.038735468
OrientationDeg,1676592196007,119699638061900,123.0,-53.0,43.0
UncalGyro,1676592196017,119699647047191,0.05222898,-1.2197452,5.715866,0.00061608746,-0.00076961785,-0.0031181322
UncalAccel,1676592196017,119699647047191,12.089736,-11.248659,13.459627,0.006110925,-0.043260336,-0.038735468
UncalMag,1676592196017,119699647859874,-92.0124,21.045,-73.322,-47.646854,1.2478232,-64.42538
OrientationDeg,1676592196017,119699647047191,121.0,-52.0,46.0
UncalGyro,1676592196026,119699656036998,0.3136793,-0.9947941,5.5465035,0.00061608746,-0.00076961785,-0.0031181322
UncalAccel,1676592196026,119699656036998,12.664612,-10.384252,13.176078,0.006110925,-0.043260336,-0.038735468
UncalMag,1676592196026,119699657863537,-92.366196,22.862799,-71.979996,-47.646854,1.2478232,-64.42538
OrientationDeg,1676592196025,119699656036998,118.0,-51.0,48.0
Status,0,29,0,6,2,1575420030,41.09,30.0,78.0,1,1,1,36.88745
Status,0,29,1,6,2,1176450050,39.41,30.0,78.0,1,1,1,35.310116
Status,0,29,2,6,36,1176450050,38.09,86.0,72.0,1,1,1,33.990448
Status,0,29,3,6,36,1575420030,43.70,86.0,72.0,1,1,1,39.496952
Status,0,29,4,3,17,1604249980,42.33,242.0,68.0,1,1,1,38.13407
Status,0,29,5,3,14,1598062460,45.10,130.0,66.0,1,1,1,40.899994
Status,0,29,6,1,11,1176450050,41.81,163.0,60.0,1,1,1,37.708374
Status,0,29,7,1,11,1575420030,43.78,163.0,60.0,1,1,1,39.584488
Status,0,29,8,1,6,1176450050,43.20,67.0,59.0,1,1,1,39.09945
Status,0,29,9,1,6,1575420030,48.33,67.0,59.0,1,1,1,44.12544
Status,0,29,10,3,15,1602000000,37.45,331.0,54.0,1,1,1,33.249268
Status,0,29,11,1,24,1575420030,39.97,238.0,52.0,1,1,1,35.76981
Status,0,29,12,1,24,1176450050,39.39,238.0,52.0,1,1,1,35.28811
Status,0,29,13,3,24,1603124990,41.66,28.0,50.0,1,1,1,37.45772
Status,0,29,14,1,12,1575420030,37.78,316.0,47.0,1,1,1,33.58193
Status,0,29,15,6,34,1176450050,32.93,197.0,43.0,1,1,1,28.828451
Status,0,29,16,6,34,1575420030,39.64,197.0,43.0,1,1,1,35.44433
Status,0,29,17,1,19,1575420030,45.98,49.0,39.0,1,1,1,41.777996
Status,0,29,18,6,25,1176450050,37.00,113.0,37.0,1,1,1,32.90254
Status,0,29,19,6,25,1575420030,42.50,113.0,37.0,1,1,1,38.299095
Status,0,29,20,6,30,1176450050,32.74,311.0,33.0,1,1,1,28.64207
Status,0,29,21,6,30,1575420030,35.93,311.0,33.0,1,1,1,31.728704
Status,0,29,22,6,11,1575420030,39.51,42.0,26.0,1,1,1,35.30752
Status,0,29,23,6,11,1176450050,36.36,42.0,26.0,1,1,1,32.25919
Status,0,29,24,1,25,1575420030,37.64,306.0,19.0,1,1,1,33.444557
Status,0,29,25,1,25,1176450050,33.17,306.0,19.0,1,1,1,29.073467
Status,0,29,26,3,18,1600312450,35.34,222.0,19.0,1,1,1,31.139427
Status,0,29,27,1,17,1575420030,47.42,60.0,13.0,1,1,1,43.223244
Status,0,29,28,1,20,1575420030,43.37,153.0,12.0,1,1,1,39.168186
UncalGyro,1676592196034,119699665018077,0.40683624,-0.64553183,5.3065863,0.00061608746,-0.00076961785,-0.0031181322
UncalAccel,1676592196034,119699665018077,12.646068,-9.861421,12.9547415,0.006110925,-0.043260336,-0.038735468
UncalMag,1676592196037,119699667867199,-92.4394,24.534199,-74.42,-47.646854,1.2478232,-64.42538
OrientationDeg,1676592196035,119699665018077,115.0,-49.0,50.0
Fix,GPS,37.4307982859,-122.1550420290,-18.12359945600462,0.07709965,3.7347794,77.93951,1676592194999,0.13178395,180.0,119699563646000,3.0
Raw,1676592194999,154696000000,,,-1360627258303552088,0.0,7.651896422518695,289.0,1.0,15,6,0.0,16431,432212930283861,11,47.34077072143555,301.18908814648853,0.15,16,45144.372601698866,340282346638528860000000000000000000000,1575420030,,,,0,,1,,43.140769958496094,0.320142130558394,1.0,0.320142130558394,1.0,C,119699563646000
Raw,1676592194999,154696000000,,,-1360627258303552088,0.0,7.651896422518695,289.0,1.0,15,11,0.0,16431,432212929892531,12,43.6166877746582,-258.6735071588696,0.15,16,-41192.749584578116,340282346638528860000000000000000000000,1575420030,,,,0,,1,,39.41668701171875,-0.20372681261465636,1.0,-0.20372681261465636,1.0,C,119699563646000
Raw,1676592194999,154696000000,,,-1360627258303552088,0.0,7.651896422518695,289.0,1.0,15,12,0.0,16431,432212928214334,43,28.565738677978516,-327.9499513590688,0.8544287458853392,16,-51132.21560162154,340282346638528860000000000000000000000,1575420030,,,,0,,1,,24.365739822387695,-0.6984919076624261,1.0,-0.6984919076624261,1.0,C,119699563646000
Raw,1676592194999,154696000000,,,-1360627258303552088,0.0,7.651896422518695,289.0,1.0,15,17,0.0,16431,432212917751097,13,45.93061447143555,596.3556017306573,0.15,16,92173.11368016688,340282346638528860000000000000000000000,1575420030,,,,0,,1,,41.730613708496094,-0.7858034271858065,1.0,-0.7858034271858065,1.0,C,119699563646000
Raw,1676592194999,154696000000,,,-1360627258303552088,0.0,7.651896422518695,289.0,1.0,15,19,0.0,16431,432212927004177,17,39.61414337158203,537.2415235918645,0.15,16,82529.57412220426,340282346638528860000000000000000000000,1575420030,,,,0,,1,,35.41414260864258,0.0,1.0,0.0,1.0,C,119699563646000
Raw,1676592194999,154696000000,,,-1360627258303552088,0.0,7.651896422518695,289.0,1.0,15,20,0.0,16431,432212918051600,13,43.08333206176758,-487.6231586648919,0.15,16,-75134.84150909045,340282346638528860000000000000000000000,1575420030,,,,0,,1,,38.883331298828125,0.0,1.0,0.0,1.0,C,119699563646000
Raw,1676592194999,154696000000,,,-1360627258303552088,0.0,7.651896422518695,289.0,1.0,15,24,0.0,16431,432212928231169,18,39.4541130065918,388.05412485984925,0.15,16,58636.35809438345,340282346638528860000000000000000000000,1575420030,,,,0,,1,,35.254112243652344,-0.20372681261465636,1.0,-0.20372681261465636,1.0,C,119699563646000
Raw,1676592194999,154696000000,,,-1360627258303552088,0.0,7.651896422518695,289.0,1.0,15,25,0.0,16431,432212921573893,23,36.0484619140625,-511.0767966263247,0.15,16,-79039.9380431426,340282346638528860000000000000000000000,1575420030,,,,0,,1,,31.848461151123047,-2.0372682255564105,1.0,-2.0372682255564105,1.0,C,119699563646000
Raw,1676592194999,154696000000,,,-1360627258303552088,0.0,7.651896422518695,289.0,1.0,15,6,0.0,81921,432212930284409,7,36.60111999511719,300.8998985028925,0.15,16,46029.29491392459,340282346638528860000000000000000000000,1176450050,,,,0,,1,,32.501121520996094,1.9208527336454408,1.824392788946556,1.9208527336454408,1.0,Q,119699563646000
Raw,1676592194999,154696000000,,,-1360627258303552088,0.0,7.651896422518695,289.0,1.0,15,11,0.0,81921,432212929893060,9,38.809383392333984,-258.63139828383567,0.15,16,-42028.81252296161,340282346638528860000000000000000000000,1176450050,,,,0,,1,,34.70938491821289,0.0,1.824392788946556,0.0,1.0,Q,119699563646000
Raw,1676592194999,154696000000,,,-1360627258303552088,0.0,7.651896422518695,289.0,1.0,15,24,0.0,81921,432212928231713,11,36.78268814086914,387.8305439450596,0.15,16,59785.52160565142,340282346638528860000000000000000000000,1176450050,,,,0,,1,,32.68268966674805,3.5215636101095664,1.824392788946556,3.5215636101095664,1.0,Q,119699563646000
Raw,1676592194999,154696000000,,,-1360627258303552088,0.0,7.651896422518695,289.0,1.0,15,25,0.0,81921,432212921574441,41,26.518461227416992,-511.145200116566,0.9408013459533988,16,-80619.65854729986,340282346638528860000000000000000000000,1176450050,,,,0,,1,,22.418460845947266,1.0186341127782053,1.824392788946556,1.0186341127782053,1.0,Q,119699563646000
Raw,1676592194999,154696000000,,,-1360627258303552088,0.0,7.651896422518695,289.0,1.0,15,14,0.0,32995,10994934404365,33,42.74805450439453,355.92350245718717,0.15,16,53423.81697541406,340282346638528860000000000000000000000,1598062460,,,,0,,3,,38.54805374145508,50.29141902923584,2.0000000474974513,50.29141902923584,2.0000000474974513,C,119699563646000
Raw,1676592194999,154696000000,,,-1360627258303552088,0.0,7.651896422518695,289.0,1.0,15,18,0.0,32995,10994924064370,60,32.98837661743164,-601.931355287963,0.6548013410033429,16,-93585.56811979678,340282346638528860000000000000000000000,1600312450,,,,0,,3,,28.78837776184082,50.29141902923584,2.0000000474974513,50.29141902923584,2.0000000474974513,C,119699563646000
Raw,1676592194999,154696000000,,,-1360627258303552088,0.0,7.651896422518695,289.0,1.0,15,15,0.0,32995,10994932690831,74,30.40082550048828,-376.76962799988587,0.7727122620359212,16,-59688.20561397233,340282346638528860000000000000000000000,1602000000,,,,0,,3,,26.20082664489746,50.29141902923584,2.0000000474974513,50.29141902923584,2.0000000474974513,C,119699563646000
Raw,1676592194999,154696000000,,,-1360627258303552088,0.0,7.651896422518695,289.0,1.0,15,24,0.0,32995,10994931924596,39,38.42466354370117,595.6627053895486,0.15,16,91446.17479872255,340282346638528860000000000000000000000,1603124990,,,,0,,3,,34.22466278076172,50.29141902923584,2.0000000474974513,50.29141902923584,2.0000000474974513,C,119699563646000
Raw,1676592194999,154696000000,,,-1360627258303552088,0.0,7.651896422518695,289.0,1.0,15,17,0.0,32995,10994935109621,33,41.430110931396484,-120.32445741032001,0.15,16,-20081.247112777546,340282346638528860000000000000000000000,1604249980,,,,0,,3,,37.23011016845703,50.29141902923584,2.0000000474974513,50.29141902923584,2.0000000474974513,C,119699563646000
Raw,1676592194999,154696000000,,,-1360627258303552088,0.0,7.651896422518695,289.0,1.0,15,2,0.0,85026,432212921737743,29,33.212188720703125,43.17288246319666,0.6450376491517282,16,6279.326047180489,340282346638528860000000000000000000000,1575420030,,,,1,,6,,29.012189865112305,-6.024492904543876,1.5000000237487257,-6.024492904543876,1.5000000237487257,C,119699563646000
Raw,1676592194999,154696000000,,,-1360627258303552088,0.0,7.651896422518695,289.0,1.0,15,11,0.0,85026,432212913020166,29,33.44133758544922,551.0609372381684,0.6346040240140871,16,84578.59203229746,340282346638528860000000000000000000000,1575420030,,,,0,,6,,29.2413387298584,-6.024492904543876,1.5000000237487257,-6.024492904543876,1.5000000237487257,C,119699563646000
Raw,1676592194999,154696000000,,,-1360627258303552088,0.0,7.651896422518695,289.0,1.0,15,25,0.0,85026,432212914387963,15,41.16164779663086,430.0675008506046,0.15,16,65837.17796595593,340282346638528860000000000000000000000,1575420030,,,,0,,6,,36.961647033691406,-6.024492904543876,1.5000000237487257,-6.024492904543876,1.5000000237487257,C,119699563646000
Raw,1676592194999,154696000000,,,-1360627258303552088,0.0,7.651896422518695,289.0,1.0,15,30,0.0,85026,432212912773596,42,28.87659454345703,-327.3634945296808,0.8398310034278067,16,-50444.933857270706,340282346638528860000000000000000000000,1575420030,,,,0,,6,,24.67659568786621,-6.024492904543876,1.5000000237487257,-6.024492904543876,1.5000000237487257,C,119699563646000
Raw,1676592194999,154696000000,,,-1360627258303552088,0.0,7.651896422518695,289.0,1.0,15,34,0.0,85026,432212916512879,18,39.452247619628906,-378.23490097071453,0.15,16,-58845.88297888285,340282346638528860000000000000000000000,1575420030,,,,0,,6,,35.25224685668945,-6.024492904543876,1.5000000237487257,-6.024492904543876,1.5000000237487257,C,119699563646000
Raw,1676592194999,154696000000,,,-1360627258303552088,0.0,7.651896422518695,289.0,1.0,15,36,0.0,85026,432212921194245,16,40.736366271972656,119.92420156153025,0.15,16,17502.619379089236,340282346638528860000000000000000000000,1575420030,,,,0,,6,,36.5363655090332,-6.024492904543876,1.5000000237487257,-6.024492904543876,1.5000000237487257,C,119699563646000
Raw,1676592194999,154696000000,,,-1360627258303552088,0.0,7.651896422518695,289.0,1.0,15,2,0.0,84003,432212921738304,7,38.4736442565918,43.93890271477508,0.15,16,6252.737561579154,340282346638528860000000000000000000000,1176450050,,,,0,,6,,34.3736457824707,-4.362151958048344,2.3243928126952818,-4.362151958048344,1.5000000237487257,Q,119699563646000
Raw,1676592194999,154696000000,,,-1360627258303552088,0.0,7.651896422518695,289.0,1.0,15,11,0.0,84003,432212913020723,10,32.93070983886719,551.3046268023065,0.6545087111617915,16,85642.17766167755,340282346638528860000000000000000000000,1176450050,,,,0,,6,,28.83070945739746,4.134257324039933,2.3243928126952818,4.134257324039933,1.5000000237487257,Q,119699563646000
Raw,1676592194999,154696000000,,,-1360627258303552088,0.0,7.651896422518695,289.0,1.0,15,25,0.0,84003,432212914388500,28,29.429140090942383,430.052470487278,0.8122163587031785,16,65482.04987342492,340282346638528860000000000000000000000,1176450050,,,,0,,6,,25.329139709472656,-8.795061148703097,2.3243928126952818,-8.795061148703097,1.5000000237487257,Q,119699563646000
Raw,1676592194999,154696000000,,,-1360627258303552088,0.0,7.651896422518695,289.0,1.0,15,30,0.0,84003,432212912774165,27,27.88296890258789,-326.47544204252245,0.8814555348022468,16,-50127.01447231338,340282346638528860000000000000000000000,1176450050,,,,0,,6,,23.782968521118164,-8.425652049481869,2.3243928126952818,-8.425652049481869,1.5000000237487257,Q,119699563646000
Raw,1676592194999,154696000000,,,-1360627258303552088,0.0,7.651896422518695,289.0,1.0,15,34,0.0,84003,432212916513397,38,26.942476272583008,-378.14839969605964,0.9244209978255062,16,-59828.764232625705,340282346638528860000000000000000000000,1176450050,,,,0,,6,,22.84247589111328,-10.0879929959774,2.3243928126952818,-10.0879929959774,1.5000000237487257,Q,119699563646000
Raw,1676592194999,154696000000,,,-1360627258303552088,0.0,7.651896422518695,289.0,1.0,15,36,0.0,84003,432212921194769,33,29.249452590942383,119.8970719261381,0.8215209359012037,16,17749.838907793874,340282346638528860000000000000000000000,1176450050,,,,0,,6,,25.149452209472656,-11.011515744030472,2.3243928126952818,-11.011515744030472,1.5000000237487257,Q,119699563646000
Fix,FLP,37.4308025000,-122.1550516000,-15.0,0.15603869,4.593,263.43774,1676592195837,,,119699467455150,3.9664476
UncalGyro,1676592196042,119699673999461,0.38545597,-0.20555615,5.1082077,0.00061608746,-0.00076961785,-0.0031181322
UncalAccel,1676592196042,119699673999461,11.81516,-9.918848,13.127025,0.006110925,-0.043260336,-0.038735468
OrientationDeg,1676592196042,119699673999461,112.0,-47.0,51.0
UncalMag,1676592196046,119699677875744,-92.0368,26.413,-72.7974,-47.646854,1.2478232,-64.42538
UncalGyro,1676592196051,119699682976573,0.2666427,0.257327,5.0104694,0.00061608746,-0.00076961785,-0.0031181322
UncalAccel,1676592196052,119699682976573,11.259427,-10.006784,12.5754795,0.006110925,-0.043260336,-0.038735468
OrientationDeg,1676592196052,119699682976573,109.0,-44.0,53.0
UncalMag,1676592196057,119699687864513,-90.3288,28.8042,-73.444,-47.646854,1.2478232,-64.42538
UncalGyro,1676592196061,119699691956737,0.08781188,0.65668017,4.959157,0.00061608746,-0.00076961785,-0.0031181322
UncalAccel,1676592196060,119699691956737,10.920244,-9.741181,12.151352,0.006110925,-0.043260336,-0.038735468
OrientationDeg,1676592196060,119699691956737,106.0,-41.0,55.0
UncalMag,1676592196067,119699697876232,-90.2312,30.0852,-74.2492,-47.646854,1.2478232,-64.42538
UncalGyro,1676592196069,119699700937938,-0.073303826,0.9973902,4.884937,0.00061608746,-0.00076961785,-0.0031181322
UncalAccel,1676592196069,119699700937938,10.767702,-9.720842,12.165111,0.006110925,-0.043260336,-0.038735468
OrientationDeg,1676592196070,119699700937938,103.0,-37.0,56.0
UncalMag,1676592196077,119699707875988,-88.2182,32.098198,-73.858795,-47.646854,1.2478232,-64.42538
UncalGyro,1676592196079,119699709917369,-0.14752395,1.2212723,4.7812424,0.00061608746,-0.00076961785,-0.0031181322
UncalAccel,1676592196078,119699709917369,10.4351,-9.762118,11.89173,0.006110925,-0.043260336,-0.038735468
OrientationDeg,1676592196078,119699709917369,99.0,-34.0,58.0
UncalMag,1676592196087,119699717875988,-86.619995,33.6964,-74.2492,-47.646854,1.2478232,-64.42538
UncalGyro,1676592196088,119699718897166,-0.11209377,1.2324207,4.6688433,0.00061608746,-0.00076961785,-0.0031181322
UncalAccel,1676592196087,119699718897166,10.164711,-9.972089,11.379666,0.006110925,-0.043260336,-0.038735468
OrientationDeg,1676592196087,119699718897166,95.0,-30.0,59.0
UncalGyro,1676592196097,119699727876475,0.051923547,1.0403035,4.550793,0.00061608746,-0.00076961785,-0.0031181322
UncalAccel,1676592196097,119699727876475,10.004392,-10.613365,10.9992075,0.006110925,-0.043260336,-0.038735468
UncalMag,1676592196096,119699727884044,-83.2528,36.0144,-73.1634,-47.646854,1.2478232,-64.42538
OrientationDeg,1676592196096,119699727876475,91.0,-26.0,60.0
UncalGyro,1676592196105,119699736858470,0.3481932,0.71593404,4.4467936,0.00061608746,-0.00076961785,-0.0031181322
UncalAccel,1676592196105,119699736858470,9.604192,-11.368898,10.707283,0.006110925,-0.043260336,-0.038735468
OrientationDeg,1676592196106,119699736858470,87.0,-22.0,61.0
UncalMag,1676592196107,119699737864513,-81.2642,37.1368,-71.7238,-47.646854,1.2478232,-64.42538
UncalGyro,1676592196115,119699745838267,0.75594574,0.29443705,4.379904,0.00061608746,-0.00076961785,-0.0031181322
UncalAccel,1676592196115,119699745838267,9.046664,-11.816357,10.021141,0.006110925,-0.043260336,-0.038735468
OrientationDeg,1676592196115,119699745838267,82.0,-17.0,61.0
UncalMag,1676592196117,119699747876232,-79.6782,38.0518,-72.5046,-47.646854,1.2478232,-64.42538
UncalGyro,1676592196124,119699754817333,1.1986703,-0.23564127,4.3432517,0.00061608746,-0.00076961785,-0.0031181322
UncalAccel,1676592196123,119699754817333,8.898309,-11.916855,9.028718,0.006110925,-0.043260336,-0.038735468
OrientationDeg,1676592196123,119699754817333,77.0,-13.0,61.0
UncalMag,1676592196127,119699757876232,-77.6042,40.2844,-72.59,-47.646854,1.2478232,-64.42538
UncalGyro,1676592196133,119699763797618,1.6079501,-0.8081747,4.290412,0.00061608746,-0.00076961785,-0.0031181322
UncalAccel,1676592196132,119699763797618,9.222537,-11.775081,8.220542,0.006110925,-0.043260336,-0.038735468
OrientationDeg,1676592196132,119699763797618,72.0,-9.0,61.0
UncalMag,1676592196137,119699767864513,-76.0792,41.1628,-72.5046,-47.646854,1.2478232,-64.42538
UncalGyro,1676592196141,119699772778941,1.9448422,-1.3295482,4.1871758,0.00061608746,-0.00076961785,-0.0031181322
UncalAccel,1676592196141,119699772778941,9.153743,-11.353345,7.3453674,0.006110925,-0.043260336,-0.038735468
OrientationDeg,1676592196142,119699772778941,68.0,-6.0,60.0
UncalMag,1676592196146,119699777864269,-75.9938,41.4068,-74.603,-47.646854,1.2478232,-64.42538
UncalGyro,1676592196151,119699781757640,2.1826215,-1.7899879,4.0621014,0.00061608746,-0.00076961785,-0.0031181322
UncalAccel,1676592196151,119699781757640,9.027522,-11.017154,6.355337,0.006110925,-0.043260336,-0.038735468
OrientationDeg,1676592196151,119699781757640,63.0,-3.0,59.0
UncalMag,1676592196157,119699787875988,-72.59,43.5784,-75.2008,-47.646854,1.2478232,-64.42538
UncalGyro,1676592196159,119699790737133,2.3405302,-2.199573,3.9579487,0.00061608746,-0.00076961785,-0.0031181322
UncalAccel,1676592196160,119699790737133,9.102896,-11.037493,5.569295,0.006110925,-0.043260336,-0.038735468
OrientationDeg,1676592196159,119699790737133,59.0,-1.0,58.0
UncalMag,1676592196166,119699797875988,-72.163,43.5784,-76.6038,-47.646854,1.2478232,-64.42538
UncalGyro,1676592196168,119699799717540,2.448806,-2.542421,3.871053,0.00061608746,-0.00076961785,-0.0031181322
UncalAccel,1676592196168,119699799717540,9.30808,-11.24507,5.183452,0.006110925,-0.043260336,-0.038735468
OrientationDeg,1676592196168,119699799717540,56.0,0.0,57.0
UncalMag,1676592196177,119699807875988,-69.4546,44.652,-76.921,-47.646854,1.2478232,-64.42538
UncalGyro,1676592196178,119699808698986,2.5514314,-2.8354838,3.7884336,0.00061608746,-0.00076961785,-0.0031181322
UncalAccel,1676592196178,119699808698986,9.462418,-11.207383,4.95075,0.006110925,-0.043260336,-0.038735468
OrientationDeg,1676592196177,119699808698986,52.0,1.0,55.0
UncalGyro,1676592196187,119699817677989,2.6871963,-3.1320589,3.6980255,0.00061608746,-0.00076961785,-0.0031181322
UncalAccel,1676592196186,119699817677989,9.786645,-10.715658,4.6779685,0.006110925,-0.043260336,-0.038735468
UncalMag,1676592196186,119699817872814,-67.941795,45.5792,-75.6644,-47.646854,1.2478232,-64.42538
OrientationDeg,1676592196187,119699817677989,49.0,2.0,54.0
UncalGyro,1676592196196,119699826657726,2.8889344,-3.467882,3.559512,0.00061608746,-0.00076961785,-0.0031181322
UncalAccel,1676592196196,119699826657726,10.493126,-10.082158,4.546363,0.006110925,-0.043260336,-0.038735468
UncalMag,1676592196197,119699827864269,-67.770996,45.335197,-75.3594,-47.646854,1.2478232,-64.42538
OrientationDeg,1676592196195,119699826657726,46.0,2.0,52.0
UncalGyro,1676592196204,119699835638133,3.1513011,-3.8078284,3.3425019,0.00061608746,-0.00076961785,-0.0031181322
UncalAccel,1676592196205,119699835638133,10.834701,-9.585648,4.679165,0.006110925,-0.043260336,-0.038735468
OrientationDeg,1676592196204,119699835638133,44.0,2.0,51.0
UncalMag,1676592196207,119699837876232,-65.7092,45.884197,-74.847,-47.646854,1.2478232,-64.42538
UncalGyro,1676592196214,119699844619457,3.4397821,-4.096615,3.08884,0.00061608746,-0.00076961785,-0.0031181322
UncalAccel,1676592196214,119699844619457,10.652846,-8.961121,4.8436713,0.006110925,-0.043260336,-0.038735468
OrientationDeg,1676592196213,119699844619457,41.0,2.0,49.0
UncalMag,1676592196217,119699847875988,-65.6238,45.445,-76.8966,-47.646854,1.2478232,-64.42538
UncalGyro,1676592196222,119699853597850,3.735441,-4.258036,2.8484647,0.00061608746,-0.00076961785,-0.0031181322
UncalAccel,1676592196222,119699853597850,10.473983,-8.379665,5.174479,0.006110925,-0.043260336,-0.038735468
OrientationDeg,1676592196223,119699853597850,39.0,1.0,47.0
UncalMag,1676592196226,119699857876232,-66.1972,45.2742,-77.653,-47.646854,1.2478232,-64.42538
UncalGyro,1676592196231,119699862566295,3.9930735,-4.228562,2.616794,0.00061608746,-0.00076961785,-0.0031181322
UncalAccel,1676592196232,119699862566295,10.380663,-8.0817585,5.2899327,0.006110925,-0.043260336,-0.038735468
OrientationDeg,1676592196231,119699862566295,38.0,0.0,45.0
UncalMag,1676592196236,119699867868664,-65.514,45.322998,-79.117,-47.646854,1.2478232,-64.42538
UncalGyro,1676592196240,119699871560375,4.1464005,-4.058436,2.3819163,0.00061608746,-0.00076961785,-0.0031181322
UncalAccel,1676592196240,119699871560375,9.963714,-7.4177504,4.8341,0.006110925,-0.043260336,-0.038735468
OrientationDeg,1676592196241,119699871560375,36.0,0.0,43.0
UncalMag,1676592196247,119699877875988,-64.538,45.811,-81.252,-47.646854,1.2478232,-64.42538
UncalGyro,1676592196250,119699880539318,4.208098,-3.8198931,2.1087067,0.00061608746,-0.00076961785,-0.0031181322
UncalAccel,1676592196249,119699880539318,9.741779,-6.366703,3.9900317,0.006110925,-0.043260336,-0.038735468
OrientationDeg,1676592196249,119699880539318,35.0,-1.0,40.0
UncalMag,1676592196257,119699887875988,-63.378998,45.493797,-81.862,-47.646854,1.2478232,-64.42538
UncalGyro,1676592196259,119699889514476,4.1873283,-3.5992181,1.7980819,0.00061608746,-0.00076961785,-0.0031181322
UncalAccel,1676592196258,119699889514476,9.51147,-5.636892,2.620739,0.006110925,-0.043260336,-0.038735468
OrientationDeg,1676592196258,119699889514476,33.0,-2.0,38.0
UncalMag,1676592196267,119699897876232,-63.7328,45.1156,-83.265,-47.646854,1.2478232,-64.42538
UncalGyro,1676592196267,119699898498302,4.088521,-3.4961345,1.4611896,0.00061608746,-0.00076961785,-0.0031181322
UncalAccel,1676592196267,119699898498302,9.042477,-5.5627146,1.146162,0.006110925,-0.043260336,-0.038735468
OrientationDeg,1676592196268,119699898498302,32.0,-3.0,36.0
UncalGyro,1676592196276,119699907482128,3.944357,-3.5619552,1.1603385,0.00061608746,-0.00076961785,-0.0031181322
UncalAccel,1676592196277,119699907482128,8.364112,-5.779863,0.14117654,0.006110925,-0.043260336,-0.038735468
UncalMag,1676592196277,119699907864513,-63.927998,43.627197,-84.9364,-47.646854,1.2478232,-64.42538
OrientationDeg,1676592196276,119699907482128,32.0,-4.0,34.0
UncalGyro,1676592196286,119699916453746,3.804316,-3.7736201,0.947452,0.00061608746,-0.00076961785,-0.0031181322
UncalAccel,1676592196285,119699916453746,7.8233337,-5.623133,-0.20817557,0.006110925,-0.043260336,-0.038735468
OrientationDeg,1676592196285,119699916453746,31.0,-6.0,33.0
UncalMag,1676592196287,119699917875988,-63.927998,43.627197,-84.9364,-47.646854,1.2478232,-64.42538
UncalGyro,1676592196295,119699925438610,3.685961,-4.011705,0.7985536,0.00061608746,-0.00076961785,-0.0031181322
UncalAccel,1676592196294,119699925438610,7.185048,-5.293522,0.24825534,0.006110925,-0.043260336,-0.038735468
OrientationDeg,1676592196294,119699925438610,30.0,-8.0,31.0
UncalMag,1676592196297,119699927876232,-65.0138,42.3218,-86.4248,-47.646854,1.2478232,-64.42538
UncalGyro,1676592196304,119699934416759,3.595553,-4.1555634,0.66538495,0.00061608746,-0.00076961785,-0.0031181322
UncalAccel,1676592196304,119699934416759,6.678368,-4.968696,1.052842,0.006110925,-0.043260336,-0.038735468
OrientationDeg,1676592196304,119699934416759,29.0,-10.0,29.0
