# 
# Header Description:
# 
# Version: v3.0.5.6 Platform: 13 Manufacturer: Google Model: Pixel 6
# 
# Raw,utcTimeMillis,TimeNanos,LeapSecond,TimeUncertaintyNanos,FullBiasNanos,BiasNanos,BiasUncertaintyNanos,DriftNanosPerSecond,DriftUncertaintyNanosPerSecond,HardwareClockDiscontinuityCount,Svid,TimeOffsetNanos,State,ReceivedSvTimeNanos,ReceivedSvTimeUncertaintyNanos,Cn0DbHz,PseudorangeRateMetersPerSecond,PseudorangeRateUncertaintyMetersPerSecond,AccumulatedDeltaRangeState,AccumulatedDeltaRangeMeters,AccumulatedDeltaRangeUncertaintyMeters,CarrierFrequencyHz,CarrierCycles,CarrierPhase,CarrierPhaseUncertainty,MultipathIndicator,SnrInDb,ConstellationType,AgcDb,BasebandCn0DbHz,FullInterSignalBiasNanos,FullInterSignalBiasUncertaintyNanos,SatelliteInterSignalBiasNanos,SatelliteInterSignalBiasUncertaintyNanos,CodeType,ChipsetElapsedRealtimeNanos
# 
# UncalAccel,utcTimeMillis,elapsedRealtimeNanos,UncalAccelXMps2,UncalAccelYMps2,UncalAccelZMps2,BiasXMps2,BiasYMps2,BiasZMps2
# 
# Accel,utcTimeMillis,elapsedRealtimeNanos,AccelXMps2,AccelYMps2,AccelZMps2
# 
# UncalGyro,utcTimeMillis,elapsedRealtimeNanos,UncalGyroXRadPerSec,UncalGyroYRadPerSec,UncalGyroZRadPerSec,DriftXRadPerSec,DriftYRadPerSec,DriftZRadPerSec
# 
# Gyro,utcTimeMillis,elapsedRealtimeNanos,GyroXRadPerSec,GyroYRadPerSec,GyroZRadPerSec
# 
# UncalMag,utcTimeMillis,elapsedRealtimeNanos,UncalMagXMicroT,UncalMagYMicroT,UncalMagZMicroT,BiasXMicroT,BiasYMicroT,BiasZMicroT
# 
# Mag,utcTimeMillis,elapsedRealtimeNanos,MagXMicroT,MagYMicroT,MagZMicroT
# 
# OrientationDeg,utcTimeMillis,elapsedRealtimeNanos,yawDeg,rollDeg,pitchDeg
# 
# Fix,Provider,LatitudeDegrees,LongitudeDegrees,AltitudeMeters,SpeedMps,AccuracyMeters,BearingDegrees,UnixTimeMillis,SpeedAccuracyMps,BearingAccuracyDegrees,elapsedRealtimeNanos,VerticalAccuracyMeters
# 
# Nav,Svid,Type,Status,MessageId,Sub-messageId,Data(Bytes)
# 
# Status,UnixTimeMillis,SignalCount,SignalIndex,ConstellationType,Svid,CarrierFrequencyHz,Cn0DbHz,AzimuthDegrees,ElevationDegrees,UsedInFix,HasAlmanacData,HasEphemerisData,BasebandCn0DbHz
# 
UncalAccel,1676592532550,120036180350108,-0.0071784677,1.439881,9.477372,0.006110925,-0.043260336,-0.038735468
UncalMag,1676592532556,120036187876232,-32.7448,14.8108,-113.6064,-47.646854,1.2478232,-64.42538
UncalGyro,1676592532558,120036189322826,-0.04230242,-0.61666846,0.18280143,0.00063883443,-0.0009609845,-0.0033536158
UncalAccel,1676592532558,120036189322826,0.25842485,1.39023,9.668798,0.006110925,-0.043260336,-0.038735468
UncalMag,1676592532566,120036197875988,-34.0868,14.2618,-113.9236,-47.646854,1.2478232,-64.42538
UncalGyro,1676592532567,120036198314525,-0.13271047,-0.45952338,0.23380867,0.00063883443,-0.0009609845,-0.0033536158
UncalAccel,1676592532568,120036198314525,0.42951167,1.346561,9.707084,0.006110925,-0.043260336,-0.038735468
OrientationDeg,1676592532559,120036189322826,320.0,-1.0,-12.0
OrientationDeg,1676592532568,120036198314525,320.0,-1.0,-12.0
UncalGyro,1676592532577,120036207293407,-0.21487185,-0.30482176,0.28069258,0.00063883443,-0.0009609845,-0.0033536158
UncalAccel,1676592532577,120036207293407,0.552742,1.326222,9.865009,0.006110925,-0.043260336,-0.038735468
UncalMag,1676592532577,120036207864513,-32.573997,14.823,-113.46,-47.646854,1.2478232,-64.42538
OrientationDeg,1676592532576,120036207293407,319.0,-2.0,-11.0
Fix,FLP,37.4308079000,-122.1550160000,-16.100000381469727,0.16261566,3.975,328.18558,1676592531939,0.14901587,82.86212,120035569026000,5.351181
UncalGyro,1676592532585,120036216272167,-0.28955013,-0.13545936,0.31627548,0.00063883443,-0.0009609845,-0.0033536158
UncalAccel,1676592532586,120036216272167,0.53359944,1.43689,10.056436,0.006110925,-0.043260336,-0.038735468
OrientationDeg,1676592532586,120036216272167,319.0,-2.0,-11.0
UncalMag,1676592532586,120036217876232,-32.635,14.9938,-108.641,-47.646854,1.2478232,-64.42538
UncalGyro,1676592532594,120036225252147,-0.34590244,0.006872234,0.33948836,0.00063883443,-0.0009609845,-0.0033536158
UncalAccel,1676592532594,120036225252147,0.50129634,1.5523437,10.056436,0.006110925,-0.043260336,-0.038735468
OrientationDeg,1676592532595,120036225252147,319.0,-2.0,-11.0
UncalMag,1676592532596,120036227876232,-32.5984,14.8108,-108.1652,-47.646854,1.2478232,-64.42538
UncalGyro,1676592532603,120036234232127,-0.37690386,0.06811147,0.3475823,0.00063883443,-0.0009609845,-0.0033536158
UncalAccel,1676592532604,120036234232127,0.45104706,1.7730815,9.938589,0.006110925,-0.043260336,-0.038735468
OrientationDeg,1676592532603,120036234232127,319.0,-2.0,-11.0
UncalMag,1676592532607,120036237875988,-32.5496,15.25,-106.847595,-47.646854,1.2478232,-64.42538
UncalGyro,1676592532612,120036243214488,-0.36010507,0.025503624,0.3295618,0.00063883443,-0.0009609845,-0.0033536158
UncalAccel,1676592532613,120036243214488,0.56769717,2.0554347,9.864411,0.006110925,-0.043260336,-0.038735468
OrientationDeg,1676592532612,120036243214488,319.0,-2.0,-11.0
UncalMag,1676592532617,120036247864269,-32.024998,14.9816,-107.5186,-47.646854,1.2478232,-64.42538
UncalGyro,1676592532621,120036252194712,-0.27168232,-0.10995574,0.2603813,0.00063883443,-0.0009609845,-0.0033536158
UncalAccel,1676592532621,120036252194712,0.85483587,2.1684954,9.870992,0.006110925,-0.043260336,-0.038735468
OrientationDeg,1676592532622,120036252194712,319.0,-2.0,-11.0
UncalMag,1676592532627,120036257876232,-33.6842,15.2987995,-109.189995,-47.646854,1.2478232,-64.42538
UncalGyro,1676592532631,120036261180126,-0.13439035,-0.3136793,0.1516473,0.00063883443,-0.0009609845,-0.0033536158
UncalAccel,1676592532631,120036261180126,1.2059826,2.108675,10.086346,0.006110925,-0.043260336,-0.038735468
OrientationDeg,1676592532631,120036261180126,319.0,-2.0,-11.0
UncalMag,1676592532637,120036267870617,-33.4768,14.7498,-107.5064,-47.646854,1.2478232,-64.42538
UncalGyro,1676592532640,120036270154247,0.037415497,-0.47158796,0.027030786,0.00063883443,-0.0009609845,-0.0033536158
UncalAccel,1676592532640,120036270154247,1.4739788,2.030908,10.682756,0.006110925,-0.043260336,-0.038735468
OrientationDeg,1676592532639,120036270154247,319.0,-2.0,-11.0
UncalMag,1676592532646,120036277875988,-35.075,14.969399,-108.824,-47.646854,1.2478232,-64.42538
UncalGyro,1676592532649,120036279135143,0.22327125,-0.49312097,-0.09682214,0.00063883443,-0.0009609845,-0.0033536158
UncalAccel,1676592532648,120036279135143,1.5038891,1.9591235,11.283355,0.006110925,-0.043260336,-0.038735468
OrientationDeg,1676592532648,120036279135143,319.0,-3.0,-11.0
UncalMag,1676592532657,120036287876232,-31.927399,15.6404,-106.8842,-47.646854,1.2478232,-64.42538
UncalGyro,1676592532658,120036288114513,0.3921755,-0.3735441,-0.20433442,0.00063883443,-0.0009609845,-0.0033536158
UncalAccel,1676592532657,120036288114513,1.3968102,1.7970098,11.505888,0.006110925,-0.043260336,-0.038735468
OrientationDeg,1676592532657,120036288114513,319.0,-3.0,-11.0
UncalGyro,1676592532666,120036297095409,0.5371033,-0.20845777,-0.2585487,0.00063883443,-0.0009609845,-0.0033536158
UncalAccel,1676592532666,120036297095409,1.1174482,1.3764713,11.373684,0.006110925,-0.043260336,-0.038735468
UncalMag,1676592532667,120036297864513,-32.5252,15.1402,-107.36,-47.646854,1.2478232,-64.42538
OrientationDeg,1676592532666,120036297095409,319.0,-3.0,-11.0
UncalGyro,1676592532676,120036306076182,0.6533204,-0.05024367,-0.22159137,0.00063883443,-0.0009609845,-0.0033536158
UncalAccel,1676592532675,120036306076182,0.70648086,1.1581261,11.346765,0.006110925,-0.043260336,-0.038735468
UncalMag,1676592532677,120036307875988,-31.842,14.8596,-106.0424,-47.646854,1.2478232,-64.42538
OrientationDeg,1676592532676,120036306076182,319.0,-3.0,-11.0
UncalGyro,1676592532685,120036315056835,0.7480045,0.11453723,-0.15882497,0.00063883443,-0.0009609845,-0.0033536158
UncalAccel,1676592532685,120036315056835,0.4642076,1.2125629,11.179267,0.006110925,-0.043260336,-0.038735468
OrientationDeg,1676592532685,120036315056835,319.0,-3.0,-12.0
UncalMag,1676592532687,120036317875988,-32.4642,14.542399,-106.6646,-47.646854,1.2478232,-64.42538
UncalGyro,1676592532693,120036324036388,0.8185594,0.23625213,-0.10277808,0.00063883443,-0.0009609845,-0.0033536158
UncalAccel,1676592532693,120036324036388,0.5377869,1.2071791,10.765309,0.006110925,-0.043260336,-0.038735468
OrientationDeg,1676592532694,120036324036388,319.0,-3.0,-12.0
UncalMag,1676592532697,120036327876232,-31.8176,14.7498,-106.3352,-47.646854,1.2478232,-64.42538
UncalGyro,1676592532702,120036333017955,0.8801041,0.2817616,-0.08109236,0.00063883443,-0.0009609845,-0.0033536158
UncalAccel,1676592532703,120036333017955,0.80817586,1.3920245,10.395618,0.006110925,-0.043260336,-0.038735468
OrientationDeg,1676592532703,120036333017955,319.0,-2.0,-13.0
UncalMag,1676592532706,120036337864513,-33.55,13.7372,-108.384796,-47.646854,1.2478232,-64.42538
UncalGyro,1676592532711,120036341996715,0.94913185,0.26007587,-0.10781772,0.00063883443,-0.0009609845,-0.0033536158
UncalAccel,1676592532711,120036341996715,1.038485,1.4961123,10.177871,0.006110925,-0.043260336,-0.038735468
OrientationDeg,1676592532711,120036341996715,319.0,-2.0,-13.0
UncalMag,1676592532716,120036347875988,-33.5378,12.8832,-108.5068,-47.646854,1.2478232,-64.42538
UncalGyro,1676592532719,120036350976573,1.0172434,0.24327709,-0.13454308,0.00063883443,-0.0009609845,-0.0033536158
UncalAccel,1676592532719,120036350976573,0.9607183,1.314856,10.210175,0.006110925,-0.043260336,-0.038735468
OrientationDeg,1676592532720,120036350976573,319.0,-2.0,-14.0
UncalMag,1676592532727,120036357876232,-32.696,12.9808,-108.7508,-47.646854,1.2478232,-64.42538
UncalGyro,1676592532729,120036359957225,1.118647,0.20906863,-0.12110403,0.00063883443,-0.0009609845,-0.0033536158
UncalAccel,1676592532728,120036359957225,0.7076773,1.1916257,10.107881,0.006110925,-0.043260336,-0.038735468
OrientationDeg,1676592532728,120036359957225,319.0,-2.0,-14.0
UncalMag,1676592532737,120036367864757,-32.415398,12.4684,-107.3844,-47.646854,1.2478232,-64.42538
UncalGyro,1676592532737,120036368926647,1.2672399,0.1207986,-0.0711658,0.00063883443,-0.0009609845,-0.0033536158
UncalAccel,1676592532738,120036368926647,0.6873383,1.4793626,9.8428755,0.006110925,-0.043260336,-0.038735468
OrientationDeg,1676592532738,120036368926647,319.0,-2.0,-15.0
UncalMag,1676592532747,120036377875988,-31.927399,11.760799,-108.9338,-47.646854,1.2478232,-64.42538
UncalGyro,1676592532747,120036377914928,1.4482088,0.025503624,-0.011301007,0.00063883443,-0.0009609845,-0.0033536158
UncalAccel,1676592532747,120036377914928,0.66699934,1.8580267,9.763314,0.006110925,-0.043260336,-0.038735468
OrientationDeg,1676592532747,120036377914928,319.0,-2.0,-16.0
UncalGyro,1676592532755,120036386899547,1.6197093,-0.061391957,0.01160644,0.00063883443,-0.0009609845,-0.0033536158
UncalAccel,1676592532755,120036386899547,0.8225328,2.2265215,9.642477,0.006110925,-0.043260336,-0.038735468
UncalMag,1676592532756,120036387864513,-33.1596,10.748199,-108.5922,-47.646854,1.2478232,-64.42538
OrientationDeg,1676592532756,120036386899547,319.0,-2.0,-17.0
UncalGyro,1676592532764,120036395881542,1.7568485,-0.13362677,-0.022296581,0.00063883443,-0.0009609845,-0.0033536158
UncalAccel,1676592532764,120036395881542,1.2783655,2.5591238,9.660423,0.006110925,-0.043260336,-0.038735468
OrientationDeg,1676592532765,120036395881542,319.0,-2.0,-17.0
UncalMag,1676592532767,120036397875988,-35.6484,8.0398,-114.338394,-47.646854,1.2478232,-64.42538
UncalGyro,1676592532773,120036404841991,1.8362609,-0.1873829,-0.1067487,0.00063883443,-0.0009609845,-0.0033536158
UncalAccel,1676592532773,120036404841991,1.5960127,2.7966115,9.415159,0.006110925,-0.043260336,-0.038735468
OrientationDeg,1676592532773,120036404841991,319.0,-2.0,-18.0
UncalMag,1676592532777,120036407876232,-34.977398,8.588799,-110.727196,-47.646854,1.2478232,-64.42538
UncalGyro,1676592532783,120036413839000,1.7408133,-0.43554693,-0.19746219,0.00063883443,-0.0009609845,-0.0033536158
UncalAccel,1676592532783,120036413839000,1.3938192,1.9004993,7.4458656,0.006110925,-0.043260336,-0.038735468
OrientationDeg,1676592532783,120036413839000,319.0,-2.0,-19.0
UncalMag,1676592532786,120036417875988,-34.5992,8.064199,-110.837,-47.646854,1.2478232,-64.42538
UncalGyro,1676592532792,120036422820689,1.3836098,-0.95004815,-0.29871312,0.00063883443,-0.0009609845,-0.0033536158
UncalAccel,1676592532792,120036422820689,1.6181463,2.3252254,6.0717874,0.006110925,-0.043260336,-0.038735468
OrientationDeg,1676592532792,120036422820689,319.0,-3.0,-20.0
UncalMag,1676592532797,120036427864513,-36.2828,7.4786,-109.507195,-47.646854,1.2478232,-64.42538
UncalGyro,1676592532800,120036431799938,0.9828822,-1.2770138,-0.43600506,0.00063883443,-0.0009609845,-0.0033536158
UncalAccel,1676592532800,120036431799938,2.0380867,3.2536407,7.3752775,0.006110925,-0.043260336,-0.038735468
OrientationDeg,1676592532801,120036431799938,319.0,-4.0,-20.0
UncalMag,1676592532806,120036437876232,-38.3934,6.5758,-113.5088,-47.646854,1.2478232,-64.42538
UncalGyro,1676592532810,120036440780040,0.73792523,-1.4262177,-0.6241516,0.00063883443,-0.0009609845,-0.0033536158
UncalAccel,1676592532810,120036440780040,3.0161529,3.5694933,7.7910304,0.006110925,-0.043260336,-0.038735468
OrientationDeg,1676592532809,120036440780040,320.0,-4.0,-21.0
UncalMag,1676592532817,120036447876232,-37.5028,7.1858,-112.8866,-47.646854,1.2478232,-64.42538
UncalGyro,1676592532819,120036449746593,0.601855,-1.5928311,-0.8509353,0.00063883443,-0.0009609845,-0.0033536158
UncalAccel,1676592532819,120036449746593,3.2679975,3.5964124,7.98784,0.006110925,-0.043260336,-0.038735468
OrientationDeg,1676592532819,120036449746593,320.0,-5.0,-21.0
UncalMag,1676592532827,120036457876232,-34.9896,8.0154,-110.166,-47.646854,1.2478232,-64.42538
UncalGyro,1676592532827,120036458741649,0.50320023,-1.6748397,-1.0722213,0.00063883443,-0.0009609845,-0.0033536158
UncalAccel,1676592532828,120036458741649,3.1728828,3.3242288,8.486146,0.006110925,-0.043260336,-0.038735468
OrientationDeg,1676592532827,120036458741649,321.0,-6.0,-22.0
UncalGyro,1676592532836,120036467718150,0.42012256,-1.6922494,-1.2596041,0.00063883443,-0.0009609845,-0.0033536158
UncalAccel,1676592532837,120036467718150,3.2219357,3.0502508,8.66142,0.006110925,-0.043260336,-0.038735468
UncalMag,1676592532837,120036467871105,-40.382,5.8438,-116.2294,-47.646854,1.2478232,-64.42538
OrientationDeg,1676592532836,120036467718150,321.0,-6.0,-22.0
UncalGyro,1676592532846,120036476701305,0.34804046,-1.649947,-1.3962852,0.00063883443,-0.0009609845,-0.0033536158
UncalAccel,1676592532845,120036476701305,3.313461,2.7529426,8.989237,0.006110925,-0.043260336,-0.038735468
UncalMag,1676592532847,120036477867687,-41.8582,4.7458,-117.3274,-47.646854,1.2478232,-64.42538
OrientationDeg,1676592532846,120036476701305,322.0,-7.0,-22.0
UncalGyro,1676592532855,120036485684765,0.27320948,-1.5511396,-1.4944818,0.00063883443,-0.0009609845,-0.0033536158
UncalAccel,1676592532854,120036485684765,3.362514,2.3784657,9.101699,0.006110925,-0.043260336,-0.038735468
OrientationDeg,1676592532854,120036485684765,323.0,-7.0,-22.0
UncalMag,1676592532857,120036487876232,-43.2612,4.5383997,-118.071594,-47.646854,1.2478232,-64.42538
UncalGyro,1676592532863,120036494666454,0.21197024,-1.4602734,-1.5534303,0.00063883443,-0.0009609845,-0.0033536158
UncalAccel,1676592532863,120036494666454,3.266203,2.0338993,8.7469635,0.006110925,-0.043260336,-0.038735468
OrientationDeg,1676592532863,120036494666454,324.0,-8.0,-22.0
UncalMag,1676592532867,120036497875988,-43.7614,4.88,-117.4006,-47.646854,1.2478232,-64.42538
UncalGyro,1676592532872,120036503642223,0.1020145,-1.35551,-1.6215417,0.00063883443,-0.0009609845,-0.0033536158
UncalAccel,1676592532873,120036503642223,3.2004004,2.1445673,8.799605,0.006110925,-0.043260336,-0.038735468
OrientationDeg,1676592532873,120036503642223,325.0,-8.0,-23.0
UncalMag,1676592532876,120036507875988,-44.859398,4.8677998,-118.5474,-47.646854,1.2478232,-64.42538
UncalGyro,1676592532882,120036512622264,0.02443461,-1.3136657,-1.7001907,0.00063883443,-0.0009609845,-0.0033536158
UncalAccel,1676592532882,120036512622264,3.0089746,1.6564314,8.166703,0.006110925,-0.043260336,-0.038735468
OrientationDeg,1676592532881,120036512622264,326.0,-8.0,-23.0
UncalMag,1676592532887,120036517864269,-44.2128,6.3196,-113.3014,-47.646854,1.2478232,-64.42538
UncalGyro,1676592532891,120036521602794,0.03145956,-1.3776538,-1.7531832,0.00063883443,-0.0009609845,-0.0033536158
UncalAccel,1676592532891,120036521602794,2.8456643,1.6426728,8.432905,0.006110925,-0.043260336,-0.038735468
OrientationDeg,1676592532890,120036521602794,327.0,-9.0,-23.0
UncalMag,1676592532896,120036527875988,-41.8582,7.4175997,-112.6304,-47.646854,1.2478232,-64.42538
UncalGyro,1676592532899,120036530584117,0.029168816,-1.4077389,-1.8014416,0.00063883443,-0.0009609845,-0.0033536158
UncalAccel,1676592532899,120036530584117,2.6883361,1.8167506,8.647661,0.006110925,-0.043260336,-0.038735468
OrientationDeg,1676592532900,120036530584117,328.0,-9.0,-23.0
UncalMag,1676592532907,120036537876232,-42.6756,7.2346,-115.0582,-47.646854,1.2478232,-64.42538
UncalGyro,1676592532908,120036539563671,0.03604105,-1.3846788,-1.7854064,0.00063883443,-0.0009609845,-0.0033536158
UncalAccel,1676592532909,120036539563671,1.4027922,2.236691,9.020343,0.006110925,-0.043260336,-0.038735468
OrientationDeg,1676592532908,120036539563671,329.0,-9.0,-23.0
UncalMag,1676592532917,120036547876476,-42.8952,7.7591996,-115.229,-47.646854,1.2478232,-64.42538
UncalGyro,1676592532917,120036548543895,0.035277467,-1.1925616,-1.545031,0.00063883443,-0.0009609845,-0.0033536158
UncalAccel,1676592532918,120036548543895,-1.3393825,2.9772696,9.393025,0.006110925,-0.043260336,-0.038735468
OrientationDeg,1676592532918,120036548543895,329.0,-10.0,-23.0
UncalGyro,1676592532927,120036557524059,0.04444045,-0.9077458,-1.0578659,0.00063883443,-0.0009609845,-0.0033536158
UncalAccel,1676592532927,120036557524059,-3.0705895,3.5533416,9.46481,0.006110925,-0.043260336,-0.038735468
UncalMag,1676592532926,120036557864269,-45.4328,6.9662,-116.876,-47.646854,1.2478232,-64.42538
OrientationDeg,1676592532926,120036557524059,330.0,-10.0,-23.0
UncalGyro,1676592532936,120036566505748,0.028405234,-0.63132924,-0.5007568,0.00063883443,-0.0009609845,-0.0033536158
UncalAccel,1676592532936,120036566505748,-2.1768703,3.5766716,9.082557,0.006110925,-0.043260336,-0.038735468
UncalMag,1676592532937,120036567877208,-44.9936,6.71,-115.8512,-47.646854,1.2478232,-64.42538
OrientationDeg,1676592532936,120036566505748,330.0,-10.0,-24.0
UncalGyro,1676592532945,120036575484813,-0.052687127,-0.46654832,-0.17806722,0.00063883443,-0.0009609845,-0.0033536158
UncalAccel,1676592532945,120036575484813,1.0642079,2.7996025,8.021339,0.006110925,-0.043260336,-0.038735468
OrientationDeg,1676592532944,120036575484813,330.0,-10.0,-23.0
UncalMag,1676592532947,120036577875744,-44.3104,7.1858,-117.0834,-47.646854,1.2478232,-64.42538
UncalGyro,1676592532954,120036584464550,-0.19043724,-0.49663344,-0.15118915,0.00063883443,-0.0009609845,-0.0033536158
UncalAccel,1676592532953,120036584464550,3.3984063,1.9986051,7.103094,0.006110925,-0.043260336,-0.038735468
OrientationDeg,1676592532953,120036584464550,330.0,-10.0,-23.0
UncalMag,1676592532956,120036587876232,-45.2864,6.8564,-118.34,-47.646854,1.2478232,-64.42538
UncalGyro,1676592532963,120036593433483,-0.30925053,-0.656222,-0.25457808,0.00063883443,-0.0009609845,-0.0033536158
UncalAccel,1676592532963,120036593433483,4.130012,1.6875381,7.11446,0.006110925,-0.043260336,-0.038735468
OrientationDeg,1676592532962,120036593433483,331.0,-11.0,-23.0
UncalMag,1676592532966,120036597875988,-43.5784,7.8202,-118.4498,-47.646854,1.2478232,-64.42538
UncalGyro,1676592532972,120036602412364,-0.3465133,-0.8680395,-0.3707952,0.00063883443,-0.0009609845,-0.0033536158
UncalAccel,1676592532972,120036602412364,4.074977,1.7024933,7.690532,0.006110925,-0.043260336,-0.038735468
OrientationDeg,1676592532971,120036602412364,331.0,-11.0,-23.0
UncalMag,1676592532977,120036607875988,-45.8232,7.7348,-117.4738,-47.646854,1.2478232,-64.42538
UncalGyro,1676592532980,120036611405895,-0.2921463,-1.0743593,-0.46807548,0.00063883443,-0.0009609845,-0.0033536158
UncalAccel,1676592532980,120036611405895,3.8775692,1.8574286,8.305488,0.006110925,-0.043260336,-0.038735468
OrientationDeg,1676592532980,120036611405895,331.0,-12.0,-23.0
UncalMag,1676592532986,120036617875988,-45.1278,8.783999,-119.377,-47.646854,1.2478232,-64.42538
UncalGyro,1676592532989,120036620386363,-0.17165314,-1.2301298,-0.54275376,0.00063883443,-0.0009609845,-0.0033536158
UncalAccel,1676592532990,120036620386363,3.99063,1.986641,8.759525,0.006110925,-0.043260336,-0.038735468
OrientationDeg,1676592532989,120036620386363,331.0,-12.0,-23.0
UncalMag,1676592532996,120036627875988,-45.103397,8.723,-118.059395,-47.646854,1.2478232,-64.42538
UncalGyro,1676592532999,120036629366710,-0.03940081,-1.3112222,-0.6026186,0.00063883443,-0.0009609845,-0.0033536158
UncalAccel,1676592532999,120036629366710,4.1814575,1.9465612,8.683554,0.006110925,-0.043260336,-0.038735468
OrientationDeg,1676592532999,120036629366710,332.0,-13.0,-23.0
UncalMag,1676592533006,120036637875988,-45.871998,8.6376,-116.497795,-47.646854,1.2478232,-64.42538
UncalGyro,1676592533008,120036638334606,0.074830994,-1.3771957,-0.6553057,0.00063883443,-0.0009609845,-0.0033536158
UncalAccel,1676592533008,120036638334606,4.2203407,1.9178474,8.440681,0.006110925,-0.043260336,-0.038735468
OrientationDeg,1676592533008,120036638334606,332.0,-13.0,-23.0
UncalGyro,1676592533017,120036647327342,0.15561792,-1.4605788,-0.70325863,0.00063883443,-0.0009609845,-0.0033536158
UncalAccel,1676592533017,120036647327342,4.202395,1.9848464,8.369495,0.006110925,-0.043260336,-0.038735468
UncalMag,1676592533017,120036647864513,-47.2506,7.259,-116.644196,-47.646854,1.2478232,-64.42538
OrientationDeg,1676592533017,120036647327342,332.0,-14.0,-23.0
UncalGyro,1676592533025,120036656309093,0.21487185,-1.5583172,-0.74220127,0.00063883443,-0.0009609845,-0.0033536158
UncalAccel,1676592533025,120036656309093,4.1964126,2.003989,8.5938225,0.006110925,-0.043260336,-0.038735468
UncalMag,1676592533026,120036657864269,-50.154198,7.1126,-116.9126,-47.646854,1.2478232,-64.42538
OrientationDeg,1676592533025,120036656309093,333.0,-15.0,-23.0
UncalGyro,1676592533034,120036665288036,0.2848159,-1.6285667,-0.77304995,0.00063883443,-0.0009609845,-0.0033536158
UncalAccel,1676592533035,120036665288036,4.255037,1.9561325,9.212965,0.006110925,-0.043260336,-0.038735468
OrientationDeg,1676592533035,120036665288036,333.0,-15.0,-24.0
Status,0,29,0,6,2,1575420030,37.13,41.0,79.0,1,1,1,32.92698
Status,0,29,1,6,2,1176450050,39.45,41.0,79.0,1,1,1,35.34666
Status,0,29,2,6,36,1176450050,30.49,79.0,71.0,0,1,1,26.391691
Status,0,29,3,6,36,1575420030,41.59,79.0,71.0,1,1,1,37.38936
Status,0,29,4,3,17,1604249980,41.43,250.0,70.0,1,1,1,37.22905
Status,0,29,5,3,14,1598062460,40.71,135.0,64.0,1,1,1,36.51361
Status,0,29,6,1,11,1176450050,44.65,161.0,63.0,1,1,1,40.548214
Status,0,29,7,1,11,1575420030,41.15,161.0,63.0,1,1,1,36.954964
Status,0,29,8,3,15,1602000000,43.61,331.0,58.0,1,1,1,39.414993
Status,0,29,9,1,6,1575420030,36.26,63.0,57.0,1,1,1,32.060505
Status,0,29,10,1,6,1176450050,38.89,63.0,57.0,1,1,1,34.794643
Status,0,29,11,1,24,1176450050,45.55,235.0,50.0,1,1,1,41.451286
Status,0,29,12,1,12,1575420030,44.97,317.0,50.0,1,1,1,40.77368
Status,0,29,13,1,24,1575420030,45.29,235.0,50.0,1,1,1,41.090023
Status,0,29,14,3,24,1603124990,42.60,28.0,47.0,1,1,1,38.402397
Status,0,29,15,6,34,1176450050,37.38,198.0,45.0,1,1,1,33.277264
Status,0,29,16,6,34,1575420030,36.78,198.0,45.0,1,1,1,32.578815
Status,0,29,17,1,19,1575420030,37.17,50.0,37.0,1,1,1,32.968063
Status,0,29,18,6,30,1176450050,32.47,312.0,35.0,1,1,1,28.369123
Status,0,29,19,6,25,1176450050,30.13,115.0,35.0,1,1,1,26.029202
Status,0,29,20,6,25,1575420030,34.50,115.0,35.0,1,1,1,30.298077
Status,0,29,21,6,30,1575420030,40.15,312.0,35.0,1,1,1,35.949677
Status,0,29,22,6,11,1176450050,31.07,41.0,25.0,1,1,1,26.966663
Status,0,29,23,6,11,1575420030,30.29,41.0,25.0,1,1,1,26.091434
Status,0,29,24,3,18,1600312450,40.87,224.0,22.0,1,1,1,36.671577
Status,0,29,25,1,25,1575420030,40.19,307.0,21.0,1,1,1,35.98631
Status,0,29,26,1,25,1176450050,31.86,307.0,21.0,1,1,1,27.758375
Status,0,29,27,1,20,1575420030,39.29,151.0,14.0,1,1,1,35.094135
Status,0,29,28,1,17,1575420030,40.32,62.0,11.0,1,1,1,36.12363
UncalMag,1676592533036,120036667872570,-50.6056,7.0516,-117.6568,-47.646854,1.2478232,-64.42538
Fix,GPS,37.4308060407,-122.1550133085,-19.03820825050269,0.10498937,3.5947018,324.10388,1676592532000,0.14849931,180.0,120036569038000,3.0374165
Raw,1676592532000,491697000000,,,-1360627258303455874,0.0,8.992127255589361,285.0,1.0,15,6,0.0,16431,432549930924479,40,29.510635375976562,339.980547274773,0.8124253134512744,16,153091.8020542581,340282346638528860000000000000000000000,1575420030,,,,0,,1,,25.310636520385742,0.320142130558394,1.0,0.320142130558394,1.0,C,120036569038000
Raw,1676592532000,491697000000,,,-1360627258303455874,0.0,8.992127255589361,285.0,1.0,15,11,0.0,16431,432549931163941,22,36.59946823120117,-223.43710386433816,0.15,16,-122353.94561415653,340282346638528860000000000000000000000,1575420030,,,,0,,1,,32.39946746826172,-0.20372681261465636,1.0,-0.20372681261465636,1.0,C,120036569038000
Raw,1676592532000,491697000000,,,-1360627258303455874,0.0,8.992127255589361,285.0,1.0,15,12,0.0,16431,432549929575506,20,37.99162673950195,-312.62487703095667,0.15,16,-159210.5509210919,340282346638528860000000000000000000000,1575420030,,,,0,,1,,33.7916259765625,-0.6984919076624261,1.0,-0.6984919076624261,1.0,C,120036569038000
Raw,1676592532000,491697000000,,,-1360627258303455874,0.0,8.992127255589361,285.0,1.0,15,17,0.0,16431,432549918084178,28,33.71696853637695,591.5680390628982,0.6245590853288614,16,292323.7869513152,340282346638528860000000000000000000000,1575420030,,,,0,,1,,29.516969680786133,-0.7858034271858065,1.0,-0.7858034271858065,1.0,C,120036569038000
Raw,1676592532000,491697000000,,,-1360627258303455874,0.0,8.992127255589361,285.0,1.0,15,19,0.0,16431,432549927395813,29,33.528785705566406,546.7194116789233,0.6310989229433672,16,265117.73315087083,340282346638528860000000000000000000000,1575420030,,,,1,,1,,29.328786849975586,0.0,1.0,0.0,1.0,C,120036569038000
Raw,1676592532000,491697000000,,,-1360627258303455874,0.0,8.992127255589361,285.0,1.0,15,20,0.0,16431,432549919602587,19,38.365074157714844,-490.5122603394175,0.15,16,-239987.05110970675,340282346638528860000000000000000000000,1575420030,,,,0,,1,,34.16507339477539,0.0,1.0,0.0,1.0,C,120036569038000
Raw,1676592532000,491697000000,,,-1360627258303455874,0.0,8.992127255589361,285.0,1.0,15,24,0.0,16431,432549928776896,13,43.07071304321289,421.49082107892195,0.15,16,195009.44282879247,340282346638528860000000000000000000000,1575420030,,,,0,,1,,38.87071228027344,-0.20372681261465636,1.0,-0.20372681261465636,1.0,C,120036569038000
Raw,1676592532000,491697000000,,,-1360627258303455874,0.0,8.992127255589361,285.0,1.0,15,25,0.0,16431,432549923147192,39,29.70915985107422,-506.96713401880424,0.8020989947978419,16,-250704.33671268256,340282346638528860000000000000000000000,1575420030,,,,0,,1,,25.509159088134766,-2.0372682255564105,1.0,-2.0372682255564105,1.0,C,120036569038000
Raw,1676592532000,491697000000,,,-1360627258303455874,0.0,8.992127255589361,285.0,1.0,15,6,0.0,81921,432549930925018,10,37.556602478027344,339.03227108693886,0.15,16,153982.87494777146,340282346638528860000000000000000000000,1176450050,,,,0,,1,,33.45660400390625,1.9208527336454408,1.4652542878612485,1.9208527336454408,1.0,Q,120036569038000
Raw,1676592532000,491697000000,,,-1360627258303455874,0.0,8.992127255589361,285.0,1.0,15,11,0.0,81921,432549931164497,9,44.119529724121094,-222.66523847146607,0.15,16,-123225.71747302012,340282346638528860000000000000000000000,1176450050,,,,0,,1,,40.01953125,0.0,1.4652542878612485,0.0,1.0,Q,120036569038000
Raw,1676592532000,491697000000,,,-1360627258303455874,0.0,8.992127255589361,285.0,1.0,15,24,0.0,81921,432549928777438,8,45.55128479003906,421.7608904644087,0.15,16,196159.23109731998,340282346638528860000000000000000000000,1176450050,,,,0,,1,,41.45128631591797,3.5215636101095664,1.4652542878612485,3.5215636101095664,1.0,Q,120036569038000
Raw,1676592532000,491697000000,,,-1360627258303455874,0.0,8.992127255589361,285.0,1.0,15,25,0.0,81921,432549923147729,35,26.881925582885742,-507.5783347116278,0.9247397886151307,16,-252264.41329906226,340282346638528860000000000000000000000,1176450050,,,,0,,1,,22.781925201416016,1.0186341127782053,1.4652542878612485,1.0186341127782053,1.0,Q,120036569038000
Raw,1676592532000,491697000000,,,-1360627258303455874,0.0,8.992127255589361,285.0,1.0,15,14,0.0,32995,11331934980341,37,39.15771484375,399.51925873938353,0.15,16,180788.01788163246,340282346638528860000000000000000000000,1598062460,,,,0,,3,,34.95771408081055,50.29141902923584,2.0000000474974513,50.29141902923584,2.0000000474974513,C,120036569038000
Raw,1676592532000,491697000000,,,-1360627258303455874,0.0,8.992127255589361,285.0,1.0,15,18,0.0,32995,11331925729856,38,38.819026947021484,-580.530435517986,0.15,16,-292921.7970218771,340282346638528860000000000000000000000,1600312450,,,,0,,3,,34.61902618408203,50.29141902923584,2.0000000474974513,50.29141902923584,2.0000000474974513,C,120036569038000
Raw,1676592532000,491697000000,,,-1360627258303455874,0.0,8.992127255589361,285.0,1.0,15,15,0.0,32995,11331934098002,39,38.3232421875,-345.2068193228938,0.15,16,-181541.17084463543,340282346638528860000000000000000000000,1602000000,,,,0,,3,,34.12324142456055,50.29141902923584,2.0000000474974513,50.29141902923584,2.0000000474974513,C,120036569038000
Raw,1676592532000,491697000000,,,-1360627258303455874,0.0,8.992127255589361,285.0,1.0,15,24,0.0,32995,11331932241013,33,41.805110931396484,621.1543379212194,0.15,16,296566.62484149955,340282346638528860000000000000000000000,1603124990,,,,0,,3,,37.60511016845703,50.29141902923584,2.0000000474974513,50.29141902923584,2.0000000474974513,C,120036569038000
Raw,1676592532000,491697000000,,,-1360627258303455874,0.0,8.992127255589361,285.0,1.0,15,17,0.0,32995,11331936221109,34,40.06911849975586,-76.88324802722633,0.15,16,-53284.124881453805,340282346638528860000000000000000000000,1604249980,,,,0,,3,,35.869117736816406,50.29141902923584,2.0000000474974513,50.29141902923584,2.0000000474974513,C,120036569038000
Raw,1676592532000,491697000000,,,-1360627258303455874,0.0,8.992127255589361,285.0,1.0,15,2,0.0,85026,432549922680834,40,29.442501068115234,58.96701233889689,0.8147258792665641,16,23552.804048276033,340282346638528860000000000000000000000,1575420030,,,,1,,6,,25.242502212524414,-6.024492904543876,1.5000000237487257,-6.024492904543876,1.5000000237487257,C,120036569038000
Raw,1676592532000,491697000000,,,-1360627258303455874,0.0,8.992127255589361,285.0,1.0,15,11,0.0,85026,432549913394204,73,22.104019165039062,563.5957149332146,1.144497810053891,16,272345.775769517,340282346638528860000000000000000000000,1575420030,,,,0,,6,,17.90401840209961,-6.024492904543876,1.5000000237487257,-6.024492904543876,1.5000000237487257,C,120036569038000
Raw,1676592532000,491697000000,,,-1360627258303455874,0.0,8.992127255589361,285.0,1.0,15,25,0.0,85026,432549914898205,26,34.498077392578125,442.6620250919352,0.5874215226691089,16,212895.9805338928,340282346638528860000000000000000000000,1575420030,,,,0,,6,,30.298076629638672,-6.024492904543876,1.5000000237487257,-6.024492904543876,1.5000000237487257,C,120036569038000
Raw,1676592532000,491697000000,,,-1360627258303455874,0.0,8.992127255589361,285.0,1.0,15,30,0.0,85026,432549914140152,25,35.22507095336914,-323.87154236417973,0.5538736015484043,16,-160109.41133863913,340282346638528860000000000000000000000,1575420030,,,,1,,6,,31.025070190429688,-6.024492904543876,1.5000000237487257,-6.024492904543876,1.5000000237487257,C,120036569038000
Raw,1676592532000,491697000000,,,-1360627258303455874,0.0,8.992127255589361,285.0,1.0,15,34,0.0,85026,432549917928736,29,33.24456787109375,-360.33097756980396,0.6436159713705609,16,-183270.40338352532,340282346638528860000000000000000000000,1575420030,,,,0,,6,,29.04456901550293,-6.024492904543876,1.5000000237487257,-6.024492904543876,1.5000000237487257,C,120036569038000
Raw,1676592532000,491697000000,,,-1360627258303455874,0.0,8.992127255589361,285.0,1.0,15,36,0.0,85026,432549922044625,15,41.589359283447266,147.55880262952928,0.15,16,62559.7574415177,340282346638528860000000000000000000000,1575420030,,,,0,,6,,37.38935852050781,-6.024492904543876,1.5000000237487257,-6.024492904543876,1.5000000237487257,C,120036569038000
Raw,1676592532000,491697000000,,,-1360627258303455874,0.0,8.992127255589361,285.0,1.0,15,2,0.0,84003,432549922681386,7,38.10698318481445,59.190222606971844,0.15,16,23519.082109496063,340282346638528860000000000000000000000,1176450050,,,,0,,6,,34.00698471069336,-4.362151958048344,1.965254311609974,-4.362151958048344,1.5000000237487257,Q,120036569038000
Raw,1676592532000,491697000000,,,-1360627258303455874,0.0,8.992127255589361,285.0,1.0,15,11,0.0,84003,432549913394780,16,30.06559181213379,563.3945943572735,0.7834170823451911,16,273525.064312503,340282346638528860000000000000000000000,1176450050,,,,0,,6,,25.965591430664062,4.134257324039933,1.965254311609974,4.134257324039933,1.5000000237487257,Q,120036569038000
Raw,1676592532000,491697000000,,,-1360627258303455874,0.0,8.992127255589361,285.0,1.0,15,25,0.0,84003,432549914898744,32,28.087839126586914,442.95550912505314,0.8726248501979441,16,212539.4737892975,340282346638528860000000000000000000000,1176450050,,,,0,,6,,23.987838745117188,-8.795061148703097,1.965254311609974,-8.795061148703097,1.5000000237487257,Q,120036569038000
Raw,1676592532000,491697000000,,,-1360627258303455874,0.0,8.992127255589361,285.0,1.0,15,30,0.0,84003,432549914140681,16,30.24625587463379,-323.92760800515975,0.7754269430114227,16,-159799.43537469118,340282346638528860000000000000000000000,1176450050,,,,0,,6,,26.146255493164062,-8.425652049481869,1.965254311609974,-8.425652049481869,1.5000000237487257,Q,120036569038000
Raw,1676592532000,491697000000,,,-1360627258303455874,0.0,8.992127255589361,285.0,1.0,15,34,0.0,84003,432549917929269,10,37.05112838745117,-360.05576173338227,0.15,16,-184315.06440578148,340282346638528860000000000000000000000,1176450050,,,,0,,6,,32.95112991333008,-10.0879929959774,1.965254311609974,-10.0879929959774,1.5000000237487257,Q,120036569038000
Raw,1676592532000,491697000000,,,-1360627258303455874,0.0,8.992127255589361,285.0,1.0,15,36,0.0,16384,432549922045118,1000000000,21.03975486755371,147.35362624126196,299792458,16,62762.75154613399,340282346638528860000000000000000000000,1176450050,,,,0,,6,,16.939754486083984,-11.011515744030472,1.965254311609974,-11.011515744030472,1.5000000237487257,Q,120036569038000
UncalGyro,1676592533043,120036674271862,0.4036292,-1.6468927,-0.787558,0.00063883443,-0.0009609845,-0.0033536158
UncalAccel,1676592533043,120036674271862,4.503292,1.8687944,9.947562,0.006110925,-0.043260336,-0.038735468
UncalMag,1676592533046,120036677875744,-54.6072,5.7096,-118.7914,-47.646854,1.2478232,-64.42538
OrientationDeg,1676592533043,120036674271862,334.0,-16.0,-24.0
Fix,FLP,37.4308077000,-122.1550153000,-16.100000381469727,0.14655447,3.986,326.75705,1676592532938,0.14849931,180.0,120036569038000,4.874679
UncalGyro,1676592533052,120036683240428,0.58383447,-1.5641204,-0.8043568,0.00063883443,-0.0009609845,-0.0033536158
UncalAccel,1676592533052,120036683240428,4.621737,1.911267,10.253245,0.006110925,-0.043260336,-0.038735468
OrientationDeg,1676592533053,120036683240428,334.0,-17.0,-24.0
UncalMag,1676592533057,120036687864269,-53.570198,6.2708,-120.072395,-47.646854,1.2478232,-64.42538
UncalGyro,1676592533061,120036692228710,0.77839506,-1.4078916,-0.82512623,0.00063883443,-0.0009609845,-0.0033536158
UncalAccel,1676592533061,120036692228710,4.586443,2.088336,9.844072,0.006110925,-0.043260336,-0.038735468
OrientationDeg,1676592533061,120036692228710,334.0,-17.0,-25.0
UncalMag,1676592533066,120036697875988,-51.179,6.9905996,-117.254196,-47.646854,1.2478232,-64.42538
UncalGyro,1676592533070,120036701209178,0.9140071,-1.2156218,-0.872621,0.00063883443,-0.0009609845,-0.0033536158
UncalAccel,1676592533070,120036701209178,4.28734,2.3204398,9.010174,0.006110925,-0.043260336,-0.038735468
OrientationDeg,1676592533071,120036701209178,334.0,-18.0,-25.0
UncalMag,1676592533077,120036707875988,-51.642597,6.0512,-116.6198,-47.646854,1.2478232,-64.42538
UncalGyro,1676592533080,120036710190807,0.9246973,-1.0202976,-0.9298896,0.00063883443,-0.0009609845,-0.0033536158
UncalAccel,1676592533080,120036710190807,3.8518462,2.4227328,7.57448,0.006110925,-0.043260336,-0.038735468
OrientationDeg,1676592533079,120036710190807,335.0,-18.0,-26.0
UncalMag,1676592533086,120036717875988,-53.338398,5.4045997,-117.0102,-47.646854,1.2478232,-64.42538
UncalGyro,1676592533089,120036719169811,0.7912232,-0.9219484,-0.9628763,0.00063883443,-0.0009609845,-0.0033536158
UncalAccel,1676592533088,120036719169811,3.539583,2.4819553,6.22433,0.006110925,-0.043260336,-0.038735468
OrientationDeg,1676592533089,120036719169811,335.0,-19.0,-26.0
UncalMag,1676592533097,120036727875988,-54.6926,4.4286,-117.7788,-47.646854,1.2478232,-64.42538
UncalGyro,1676592533097,120036728149791,0.5581781,-0.9240864,-0.96196,0.00063883443,-0.0009609845,-0.0033536158
UncalAccel,1676592533097,120036728149791,3.3050864,2.6075785,5.604589,0.006110925,-0.043260336,-0.038735468
OrientationDeg,1676592533098,120036728149791,336.0,-19.0,-27.0
UncalGyro,1676592533106,120036737129283,0.27076602,-1.0151054,-0.91614515,0.00063883443,-0.0009609845,-0.0033536158
UncalAccel,1676592533106,120036737129283,3.1489546,2.5698915,5.3700924,0.006110925,-0.043260336,-0.038735468
UncalMag,1676592533106,120036737862316,-53.4604,4.8434,-115.0704,-47.646854,1.2478232,-64.42538
OrientationDeg,1676592533106,120036737129283,336.0,-19.0,-27.0
UncalGyro,1676592533115,120036746111766,-0.014049901,-1.1354458,-0.83260936,0.00063883443,-0.0009609845,-0.0033536158
UncalAccel,1676592533116,120036746111766,3.2093735,2.589034,5.6614184,0.006110925,-0.043260336,-0.038735468
OrientationDeg,1676592533116,120036746111766,336.0,-20.0,-27.0
UncalMag,1676592533116,120036747875988,-53.4604,4.8434,-115.0704,-47.646854,1.2478232,-64.42538
UncalGyro,1676592533124,120036755093883,-0.24098633,-1.210735,-0.7357872,0.00063883443,-0.0009609845,-0.0033536158
UncalAccel,1676592533124,120036755093883,3.3427732,2.4783661,6.561718,0.006110925,-0.043260336,-0.038735468
OrientationDeg,1676592533125,120036755093883,337.0,-20.0,-27.0
UncalMag,1676592533126,120036757875744,-56.5104,4.3431997,-118.3278,-47.646854,1.2478232,-64.42538
UncalGyro,1676592533134,120036764070995,-0.41462478,-1.0679451,-0.6391178,0.00063883443,-0.0009609845,-0.0033536158
UncalAccel,1676592533134,120036764070995,3.6981075,1.9393828,8.033304,0.006110925,-0.043260336,-0.038735468
OrientationDeg,1676592533133,120036764070995,337.0,-20.0,-27.0
UncalMag,1676592533136,120036767876232,-58.803997,3.8307998,-118.462,-47.646854,1.2478232,-64.42538
UncalGyro,1676592533142,120036773048533,-0.548557,-0.6081163,-0.5549711,0.00063883443,-0.0009609845,-0.0033536158
UncalAccel,1676592533142,120036773048533,4.269394,1.3519448,9.238688,0.006110925,-0.043260336,-0.038735468
OrientationDeg,1676592533143,120036773048533,338.0,-21.0,-27.0
UncalMag,1676592533147,120036777860119,-55.827198,5.3802,-118.1692,-47.646854,1.2478232,-64.42538
UncalGyro,1676592533151,120036782032970,-0.65377855,-0.04917465,-0.46853364,0.00063883443,-0.0009609845,-0.0033536158
UncalAccel,1676592533151,120036782032970,4.7491546,1.0899308,9.239286,0.006110925,-0.043260336,-0.038735468
OrientationDeg,1676592533151,120036782032970,338.0,-20.0,-27.0
UncalMag,1676592533157,120036787875988,-53.6922,6.1854,-116.6198,-47.646854,1.2478232,-64.42538
UncalGyro,1676592533160,120036791015148,-0.7478518,0.31688634,-0.3576616,0.00063883443,-0.0009609845,-0.0033536158
UncalAccel,1676592533160,120036791015148,4.6414776,0.75493556,8.34138,0.006110925,-0.043260336,-0.038735468
OrientationDeg,1676592533160,120036791015148,338.0,-20.0,-26.0
UncalMag,1676592533167,120036797875988,-51.728,7.1858,-116.6808,-47.646854,1.2478232,-64.42538
UncalGyro,1676592533169,120036799987743,-0.87949324,0.3753767,-0.19364429,0.00063883443,-0.0009609845,-0.0033536158
UncalAccel,1676592533169,120036799987743,4.1425743,0.47916272,7.499106,0.006110925,-0.043260336,-0.038735468
OrientationDeg,1676592533168,120036799987743,339.0,-20.0,-26.0
UncalMag,1676592533177,120036807876232,-53.496998,6.8076,-115.3022,-47.646854,1.2478232,-64.42538
UncalGyro,1676592533177,120036808973033,-1.0845913,0.118507855,-0.013897184,0.00063883443,-0.0009609845,-0.0033536158
UncalAccel,1676592533177,120036808973033,3.586243,0.69332033,6.625128,0.006110925,-0.043260336,-0.038735468
OrientationDeg,1676592533178,120036808973033,339.0,-20.0,-25.0
UncalMag,1676592533187,120036817875988,-53.375,7.9178,-115.8512,-47.646854,1.2478232,-64.42538
UncalGyro,1676592533186,120036817954966,-1.3141239,-0.2864958,0.21181752,0.00063883443,-0.0009609845,-0.0033536158
UncalAccel,1676592533186,120036817954966,2.760719,1.0097711,6.361319,0.006110925,-0.043260336,-0.038735468
OrientationDeg,1676592533187,120036817954966,339.0,-20.0,-25.0
UncalGyro,1676592533195,120036826937267,-1.5099062,-0.548557,0.5177083,0.00063883443,-0.0009609845,-0.0033536158
UncalAccel,1676592533195,120036826937267,2.5268207,1.1742777,6.632306,0.006110925,-0.043260336,-0.038735468
UncalMag,1676592533196,120036827864269,-53.899597,8.3692,-114.8874,-47.646854,1.2478232,-64.42538
OrientationDeg,1676592533195,120036826937267,339.0,-20.0,-24.0
UncalGyro,1676592533204,120036835917369,-1.6893479,-0.59696805,0.86849767,0.00063883443,-0.0009609845,-0.0033536158
UncalAccel,1676592533205,120036835917369,2.46042,0.36430725,7.21436,0.006110925,-0.043260336,-0.038735468
OrientationDeg,1676592533204,120036835917369,339.0,-20.0,-23.0
UncalMag,1676592533207,120036837875988,-54.1436,9.15,-115.4486,-47.646854,1.2478232,-64.42538
UncalGyro,1676592533213,120036844891002,-1.8869628,-0.57787853,1.2075279,0.00063883443,-0.0009609845,-0.0033536158
UncalAccel,1676592533214,120036844891002,2.9503503,-0.0077766734,6.8668027,0.006110925,-0.043260336,-0.038735468
OrientationDeg,1676592533214,120036844891002,339.0,-21.0,-22.0
UncalMag,1676592533217,120036847876232,-55.4734,9.882,-114.863,-47.646854,1.2478232,-64.42538
UncalGyro,1676592533222,120036853875621,-2.0905335,-0.7689266,1.3953689,0.00063883443,-0.0009609845,-0.0033536158
UncalAccel,1676592533223,120036853875621,3.7800615,0.6771688,5.9353967,0.006110925,-0.043260336,-0.038735468
OrientationDeg,1676592533222,120036853875621,338.0,-21.0,-20.0
UncalMag,1676592533226,120036857876232,-55.5588,10.8946,-113.9236,-47.646854,1.2478232,-64.42538
UncalGyro,1676592533231,120036862854686,-2.2635612,-1.2631166,1.38025,0.00063883443,-0.0009609845,-0.0033536158
UncalAccel,1676592533231,120036862854686,4.213761,1.8921245,5.0141597,0.006110925,-0.043260336,-0.038735468
OrientationDeg,1676592533231,120036862854686,338.0,-22.0,-19.0
UncalMag,1676592533237,120036867864269,-54.6072,12.6514,-113.533195,-47.646854,1.2478232,-64.42538
UncalGyro,1676592533241,120036871834972,-2.3296874,-1.844813,1.1795808,0.00063883443,-0.0009609845,-0.0033536158
UncalAccel,1676592533240,120036871834972,4.2131624,2.9186454,5.7009,0.006110925,-0.043260336,-0.038735468
OrientationDeg,1676592533241,120036871834972,338.0,-23.0,-18.0
UncalMag,1676592533247,120036877864269,-57.0472,12.627,-113.703995,-47.646854,1.2478232,-64.42538
UncalGyro,1676592533249,120036880818004,-2.2241604,-2.259896,0.87979865,0.00063883443,-0.0009609845,-0.0033536158
UncalAccel,1676592533249,120036880818004,4.3926244,3.4504502,6.8243303,0.006110925,-0.043260336,-0.038735468
OrientationDeg,1676592533249,120036880818004,338.0,-24.0,-16.0
UncalMag,1676592533256,120036887875988,-59.096798,12.7612,-113.716194,-47.646854,1.2478232,-64.42538
UncalGyro,1676592533259,120036889796520,-1.9423988,-2.521041,0.5674938,0.00063883443,-0.0009609845,-0.0033536158
UncalAccel,1676592533258,120036889796520,4.653442,3.339184,7.9351983,0.006110925,-0.043260336,-0.038735468
OrientationDeg,1676592533258,120036889796520,338.0,-26.0,-15.0
UncalMag,1676592533266,120036897875988,-59.6336,14.8474,-114.8508,-47.646854,1.2478232,-64.42538
UncalGyro,1676592533268,120036898775829,-1.547169,-2.6752844,0.28878653,0.00063883443,-0.0009609845,-0.0033536158
UncalAccel,1676592533268,120036898775829,5.055436,2.8528428,8.7164545,0.006110925,-0.043260336,-0.038735468
OrientationDeg,1676592533268,120036898775829,339.0,-27.0,-15.0
UncalGyro,1676592533277,120036907755809,-1.131017,-2.7476718,0.08536842,0.00063883443,-0.0009609845,-0.0033536158
UncalAccel,1676592533277,120036907755809,5.011169,2.1003,8.883952,0.006110925,-0.043260336,-0.038735468
UncalMag,1676592533277,120036907858898,-59.2188,15.372,-113.240395,-47.646854,1.2478232,-64.42538
OrientationDeg,1676592533276,120036907755809,339.0,-28.0,-14.0
UncalGyro,1676592533286,120036916736461,-0.8035932,-2.8171577,-0.021380283,0.00063883443,-0.0009609845,-0.0033536158
UncalAccel,1676592533286,120036916736461,4.775476,1.2813566,8.068,0.006110925,-0.043260336,-0.038735468
UncalMag,1676592533287,120036917864513,-62.098,14.969399,-113.1184,-47.646854,1.2478232,-64.42538
OrientationDeg,1676592533286,120036916736461,339.0,-30.0,-14.0
UncalGyro,1676592533295,120036925706554,-0.65148777,-2.9361238,-0.030695979,0.00063883443,-0.0009609845,-0.0033536158
UncalAccel,1676592533294,120036925706554,4.8035913,0.5712864,7.0731835,0.006110925,-0.043260336,-0.038735468
OrientationDeg,1676592533294,120036925706554,339.0,-31.0,-13.0
UncalMag,1676592533296,120036927875988,-62.5494,15.884399,-112.362,-47.646854,1.2478232,-64.42538
UncalGyro,1676592533304,120036934697215,-0.6719518,-3.1554244,0.03390302,0.00063883443,-0.0009609845,-0.0033536158
UncalAccel,1676592533304,120036934697215,4.875974,-0.11545369,5.873781,0.006110925,-0.043260336,-0.038735468
OrientationDeg,1676592533304,120036934697215,339.0,-33.0,-13.0
UncalMag,1676592533306,120036937875988,-62.281,16.6652,-110.409996,-47.646854,1.2478232,-64.42538
UncalGyro,1676592533313,120036943674083,-0.7976373,-3.3095152,0.13637567,0.00063883443,-0.0009609845,-0.0033536158
UncalAccel,1676592533313,120036943674083,4.8065825,-0.11006984,6.426523,0.006110925,-0.043260336,-0.038735468
OrientationDeg,1676592533313,120036943674083,339.0,-34.0,-13.0
UncalMag,1676592533317,120036947876232,-64.4038,17.0556,-108.543396,-47.646854,1.2478232,-64.42538
UncalGyro,1676592533321,120036952657665,-0.981355,-3.2925637,0.26313022,0.00063883443,-0.0009609845,-0.0033536158
UncalAccel,1676592533321,120036952657665,4.989035,0.037686955,7.271788,0.006110925,-0.043260336,-0.038735468
OrientationDeg,1676592533322,120036952657665,340.0,-36.0,-12.0
UncalMag,1676592533326,120036957864757,-66.002,17.0068,-107.628395,-47.646854,1.2478232,-64.42538
UncalGyro,1676592533330,120036961642101,-1.1675162,-3.16474,0.4063781,0.00063883443,-0.0009609845,-0.0033536158
UncalAccel,1676592533331,120036961642101,5.619544,0.13519448,8.185248,0.006110925,-0.043260336,-0.038735468
OrientationDeg,1676592533331,120036961642101,340.0,-38.0,-11.0
UncalMag,1676592533336,120036967876232,-66.221596,17.6412,-106.6402,-47.646854,1.2478232,-64.42538
UncalGyro,1676592533340,120036970613170,-1.3151928,-2.987131,0.5342017,0.00063883443,-0.0009609845,-0.0033536158
UncalAccel,1676592533339,120036970613170,6.625128,0.39361933,9.573085,0.006110925,-0.043260336,-0.038735468
OrientationDeg,1676592533339,120036970613170,340.0,-39.0,-11.0
UncalMag,1676592533347,120036977864025,-69.1496,17.3118,-108.1652,-47.646854,1.2478232,-64.42538
UncalGyro,1676592533349,120036979598583,-1.4876096,-2.5735753,0.6281222,0.00063883443,-0.0009609845,-0.0033536158
UncalAccel,1676592533348,120036979598583,7.437491,0.86859465,11.776277,0.006110925,-0.043260336,-0.038735468
OrientationDeg,1676592533349,120036979598583,340.0,-40.0,-10.0
UncalMag,1676592533357,120036987864513,-68.5396,18.483,-107.298996,-47.646854,1.2478232,-64.42538
UncalGyro,1676592533357,120036988574778,-1.6067283,-2.0587685,0.6774496,0.00063883443,-0.0009609845,-0.0033536158
UncalAccel,1676592533357,120036988574778,7.734201,1.346561,12.328421,0.006110925,-0.043260336,-0.038735468
OrientationDeg,1676592533357,120036988574778,341.0,-41.0,-9.0
UncalGyro,1676592533367,120036997560680,-1.6340646,-1.5367843,0.68432176,0.00063883443,-0.0009609845,-0.0033536158
UncalAccel,1676592533366,120036997560680,7.792825,1.6965113,12.521043,0.006110925,-0.043260336,-0.038735468
UncalMag,1676592533366,120036997862804,-68.1492,20.483799,-104.9444,-47.646854,1.2478232,-64.42538
OrientationDeg,1676592533367,120036997560680,341.0,-42.0,-8.0
UncalGyro,1676592533376,120037006543713,-1.7056885,-0.9735665,0.6956228,0.00063883443,-0.0009609845,-0.0033536158
UncalAccel,1676592533376,120037006543713,7.5954175,1.9232312,12.287743,0.006110925,-0.043260336,-0.038735468
OrientationDeg,1676592533376,120037006543713,341.0,-42.0,-7.0
UncalMag,1676592533376,120037007875988,-68.0272,21.6062,-102.1384,-47.646854,1.2478232,-64.42538
UncalGyro,1676592533385,120037015505748,-1.8646661,-0.42653665,0.71593404,0.00063883443,-0.0009609845,-0.0033536158
UncalAccel,1676592533385,120037015505748,7.4063845,2.2642083,11.545369,0.006110925,-0.043260336,-0.038735468
OrientationDeg,1676592533384,120037015505748,342.0,-43.0,-6.0
UncalMag,1676592533387,120037017876232,-69.0032,21.032799,-103.126595,-47.646854,1.2478232,-64.42538
UncalGyro,1676592533394,120037024500499,-2.0783162,0.045814894,0.69058317,0.00063883443,-0.0009609845,-0.0033536158
UncalAccel,1676592533394,120037024500499,7.3573313,2.868396,10.809576,0.006110925,-0.043260336,-0.038735468
OrientationDeg,1676592533393,120037024500499,342.0,-42.0,-5.0
UncalMag,1676592533396,120037027875988,-65.819,23.7046,-101.6138,-47.646854,1.2478232,-64.42538
UncalGyro,1676592533402,120037033478770,-2.3235786,0.35643986,0.6079636,0.00063883443,-0.0009609845,-0.0033536158
UncalAccel,1676592533403,120037033478770,7.4847493,2.6321049,9.789038,0.006110925,-0.043260336,-0.038735468
OrientationDeg,1676592533403,120037033478770,343.0,-42.0,-4.0
UncalMag,1676592533407,120037037875988,-66.5632,24.070599,-101.1258,-47.646854,1.2478232,-64.42538
UncalGyro,1676592533411,120037042450084,-2.57159,0.55771995,0.49174652,0.00063883443,-0.0009609845,-0.0033536158
UncalAccel,1676592533411,120037042450084,7.4626155,1.869991,9.260822,0.006110925,-0.043260336,-0.038735468
OrientationDeg,1676592533412,120037042450084,343.0,-42.0,-3.0
UncalMag,1676592533417,120037047875988,-65.3798,25.4858,-100.284,-47.646854,1.2478232,-64.42538
UncalGyro,1676592533421,120037051444225,-2.7951667,0.68844515,0.45249844,0.00063883443,-0.0009609845,-0.0033536158
UncalAccel,1676592533420,120037051444225,6.2261243,1.3351951,8.833105,0.006110925,-0.043260336,-0.038735468
OrientationDeg,1676592533420,120037051444225,344.0,-41.0,-2.0
UncalMag,1676592533426,120037057875988,-67.3806,25.351599,-102.6996,-47.646854,1.2478232,-64.42538
UncalGyro,1676592533429,120037060421581,-2.9895744,0.6757697,0.5149594,0.00063883443,-0.0009609845,-0.0033536158
UncalAccel,1676592533430,120037060421581,5.186443,1.1060823,8.474181,0.006110925,-0.043260336,-0.038735468
OrientationDeg,1676592533429,120037060421581,345.0,-41.0,-1.0
UncalMag,1676592533436,120037067876232,-68.405396,25.9616,-101.259995,-47.646854,1.2478232,-64.42538
UncalGyro,1676592533439,120037069403026,-3.0914364,0.49220467,0.64660084,0.00063883443,-0.0009609845,-0.0033536158
UncalAccel,1676592533438,120037069403026,4.6546383,0.79800636,8.556135,0.006110925,-0.043260336,-0.038735468
OrientationDeg,1676592533438,120037069403026,346.0,-41.0,0.0
UncalMag,1676592533447,120037077865001,-67.307396,27.7306,-101.3698,-47.646854,1.2478232,-64.42538
UncalGyro,1676592533448,120037078379161,-3.0137036,0.117744274,0.8026769,0.00063883443,-0.0009609845,-0.0033536158
UncalAccel,1676592533447,120037078379161,4.9698925,0.52283174,9.013762,0.006110925,-0.043260336,-0.038735468
OrientationDeg,1676592533447,120037078379161,346.0,-41.0,1.0
UncalGyro,1676592533457,120037087361949,-2.7294986,-0.35277468,0.8958339,0.00063883443,-0.0009609845,-0.0033536158
UncalAccel,1676592533456,120037087361949,6.072386,0.6843473,10.005588,0.006110925,-0.043260336,-0.038735468
UncalMag,1676592533456,120037087864269,-67.954,28.499199,-100.308395,-47.646854,1.2478232,-64.42538
OrientationDeg,1676592533456,120037087361949,347.0,-41.0,3.0
UncalGyro,1676592533466,120037096345470,-2.2834144,-0.66538495,0.8332202,0.00063883443,-0.0009609845,-0.0033536158
UncalAccel,1676592533466,120037096345470,6.6514487,0.8111669,11.639288,0.006110925,-0.043260336,-0.038735468
OrientationDeg,1676592533466,120037096345470,347.0,-41.0,4.0
UncalMag,1676592533467,120037097875988,-66.8072,30.4634,-100.9916,-47.646854,1.2478232,-64.42538
UncalGyro,1676592533475,120037105324169,-1.7402023,-0.6348417,0.6740898,0.00063883443,-0.0009609845,-0.0033536158
UncalAccel,1676592533474,120037105324169,6.393622,0.79860455,12.624533,0.006110925,-0.043260336,-0.038735468
OrientationDeg,1676592533475,120037105324169,348.0,-42.0,5.0
UncalMag,1676592533477,120037107876232,-68.8446,30.0364,-99.796,-47.646854,1.2478232,-64.42538
UncalGyro,1676592533484,120037114303233,-1.1820242,-0.54229563,0.4925101,0.00063883443,-0.0009609845,-0.0033536158
UncalAccel,1676592533484,120037114303233,6.469594,1.0420742,11.162518,0.006110925,-0.043260336,-0.038735468
OrientationDeg,1676592533484,120037114303233,348.0,-42.0,5.0
UncalMag,1676592533487,120037117875988,-67.039,31.1954,-97.2218,-47.646854,1.2478232,-64.42538
UncalGyro,1676592533492,120037123283641,-0.71685034,-0.73532903,0.356898,0.00063883443,-0.0009609845,-0.0033536158
UncalAccel,1676592533493,120037123283641,5.9228344,0.8859426,8.648259,0.006110925,-0.043260336,-0.038735468
OrientationDeg,1676592533493,120037123283641,348.0,-42.0,6.0
UncalMag,1676592533497,120037127864025,-67.5514,31.354,-97.1608,-47.646854,1.2478232,-64.42538
UncalGyro,1676592533501,120037132263744,-0.42424592,-1.109484,0.35231653,0.00063883443,-0.0009609845,-0.0033536158
UncalAccel,1676592533502,120037132263744,4.898706,0.68075806,7.2508507,0.006110925,-0.043260336,-0.038735468
OrientationDeg,1676592533502,120037132263744,348.0,-43.0,6.0
UncalMag,1676592533507,120037137875988,-68.137,31.0978,-95.4162,-47.646854,1.2478232,-64.42538
UncalGyro,1676592533510,120037141245555,-0.26328292,-1.4147639,0.4427246,0.00063883443,-0.0009609845,-0.0033536158
UncalAccel,1676592533510,120037141245555,4.7455654,0.38404804,6.9481587,0.006110925,-0.043260336,-0.038735468
OrientationDeg,1676592533511,120037141245555,348.0,-43.0,6.0
UncalMag,1676592533516,120037147875988,-68.1492,31.268599,-95.342995,-47.646854,1.2478232,-64.42538
UncalGyro,1676592533519,120037150224620,-0.18784106,-1.5746579,0.58246,0.00063883443,-0.0009609845,-0.0033536158
UncalAccel,1676592533520,120037150224620,4.811368,-0.4408776,7.7258263,0.006110925,-0.043260336,-0.038735468
OrientationDeg,1676592533520,120037150224620,348.0,-44.0,6.0
UncalMag,1676592533526,120037157875988,-66.49,32.5862,-95.8798,-47.646854,1.2478232,-64.42538
UncalGyro,1676592533529,120037159193492,-0.18997909,-1.4764613,0.7982482,0.00063883443,-0.0009609845,-0.0033536158
UncalAccel,1676592533529,120037159193492,4.0887356,-0.2009971,8.72483,0.006110925,-0.043260336,-0.038735468
OrientationDeg,1676592533528,120037159193492,348.0,-45.0,7.0
UncalMag,1676592533536,120037167876232,-70.3208,31.109999,-95.7456,-47.646854,1.2478232,-64.42538
UncalGyro,1676592533537,120037168185008,-0.23182335,-1.2322679,0.9967794,0.00063883443,-0.0009609845,-0.0033536158
UncalAccel,1676592533537,120037168185008,4.304688,0.5599205,8.6345005,0.006110925,-0.043260336,-0.038735468
OrientationDeg,1676592533538,120037168185008,347.0,-45.0,7.0
UncalGyro,1676592533547,120037177165050,-0.2744312,-1.0711522,1.1137601,0.00063883443,-0.0009609845,-0.0033536158
UncalAccel,1676592533546,120037177165050,5.0656056,1.0396814,7.739585,0.006110925,-0.043260336,-0.038735468
UncalMag,1676592533546,120037177864513,-67.929596,32.720398,-94.537796,-47.646854,1.2478232,-64.42538
OrientationDeg,1676592533547,120037177165050,347.0,-46.0,8.0
UncalGyro,1676592533555,120037186145641,-0.28115073,-1.0236574,1.1560625,0.00063883443,-0.0009609845,-0.0033536158
UncalAccel,1676592533555,120037186145641,5.3072805,0.7070791,7.605587,0.006110925,-0.043260336,-0.038735468
OrientationDeg,1676592533556,120037186145641,347.0,-46.0,8.0
UncalMag,1676592533557,120037187875744,-68.7958,32.7448,-96.1604,-47.646854,1.2478232,-64.42538
UncalGyro,1676592533564,120037195127330,-0.2835942,-1.0067059,1.1563679,0.00063883443,-0.0009609845,-0.0033536158
UncalAccel,1676592533564,120037195127330,6.8464637,0.36670008,7.1246295,0.006110925,-0.043260336,-0.038735468
OrientationDeg,1676592533565,120037195127330,346.0,-47.0,9.0
UncalMag,1676592533566,120037197875988,-68.7592,33.6354,-96.892395,-47.646854,1.2478232,-64.42538
UncalGyro,1676592533573,120037204094493,-0.3126103,-0.97249746,1.1065824,0.00063883443,-0.0009609845,-0.0033536158
UncalAccel,1676592533574,120037204094493,7.2646093,0.43669012,7.60798,0.006110925,-0.043260336,-0.038735468
OrientationDeg,1676592533574,120037204094493,346.0,-47.0,9.0
UncalMag,1676592533577,120037207876232,-68.258995,33.5866,-96.3312,-47.646854,1.2478232,-64.42538
UncalGyro,1676592533583,120037213087779,-0.32436943,-0.7808385,1.0864239,0.00063883443,-0.0009609845,-0.0033536158
UncalAccel,1676592533582,120037213087779,6.9475603,0.34277186,8.88814,0.006110925,-0.043260336,-0.038735468
OrientationDeg,1676592533582,120037213087779,346.0,-48.0,10.0
UncalMag,1676592533586,120037217864269,-68.2712,34.1356,-89.6334,-47.646854,1.2478232,-64.42538
UncalGyro,1676592533592,120037222067027,-0.3436117,-0.40439278,1.0004445,0.00063883443,-0.0009609845,-0.0033536158
UncalAccel,1676592533592,120037222067027,8.105088,0.5282156,9.270991,0.006110925,-0.043260336,-0.038735468
OrientationDeg,1676592533592,120037222067027,346.0,-48.0,10.0
UncalMag,1676592533596,120037227875988,-68.8568,34.1478,-89.9994,-47.646854,1.2478232,-64.42538
UncalGyro,1676592533600,120037231047008,-0.4240932,0.049632803,0.8416196,0.00063883443,-0.0009609845,-0.0033536158
UncalAccel,1676592533601,120037231047008,8.157132,0.53240305,8.46102,0.006110925,-0.043260336,-0.038735468
OrientationDeg,1676592533600,120037231047008,345.0,-48.0,11.0
UncalMag,1676592533607,120037237875988,-68.0028,34.5626,-90.7436,-47.646854,1.2478232,-64.42538
UncalGyro,1676592533610,120037240027233,-0.5842926,0.4251622,0.72082096,0.00063883443,-0.0009609845,-0.0033536158
UncalAccel,1676592533610,120037240027233,7.508079,0.03708875,6.925427,0.006110925,-0.043260336,-0.038735468
OrientationDeg,1676592533610,120037240027233,345.0,-47.0,11.0
UncalMag,1676592533617,120037247875988,-68.625,34.3918,-92.378395,-47.646854,1.2478232,-64.42538
UncalGyro,1676592533619,120037249008983,-0.8011498,0.6250679,0.67256266,0.00063883443,-0.0009609845,-0.0033536158
UncalAccel,1676592533619,120037249008983,6.8345,-0.41515473,5.495117,0.006110925,-0.043260336,-0.038735468
OrientationDeg,1676592533619,120037249008983,346.0,-47.0,12.0
UncalMag,1676592533626,120037257876232,-68.4664,35.5752,-92.7078,-47.646854,1.2478232,-64.42538
UncalGyro,1676592533627,120037257984996,-0.99204516,0.6363689,0.66339964,0.00063883443,-0.0009609845,-0.0033536158
UncalAccel,1676592533627,120037257984996,6.281758,-1.0019945,4.5936213,0.006110925,-0.043260336,-0.038735468
OrientationDeg,1676592533626,120037257984996,346.0,-47.0,12.0
UncalGyro,1676592533636,120037266968517,-1.0914634,0.5198463,0.6780604,0.00063883443,-0.0009609845,-0.0033536158
UncalAccel,1676592533636,120037266968517,5.77089,-1.7665013,4.49731,0.006110925,-0.043260336,-0.038735468
UncalMag,1676592533637,120037267864269,-68.1736,35.7338,-91.0486,-47.646854,1.2478232,-64.42538
OrientationDeg,1676592533636,120037266968517,346.0,-47.0,13.0
UncalGyro,1676592533644,120037275951610,-1.0790935,0.34529158,0.71868294,0.00063883443,-0.0009609845,-0.0033536158
UncalAccel,1676592533645,120037275951610,5.3742795,-2.367698,4.7114677,0.006110925,-0.043260336,-0.038735468
OrientationDeg,1676592533644,120037275951610,346.0,-47.0,13.0
