# 
# Header Description:
# 
# Version: v3.0.5.6 Platform: 13 Manufacturer: Google Model: Pixel 6
# 
# Raw,utcTimeMillis,TimeNanos,LeapSecond,TimeUncertaintyNanos,FullBiasNanos,BiasNanos,BiasUncertaintyNanos,DriftNanosPerSecond,DriftUncertaintyNanosPerSecond,HardwareClockDiscontinuityCount,Svid,TimeOffsetNanos,State,ReceivedSvTimeNanos,ReceivedSvTimeUncertaintyNanos,Cn0DbHz,PseudorangeRateMetersPerSecond,PseudorangeRateUncertaintyMetersPerSecond,AccumulatedDeltaRangeState,AccumulatedDeltaRangeMeters,AccumulatedDeltaRangeUncertaintyMeters,CarrierFrequencyHz,CarrierCycles,CarrierPhase,CarrierPhaseUncertainty,MultipathIndicator,SnrInDb,ConstellationType,AgcDb,BasebandCn0DbHz,FullInterSignalBiasNanos,FullInterSignalBiasUncertaintyNanos,SatelliteInterSignalBiasNanos,SatelliteInterSignalBiasUncertaintyNanos,CodeType,ChipsetElapsedRealtimeNanos
# 
# UncalAccel,utcTimeMillis,elapsedRealtimeNanos,UncalAccelXMps2,UncalAccelYMps2,UncalAccelZMps2,BiasXMps2,BiasYMps2,BiasZMps2
# 
# Accel,utcTimeMillis,elapsedRealtimeNanos,AccelXMps2,AccelYMps2,AccelZMps2
# 
# UncalGyro,utcTimeMillis,elapsedRealtimeNanos,UncalGyroXRadPerSec,UncalGyroYRadPerSec,UncalGyroZRadPerSec,DriftXRadPerSec,DriftYRadPerSec,DriftZRadPerSec
# 
# Gyro,utcTimeMillis,elapsedRealtimeNanos,GyroXRadPerSec,GyroYRadPerSec,GyroZRadPerSec
# 
# UncalMag,utcTimeMillis,elapsedRealtimeNanos,UncalMagXMicroT,UncalMagYMicroT,UncalMagZMicroT,BiasXMicroT,BiasYMicroT,BiasZMicroT
# 
# Mag,utcTimeMillis,elapsedRealtimeNanos,MagXMicroT,MagYMicroT,MagZMicroT
# 
# OrientationDeg,utcTimeMillis,elapsedRealtimeNanos,yawDeg,rollDeg,pitchDeg
# 
# Fix,Provider,LatitudeDegrees,LongitudeDegrees,AltitudeMeters,SpeedMps,AccuracyMeters,BearingDegrees,UnixTimeMillis,SpeedAccuracyMps,BearingAccuracyDegrees,elapsedRealtimeNanos,VerticalAccuracyMeters
# 
# Nav,Svid,Type,Status,MessageId,Sub-messageId,Data(Bytes)
# 
# Status,UnixTimeMillis,SignalCount,SignalIndex,ConstellationType,Svid,CarrierFrequencyHz,Cn0DbHz,AzimuthDegrees,ElevationDegrees,UsedInFix,HasAlmanacData,HasEphemerisData,BasebandCn0DbHz
# 
UncalGyro,1676594913606,122417237680126,-0.33093625,-0.15485434,-0.07727446,0.00041232852,-0.00061079004,-0.0032089395
UncalAccel,1676594913606,122417237680126,0.276371,1.1156535,9.865608,0.006110925,-0.043260336,-0.038735468
UncalGyro,1676594913616,122417246648998,-0.31612277,-0.1873829,-0.03940081,0.00041232852,-0.00061079004,-0.0032089395
UncalAccel,1676594913616,122417246648998,0.20638095,0.9720842,10.27478,0.006110925,-0.043260336,-0.038735468
UncalGyro,1676594913624,122417255633373,-0.29184088,-0.1563815,0.0067195175,0.00041232852,-0.00061079004,-0.0032089395
Fix,FLP,37.4311374000,-122.1551998000,-15.0,0.70933956,5.418,233.15813,1676594913040,,,122416671966320,2.9971583
UncalAccel,1676594913624,122417255633373,0.45224348,0.82731843,10.470394,0.006110925,-0.043260336,-0.038735468
UncalMag,1676594913614,122417245856212,-28.584599,-2.8669999,-110.7882,-45.491467,0.31409264,-60.09035
UncalMag,1676594913624,122417255855480,-26.7424,-2.4278,-109.1168,-45.491467,0.31409264,-60.09035
UncalMag,1676594913635,122417265856945,-27.2304,-2.4888,-104.798,-45.491467,0.31409264,-60.09035
UncalGyro,1676594913633,122417264608105,-0.26542094,-0.07574729,0.03680463,0.00041232852,-0.00061079004,-0.0032089395
UncalAccel,1676594913633,122417264608105,0.57607204,0.92243314,10.714461,0.006110925,-0.043260336,-0.038735468
OrientationDeg,1676594913634,122417264608105,283.0,0.0,-12.0
UncalMag,1676594913644,122417275855724,-25.4492,-1.2444,-105.713,-45.491467,0.31409264,-60.09035
UncalGyro,1676594913643,122417273587047,-0.22724187,0.050549097,0.041233405,0.00041232852,-0.00061079004,-0.0032089395
UncalGyro,1676594913652,122417282567455,-0.17577648,0.17654006,0.035888333,0.00041232852,-0.00061079004,-0.0032089395
UncalAccel,1676594913642,122417273587047,0.70588267,1.1515459,10.825727,0.006110925,-0.043260336,-0.038735468
UncalAccel,1676594913651,122417282567455,0.7393822,1.189831,10.831112,0.006110925,-0.043260336,-0.038735468
OrientationDeg,1676594913643,122417273587047,283.0,0.0,-11.0
UncalMag,1676594913655,122417285856456,-26.364199,-1.6348,-104.980995,-45.491467,0.31409264,-60.09035
UncalGyro,1676594913661,122417291547313,-0.11713341,0.3013093,0.039858956,0.00041232852,-0.00061079004,-0.0032089395
UncalAccel,1676594913661,122417291547313,0.65264237,0.9936196,10.719846,0.006110925,-0.043260336,-0.038735468
OrientationDeg,1676594913660,122417291547313,283.0,0.0,-11.0
UncalMag,1676594913664,122417295861095,-25.6932,-1.7811999,-104.8834,-45.491467,0.31409264,-60.09035
UncalGyro,1676594913670,122417300526073,-0.07422013,0.41920626,0.10842858,0.00041232852,-0.00061079004,-0.0032089395
UncalAccel,1676594913669,122417300526073,0.34576288,0.59282184,10.487741,0.006110925,-0.043260336,-0.038735468
OrientationDeg,1676594913669,122417300526073,283.0,1.0,-11.0
UncalMag,1676594913675,122417305856212,-26.108,-1.5128,-105.590996,-45.491467,0.31409264,-60.09035
UncalGyro,1676594913679,122417309505382,-0.032375857,0.54458636,0.24007004,0.00041232852,-0.00061079004,-0.0032089395
UncalAccel,1676594913679,122417309505382,0.059820566,0.6041877,10.433903,0.006110925,-0.043260336,-0.038735468
OrientationDeg,1676594913678,122417309505382,282.0,1.0,-11.0
UncalMag,1676594913684,122417315857921,-27.084,-2.2326,-105.469,-45.491467,0.31409264,-60.09035
UncalGyro,1676594913688,122417318486156,-0.0154243475,0.6568329,0.3820962,0.00041232852,-0.00061079004,-0.0032089395
UncalAccel,1676594913687,122417318486156,-0.148355,0.64845496,10.219148,0.006110925,-0.043260336,-0.038735468
OrientationDeg,1676594913687,122417318486156,282.0,1.0,-11.0
UncalMag,1676594913695,122417325857677,-26.0714,-1.6226,-105.6642,-45.491467,0.31409264,-60.09035
UncalGyro,1676594913697,122417327467846,-0.043218717,0.7298313,0.52534413,0.00041232852,-0.00061079004,-0.0032089395
UncalAccel,1676594913697,122417327467846,-0.35234314,0.5916254,9.936794,0.006110925,-0.043260336,-0.038735468
OrientationDeg,1676594913697,122417327467846,282.0,1.0,-11.0
UncalMag,1676594913705,122417335856945,-25.3272,-1.5128,-104.212395,-45.491467,0.31409264,-60.09035
UncalGyro,1676594913706,122417336443980,-0.112399206,0.7770206,0.6621779,0.00041232852,-0.00061079004,-0.0032089395
UncalAccel,1676594913705,122417336443980,-0.4648058,0.6735796,9.635897,0.006110925,-0.043260336,-0.038735468
OrientationDeg,1676594913705,122417336443980,282.0,2.0,-11.0
UncalGyro,1676594913715,122417345427257,-0.18768835,0.79198676,0.7678576,0.00041232852,-0.00061079004,-0.0032089395
UncalAccel,1676594913715,122417345427257,-0.41754755,1.0283155,9.333204,0.006110925,-0.043260336,-0.038735468
UncalMag,1676594913715,122417345856212,-28.6456,-3.4404,-105.590996,-45.491467,0.31409264,-60.09035
OrientationDeg,1676594913714,122417345427257,281.0,2.0,-11.0
UncalGyro,1676594913724,122417354405895,-0.24358252,0.7502952,0.82833326,0.00041232852,-0.00061079004,-0.0032089395
UncalAccel,1676594913724,122417354405895,-0.24646074,1.4201403,9.02154,0.006110925,-0.043260336,-0.038735468
UncalMag,1676594913725,122417355856212,-25.314999,-2.1959999,-104.1636,-45.491467,0.31409264,-60.09035
OrientationDeg,1676594913723,122417354405895,281.0,2.0,-11.0
UncalGyro,1676594913733,122417363390819,-0.26740626,0.655153,0.8407033,0.00041232852,-0.00061079004,-0.0032089395
UncalAccel,1676594913733,122417363390819,0.13459627,1.835295,8.782257,0.006110925,-0.043260336,-0.038735468
OrientationDeg,1676594913732,122417363390819,280.0,3.0,-11.0
UncalMag,1676594913734,122417365855968,-24.8758,-3.2086,-108.153,-45.491467,0.31409264,-60.09035
UncalGyro,1676594913742,122417372369030,-0.25686884,0.5203045,0.79152864,0.00041232852,-0.00061079004,-0.0032089395
UncalAccel,1676594913742,122417372369030,0.6197411,2.2779672,8.782257,0.006110925,-0.043260336,-0.038735468
OrientationDeg,1676594913741,122417372369030,280.0,3.0,-11.0
UncalMag,1676594913745,122417375855480,-23.3996,-1.9642,-102.7606,-45.491467,0.31409264,-60.09035
UncalGyro,1676594913751,122417381341625,-0.19624045,0.35262197,0.6791294,0.00041232852,-0.00061079004,-0.0032089395
UncalAccel,1676594913750,122417381341625,0.8315059,2.684747,9.013762,0.006110925,-0.043260336,-0.038735468
OrientationDeg,1676594913750,122417381341625,280.0,3.0,-11.0
UncalMag,1676594913754,122417385860363,-24.034,-2.5376,-103.334,-45.491467,0.31409264,-60.09035
UncalGyro,1676594913759,122417390322459,-0.07803804,0.17363845,0.50426924,0.00041232852,-0.00061079004,-0.0032089395
UncalAccel,1676594913760,122417390322459,0.7399804,2.9874392,9.567701,0.006110925,-0.043260336,-0.038735468
OrientationDeg,1676594913760,122417390322459,279.0,3.0,-11.0
UncalMag,1676594913764,122417395857433,-21.9356,-1.6592,-103.212,-45.491467,0.31409264,-60.09035
UncalGyro,1676594913769,122417399307384,0.10293079,0.021227567,0.29458976,0.00041232852,-0.00061079004,-0.0032089395
UncalAccel,1676594913769,122417399307384,0.6945168,3.098107,10.302298,0.006110925,-0.043260336,-0.038735468
OrientationDeg,1676594913769,122417399307384,279.0,3.0,-11.0
UncalMag,1676594913775,122417405859142,-24.143799,-2.1959999,-105.0542,-45.491467,0.31409264,-60.09035
UncalGyro,1676594913777,122417408282787,0.36972618,-0.08689558,0.07651087,0.00041232852,-0.00061079004,-0.0032089395
UncalAccel,1676594913778,122417408282787,0.77706915,2.9778678,10.816754,0.006110925,-0.043260336,-0.038735468
OrientationDeg,1676594913778,122417408282787,279.0,3.0,-11.0
UncalMag,1676594913784,122417415857189,-24.497599,-3.3428,-103.8098,-45.491467,0.31409264,-60.09035
UncalGyro,1676594913787,122417417264232,0.7131852,-0.13561209,-0.11362094,0.00041232852,-0.00061079004,-0.0032089395
UncalAccel,1676594913786,122417417264232,0.631107,2.341377,11.313266,0.006110925,-0.043260336,-0.038735468
OrientationDeg,1676594913786,122417417264232,279.0,3.0,-11.0
UncalMag,1676594913795,122417425861339,-22.4968,-2.074,-103.260796,-45.491467,0.31409264,-60.09035
UncalGyro,1676594913795,122417426246532,1.1184943,-0.06627888,-0.20219639,0.00041232852,-0.00061079004,-0.0032089395
UncalAccel,1676594913796,122417426246532,0.28295127,1.538585,12.055638,0.006110925,-0.043260336,-0.038735468
OrientationDeg,1676594913796,122417426246532,279.0,3.0,-12.0
UncalGyro,1676594913805,122417435219982,1.5473217,0.13576481,-0.23273966,0.00041232852,-0.00061079004,-0.0032089395
UncalAccel,1676594913805,122417435219982,-0.06460621,1.4781662,12.882957,0.006110925,-0.043260336,-0.038735468
UncalMag,1676594913805,122417435855968,-22.4968,-2.7572,-103.431595,-45.491467,0.31409264,-60.09035
OrientationDeg,1676594913805,122417435219982,279.0,3.0,-13.0
UncalGyro,1676594913814,122417444205699,1.9466748,0.35063666,-0.24220806,0.00041232852,-0.00061079004,-0.0032089395
UncalAccel,1676594913814,122417444205699,-0.15493527,1.5026926,12.858431,0.006110925,-0.043260336,-0.038735468
OrientationDeg,1676594913814,122417444205699,280.0,3.0,-14.0
UncalMag,1676594913815,122417445856456,-23.6314,-3.599,-104.0782,-45.491467,0.31409264,-60.09035
UncalGyro,1676594913822,122417453188488,2.2829561,0.40790528,-0.24236079,0.00041232852,-0.00061079004,-0.0032089395
UncalAccel,1676594913822,122417453188488,-0.050249275,1.4249259,11.810374,0.006110925,-0.043260336,-0.038735468
OrientationDeg,1676594913822,122417453188488,280.0,3.0,-15.0
UncalMag,1676594913824,122417455856212,-22.8506,-4.209,-103.639,-45.491467,0.31409264,-60.09035
UncalGyro,1676594913831,122417462165783,2.5448647,0.23365596,-0.24236079,0.00041232852,-0.00061079004,-0.0032089395
UncalAccel,1676594913832,122417462165783,0.15134603,1.4470595,10.600802,0.006110925,-0.043260336,-0.038735468
OrientationDeg,1676594913832,122417462165783,280.0,4.0,-16.0
UncalMag,1676594913834,122417465857433,-23.7778,-5.4168,-102.0896,-45.491467,0.31409264,-60.09035
UncalGyro,1676594913840,122417471139110,2.6849055,-0.1815797,-0.30008754,0.00041232852,-0.00061079004,-0.0032089395
UncalAccel,1676594913840,122417471139110,0.7004988,1.7359928,8.927023,0.006110925,-0.043260336,-0.038735468
OrientationDeg,1676594913841,122417471139110,281.0,4.0,-17.0
UncalMag,1676594913845,122417475855724,-23.057999,-6.9662,-102.8582,-45.491467,0.31409264,-60.09035
UncalGyro,1676594913849,122417480115795,2.519819,-0.91415983,-0.46013424,0.00041232852,-0.00061079004,-0.0032089395
UncalAccel,1676594913849,122417480115795,0.89431745,2.55374,6.606583,0.006110925,-0.043260336,-0.038735468
OrientationDeg,1676594913850,122417480115795,281.0,3.0,-19.0
UncalMag,1676594913855,122417485855968,-24.8514,-7.869,-105.0542,-45.491467,0.31409264,-60.09035
UncalGyro,1676594913858,122417489099132,2.0538816,-1.7570012,-0.6658431,0.00041232852,-0.00061079004,-0.0032089395
UncalAccel,1676594913858,122417489099132,1.1706885,2.9018958,6.2141604,0.006110925,-0.043260336,-0.038735468
OrientationDeg,1676594913859,122417489099132,281.0,2.0,-20.0
UncalMag,1676594913865,122417495856945,-25.4126,-8.4424,-102.040794,-45.491467,0.31409264,-60.09035
UncalGyro,1676594913868,122417498077587,1.6534595,-2.1627684,-0.8187121,0.00041232852,-0.00061079004,-0.0032089395
UncalAccel,1676594913868,122417498077587,1.2023934,2.8354948,8.463413,0.006110925,-0.043260336,-0.038735468
OrientationDeg,1676594913868,122417498077587,282.0,1.0,-21.0
UncalMag,1676594913874,122417505860607,-26.7668,-8.7962,-104.4564,-45.491467,0.31409264,-60.09035
UncalGyro,1676594913876,122417507057628,1.4424056,-2.031585,-0.95356065,0.00041232852,-0.00061079004,-0.0032089395
UncalAccel,1676594913876,122417507057628,1.2442678,2.5148566,10.044471,0.006110925,-0.043260336,-0.038735468
OrientationDeg,1676594913877,122417507057628,283.0,1.0,-21.0
UncalMag,1676594913885,122417515863537,-26.8034,-9.333,-102.8338,-45.491467,0.31409264,-60.09035
UncalGyro,1676594913885,122417516040844,1.302212,-1.5754215,-1.070236,0.00041232852,-0.00061079004,-0.0032089395
UncalAccel,1676594913885,122417516040844,0.8781659,2.5698915,10.900503,0.006110925,-0.043260336,-0.038735468
OrientationDeg,1676594913886,122417516040844,283.0,0.0,-22.0
UncalGyro,1676594913895,122417525017834,1.1675162,-1.0230466,-1.1464413,0.00041232852,-0.00061079004,-0.0032089395
UncalAccel,1676594913895,122417525017834,0.5599205,2.6488547,10.82812,0.006110925,-0.043260336,-0.038735468
UncalMag,1676594913895,122417525855968,-29.401999,-9.943,-105.6276,-45.491467,0.31409264,-60.09035
OrientationDeg,1676594913894,122417525017834,284.0,0.0,-22.0
UncalGyro,1676594913903,122417533997448,1.0042624,-0.5122105,-1.158964,0.00041232852,-0.00061079004,-0.0032089395
UncalAccel,1676594913903,122417533997448,0.4869394,2.7206392,10.213165,0.006110925,-0.043260336,-0.038735468
OrientationDeg,1676594913902,122417533997448,285.0,0.0,-23.0
UncalMag,1676594913904,122417535855968,-26.84,-9.8088,-105.3348,-45.491467,0.31409264,-60.09035
UncalGyro,1676594913911,122417542976024,0.8434522,-0.02443461,-1.1357512,0.00041232852,-0.00061079004,-0.0032089395
UncalAccel,1676594913911,122417542976024,0.46241298,2.8402805,9.589835,0.006110925,-0.043260336,-0.038735468
OrientationDeg,1676594913912,122417542976024,285.0,0.0,-23.0
UncalMag,1676594913914,122417545860119,-26.0836,-9.0646,-105.0908,-45.491467,0.31409264,-60.09035
UncalGyro,1676594913920,122417551956248,0.73639804,0.29932398,-1.0995574,0.00041232852,-0.00061079004,-0.0032089395
UncalAccel,1676594913921,122417551956248,0.24586253,2.9850461,8.36471,0.006110925,-0.043260336,-0.038735468
OrientationDeg,1676594913920,122417551956248,286.0,0.0,-24.0
UncalMag,1676594913924,122417555867443,-31.1222,-10.7726,-106.847595,-45.491467,0.31409264,-60.09035
UncalGyro,1676594913930,122417560947582,0.58368176,0.41996986,-1.0274754,0.00041232852,-0.00061079004,-0.0032089395
UncalAccel,1676594913929,122417560947582,-0.08255238,3.1686954,7.554141,0.006110925,-0.043260336,-0.038735468
OrientationDeg,1676594913930,122417560947582,287.0,1.0,-24.0
UncalMag,1676594913934,122417565857677,-27.962399,-10.2114,-105.6398,-45.491467,0.31409264,-60.09035
UncalGyro,1676594913938,122417569925548,0.42638394,0.46731192,-0.95447695,0.00041232852,-0.00061079004,-0.0032089395
UncalAccel,1676594913939,122417569925548,-0.36370903,3.0604203,7.332805,0.006110925,-0.043260336,-0.038735468
OrientationDeg,1676594913939,122417569925548,287.0,1.0,-24.0
UncalMag,1676594913945,122417575872326,-26.522799,-8.845,-107.7382,-45.491467,0.31409264,-60.09035
UncalGyro,1676594913948,122417578904857,0.28053987,0.505491,-0.85918194,0.00041232852,-0.00061079004,-0.0032089395
UncalAccel,1676594913948,122417578904857,-0.61914283,2.6111677,7.2580295,0.006110925,-0.043260336,-0.038735468
OrientationDeg,1676594913947,122417578904857,288.0,2.0,-24.0
UncalMag,1676594913955,122417585867443,-25.986,-9.5648,-106.4694,-45.491467,0.31409264,-60.09035
UncalGyro,1676594913957,122417587884594,0.124005646,0.590554,-0.70356405,0.00041232852,-0.00061079004,-0.0032089395
UncalAccel,1676594913956,122417587884594,-1.0917253,2.1008983,7.5104723,0.006110925,-0.043260336,-0.038735468
OrientationDeg,1676594913956,122417587884594,288.0,2.0,-24.0
UncalMag,1676594913965,122417595867687,-27.8648,-9.7844,-106.8964,-45.491467,0.31409264,-60.09035
UncalGyro,1676594913966,122417596857738,-0.06505715,0.86742866,-0.34101552,0.00041232852,-0.00061079004,-0.0032089395
UncalAccel,1676594913966,122417596857738,-4.128217,1.855634,8.067402,0.006110925,-0.043260336,-0.038735468
OrientationDeg,1676594913965,122417596857738,288.0,3.0,-24.0
UncalGyro,1676594913974,122417605843822,-0.25702155,1.2577715,0.38698313,0.00041232852,-0.00061079004,-0.0032089395
UncalAccel,1676594913975,122417605843822,-7.339385,2.1720848,8.206783,0.006110925,-0.043260336,-0.038735468
UncalMag,1676594913975,122417605874523,-26.0714,-9.2842,-106.8842,-45.491467,0.31409264,-60.09035
OrientationDeg,1676594913975,122417605843822,288.0,3.0,-24.0
UncalGyro,1676594913983,122417614823558,-0.48197266,1.5056301,1.0764973,0.00041232852,-0.00061079004,-0.0032089395
UncalAccel,1676594913983,122417614823558,-5.188836,2.187638,7.1300135,0.006110925,-0.043260336,-0.038735468
UncalMag,1676594913984,122417615855968,-25.803,-9.076799,-109.8854,-45.491467,0.31409264,-60.09035
OrientationDeg,1676594913983,122417614823558,288.0,4.0,-24.0
UncalGyro,1676594913992,122417623790844,-0.7171558,1.3849843,1.3234396,0.00041232852,-0.00061079004,-0.0032089395
UncalAccel,1676594913992,122417623790844,-1.198206,2.07697,5.832505,0.006110925,-0.043260336,-0.038735468
OrientationDeg,1676594913992,122417623790844,287.0,4.0,-24.0
UncalMag,1676594913994,122417625867443,-27.328,-9.894199,-110.6296,-45.491467,0.31409264,-60.09035
UncalGyro,1676594914001,122417632782482,-0.8060367,1.0224357,1.2586879,0.00041232852,-0.00061079004,-0.0032089395
UncalAccel,1676594914001,122417632782482,0.67776704,2.4586253,5.9096737,0.006110925,-0.043260336,-0.038735468
OrientationDeg,1676594914001,122417632782482,286.0,5.0,-23.0
UncalMag,1676594914004,122417635867443,-28.5602,-10.5408,-109.494995,-45.491467,0.31409264,-60.09035
UncalGyro,1676594914011,122417641762218,-0.7309003,0.52824575,1.1354458,0.00041232852,-0.00061079004,-0.0032089395
UncalAccel,1676594914011,122417641762218,1.0169497,2.8163524,6.399006,0.006110925,-0.043260336,-0.038735468
OrientationDeg,1676594914011,122417641762218,286.0,4.0,-23.0
UncalMag,1676594914014,122417645867687,-25.9616,-9.089,-109.812195,-45.491467,0.31409264,-60.09035
UncalGyro,1676594914019,122417650741771,-0.517861,0.018325957,1.0403035,0.00041232852,-0.00061079004,-0.0032089395
UncalAccel,1676594914020,122417650741771,0.60059845,3.251248,7.3812594,0.006110925,-0.043260336,-0.038735468
OrientationDeg,1676594914020,122417650741771,285.0,4.0,-23.0
UncalMag,1676594914025,122417655867443,-24.5952,-9.4794,-106.7866,-45.491467,0.31409264,-60.09035
UncalGyro,1676594914028,122417659721508,-0.23380867,-0.3904956,0.9660834,0.00041232852,-0.00061079004,-0.0032089395
UncalAccel,1676594914029,122417659721508,0.19142582,3.5174494,8.510074,0.006110925,-0.043260336,-0.038735468
OrientationDeg,1676594914029,122417659721508,285.0,4.0,-23.0
UncalMag,1676594914035,122417665867931,-24.8758,-9.3452,-106.8964,-45.491467,0.31409264,-60.09035
UncalGyro,1676594914038,122417668697094,0.052687127,-0.62125,0.895223,0.00041232852,-0.00061079004,-0.0032089395
UncalAccel,1676594914038,122417668697094,0.12143575,3.566502,9.300901,0.006110925,-0.043260336,-0.038735468
OrientationDeg,1676594914038,122417668697094,285.0,3.0,-23.0
UncalMag,1676594914045,122417675855968,-24.534199,-9.5892,-106.323,-45.491467,0.31409264,-60.09035
UncalGyro,1676594914046,122417677680309,0.27916542,-0.6754643,0.8144361,0.00041232852,-0.00061079004,-0.0032089395
UncalAccel,1676594914046,122417677680309,0.17587246,3.3553355,9.495916,0.006110925,-0.043260336,-0.038735468
OrientationDeg,1676594914046,122417677680309,284.0,3.0,-23.0
UncalMag,1676594914055,122417685867443,-25.388199,-10.2968,-107.1282,-45.491467,0.31409264,-60.09035
UncalGyro,1676594914056,122417686659923,0.43554693,-0.64736444,0.7273878,0.00041232852,-0.00061079004,-0.0032089395
UncalAccel,1676594914056,122417686659923,0.2853441,3.042474,9.122637,0.006110925,-0.043260336,-0.038735468
OrientationDeg,1676594914055,122417686659923,284.0,2.0,-23.0
UncalGyro,1676594914064,122417695639354,0.5204572,-0.589485,0.64919704,0.00041232852,-0.00061079004,-0.0032089395
UncalAccel,1676594914065,122417695639354,0.381057,2.9078777,8.827123,0.006110925,-0.043260336,-0.038735468
UncalMag,1676594914065,122417695855724,-27.755,-10.858,-106.9574,-45.491467,0.31409264,-60.09035
OrientationDeg,1676594914065,122417695639354,284.0,2.0,-23.0
Raw,1676594913000,416836000000,,,-1360629714164267777,0.0,7.174906503987129,296.0,1.0,21,2,0.0,16431,434930919542842,12,46.364166259765625,-546.6696172099435,0.15,16,-231217.09793608158,340282346638528860000000000000000000000,1575420030,,,,0,,1,,42.16416549682617,0.0,1.0,0.0,1.0,C,122417608461000
Raw,1676594913000,416836000000,,,-1360629714164267777,0.0,7.174906503987129,296.0,1.0,21,6,0.0,16431,434930927748397,38,29.920654296875,572.2740967551613,0.7934158898929748,16,231596.9461079415,340282346638528860000000000000000000000,1575420030,,,,0,,1,,25.72065544128418,0.320142130558394,1.0,0.320142130558394,1.0,C,122417608461000
Raw,1676594913000,416836000000,,,-1360629714164267777,0.0,7.174906503987129,296.0,1.0,21,11,0.0,16431,434930932318278,37,30.531078338623047,62.54383834175388,0.7667879056577629,16,15616.843724149134,340282346638528860000000000000000000000,1575420030,,,,0,,1,,26.331077575683594,-0.20372681261465636,1.0,-0.20372681261465636,1.0,C,122417608461000
Raw,1676594913000,416836000000,,,-1360629714164267777,0.0,7.174906503987129,296.0,1.0,21,12,0.0,16431,434930931976535,14,42.50563430786133,-152.6106917888511,0.15,16,-70257.63166056771,340282346638528860000000000000000000000,1575420030,,,,0,,1,,38.305633544921875,-0.6984919076624261,1.0,-0.6984919076624261,1.0,C,122417608461000
Raw,1676594913000,416836000000,,,-1360629714164267777,0.0,7.174906503987129,296.0,1.0,21,19,0.0,16431,434930923318262,29,33.299983978271484,600.2187118476918,0.6406544588544607,16,249050.7325815727,340282346638528860000000000000000000000,1575420030,,,,1,,1,,29.09998321533203,0.0,1.0,0.0,1.0,C,122417608461000
Raw,1676594913000,416836000000,,,-1360629714164267777,0.0,7.174906503987129,296.0,1.0,21,20,0.0,16431,434930923864696,10,48.256378173828125,-435.6171813286703,0.15,16,-185135.87948459838,340282346638528860000000000000000000000,1575420030,,,,0,,1,,44.05637741088867,0.0,1.0,0.0,1.0,C,122417608461000
Raw,1676594913000,416836000000,,,-1360629714164267777,0.0,7.174906503987129,296.0,1.0,21,24,0.0,16431,434930925073862,15,41.68117141723633,621.0377759199114,0.15,16,253276.40351836558,340282346638528860000000000000000000000,1575420030,,,,0,,1,,37.481170654296875,-0.20372681261465636,1.0,-0.20372681261465636,1.0,C,122417608461000
Raw,1676594913000,416836000000,,,-1360629714164267777,0.0,7.174906503987129,296.0,1.0,21,25,0.0,16431,434930927419040,13,42.75990295410156,-428.6646328576692,0.15,16,-182484.3539550907,340282346638528860000000000000000000000,1575420030,,,,0,,1,,38.55990219116211,-2.0372682255564105,1.0,-2.0372682255564105,1.0,C,122417608461000
Raw,1676594913000,416836000000,,,-1360629714164267777,0.0,7.174906503987129,296.0,1.0,21,29,0.0,16431,434930919315506,19,38.37851333618164,-400.3968819948459,0.15,16,-168770.6723377439,340282346638528860000000000000000000000,1575420030,,,,0,,1,,34.17851257324219,-0.6984919076624261,1.0,-0.6984919076624261,1.0,C,122417608461000
Raw,1676594913000,416836000000,,,-1360629714164267777,0.0,7.174906503987129,296.0,1.0,21,6,0.0,81921,434930927748951,9,35.48832702636719,572.0774409810247,0.5385472467317498,16,233232.47988444733,340282346638528860000000000000000000000,1176450050,,,,0,,1,,31.38832664489746,1.9208527336454408,1.4836190641801315,1.9208527336454408,1.0,Q,122417608461000
Raw,1676594913000,416836000000,,,-1360629714164267777,0.0,7.174906503987129,296.0,1.0,21,11,0.0,81921,434930932318798,8,39.47107696533203,62.363708298723765,0.15,16,15667.79990302451,340282346638528860000000000000000000000,1176450050,,,,0,,1,,35.37107849121094,0.0,1.4836190641801315,0.0,1.0,Q,122417608461000
Raw,1676594913000,416836000000,,,-1360629714164267777,0.0,7.174906503987129,296.0,1.0,21,24,0.0,81921,434930925074406,12,35.32315444946289,620.8103777699912,0.5454938105364009,16,255041.69607807748,340282346638528860000000000000000000000,1176450050,,,,0,,1,,31.223154067993164,3.5215636101095664,1.4836190641801315,3.5215636101095664,1.0,Q,122417608461000
Raw,1676594913000,416836000000,,,-1360629714164267777,0.0,7.174906503987129,296.0,1.0,21,25,0.0,81921,434930927419586,11,32.09517288208008,-428.18976199093686,0.6910743275980207,16,-183855.1515211544,340282346638528860000000000000000000000,1176450050,,,,0,,1,,27.99517250061035,1.0186341127782053,1.4836190641801315,1.0186341127782053,1.0,Q,122417608461000
Raw,1676594913000,416836000000,,,-1360629714164267777,0.0,7.174906503987129,296.0,1.0,21,14,0.0,32867,13712931108418,33,42.74337387084961,691.425683109776,0.15,16,279422.58483255224,340282346638528860000000000000000000000,1598062460,,,,0,,3,,38.543373107910156,50.29141902923584,2.0000000474974513,50.29141902923584,2.0000000474974513,C,122417608461000
Raw,1676594913000,416836000000,,,-1360629714164267777,0.0,7.174906503987129,296.0,1.0,21,18,0.0,32867,13712930075134,33,45.562740325927734,-376.93274663680404,0.15,16,-165345.3351930198,340282346638528860000000000000000000000,1600312450,,,,0,,3,,41.36273956298828,50.29141902923584,2.0000000474974513,50.29141902923584,2.0000000474974513,C,122417608461000
Raw,1676594913000,416836000000,,,-1360629714164267777,0.0,7.174906503987129,296.0,1.0,21,16,0.0,32995,13712926031739,33,41.52985382080078,-634.4471776142459,0.15,16,-267587.6848362913,340282346638528860000000000000000000000,1601437440,,,,0,,3,,37.32985305786133,50.29141902923584,2.0000000474974513,50.29141902923584,2.0000000474974513,C,122417608461000
Raw,1676594913000,416836000000,,,-1360629714164267777,0.0,7.174906503987129,296.0,1.0,21,15,0.0,32867,13712936191509,33,41.313228607177734,-35.13164873425505,0.15,16,-27538.34524884918,340282346638528860000000000000000000000,1602000000,,,,0,,3,,37.11322784423828,50.29141902923584,2.0000000474974513,50.29141902923584,2.0000000474974513,C,122417608461000
Raw,1676594913000,416836000000,,,-1360629714164267777,0.0,7.174906503987129,296.0,1.0,21,24,0.0,32995,13712927281763,33,41.99724197387695,733.945115414982,0.15,16,303479.5934950457,340282346638528860000000000000000000000,1603124990,,,,0,,3,,37.7972412109375,50.29141902923584,2.0000000474974513,50.29141902923584,2.0000000474974513,C,122417608461000
Raw,1676594913000,416836000000,,,-1360629714164267777,0.0,7.174906503987129,296.0,1.0,21,17,0.0,32995,13712936133090,40,38.15237808227539,215.81976003763134,0.15,16,80808.21131812627,340282346638528860000000000000000000000,1604249980,,,,0,,3,,33.95237731933594,50.29141902923584,2.0000000474974513,50.29141902923584,2.0000000474974513,C,122417608461000
Raw,1676594913000,416836000000,,,-1360629714164267777,0.0,7.174906503987129,296.0,1.0,21,2,0.0,85026,434930922180737,40,29.481082916259766,198.96871188362343,0.812901069929338,16,77845.728388125,340282346638528860000000000000000000000,1575420030,,,,0,,6,,25.281082153320312,-6.024492904543876,1.5000000237487257,-6.024492904543876,1.5000000237487257,C,122417608461000
Raw,1676594913000,416836000000,,,-1360629714164267777,0.0,7.174906503987129,296.0,1.0,21,11,0.0,85026,434930909141670,24,35.509368896484375,623.3172106121569,0.5416288466532546,16,258558.07424839243,340282346638528860000000000000000000000,1575420030,,,,0,,6,,31.309370040893555,-6.024492904543876,1.5000000237487257,-6.024492904543876,1.5000000237487257,C,122417608461000
Raw,1676594913000,416836000000,,,-1360629714164267777,0.0,7.174906503987129,296.0,1.0,21,15,0.0,85026,434930907754230,36,30.668800354003906,-470.6340424795101,0.7597737094784494,16,-96515.60340668584,340282346638528860000000000000000000000,1575420030,,,,0,,6,,26.468801498413086,-6.024492904543876,1.5000000237487257,-6.024492904543876,1.5000000237487257,C,122417608461000
Raw,1676594913000,416836000000,,,-1360629714164267777,0.0,7.174906503987129,296.0,1.0,21,25,0.0,85026,434930911489764,13,42.73574447631836,541.0700400155283,0.15,16,222293.46389999115,340282346638528860000000000000000000000,1575420030,,,,0,,6,,38.535743713378906,-6.024492904543876,1.5000000237487257,-6.024492904543876,1.5000000237487257,C,122417608461000
Raw,1676594913000,416836000000,,,-1360629714164267777,0.0,7.174906503987129,296.0,1.0,21,30,0.0,85026,434930917020814,14,42.07674789428711,-265.7352558205698,0.15,16,-113463.44831039447,340282346638528860000000000000000000000,1575420030,,,,0,,6,,37.876747131347656,-6.024492904543876,1.5000000237487257,-6.024492904543876,1.5000000237487257,C,122417608461000
Raw,1676594913000,416836000000,,,-1360629714164267777,0.0,7.174906503987129,296.0,1.0,21,34,0.0,85026,434930920670980,26,34.58168411254883,-198.6376178597326,0.5832611331178996,16,-88765.18428887893,340282346638528860000000000000000000000,1575420030,,,,0,,6,,30.381685256958008,-6.024492904543876,1.5000000237487257,-6.024492904543876,1.5000000237487257,C,122417608461000
Raw,1676594913000,416836000000,,,-1360629714164267777,0.0,7.174906503987129,296.0,1.0,21,36,0.0,84002,434930920613423,1000000000,28.190704345703125,332.83015014365697,299792458,16,132875.85496763242,340282346638528860000000000000000000000,1575420030,,,,1,,6,,23.990703582763672,-6.024492904543876,1.5000000237487257,-6.024492904543876,1.5000000237487257,C,122417608461000
Raw,1676594913000,416836000000,,,-1360629714164267777,0.0,7.174906503987129,296.0,1.0,21,2,0.0,84003,434930922181286,7,37.00733947753906,199.1041044421603,0.15,16,77780.2810073873,340282346638528860000000000000000000000,1176450050,,,,0,,6,,32.90734100341797,-4.362151958048344,1.983619087928857,-4.362151958048344,1.5000000237487257,Q,122417608461000
Raw,1676594913000,416836000000,,,-1360629714164267777,0.0,7.174906503987129,296.0,1.0,21,11,0.0,84003,434930909142214,38,26.94184684753418,623.6123646856445,0.9231234014876173,16,257916.30775488768,340282346638528860000000000000000000000,1176450050,,,,0,,6,,22.841846466064453,4.134257324039933,1.983619087928857,4.134257324039933,1.5000000237487257,Q,122417608461000
Raw,1676594913000,416836000000,,,-1360629714164267777,0.0,7.174906503987129,296.0,1.0,21,15,0.0,84003,434930907754718,11,35.50202941894531,-466.15421031169535,0.5379320317645939,16,-96499.62442751101,340282346638528860000000000000000000000,1176450050,,,,0,,6,,31.40203094482422,-11.565629392862316,1.983619087928857,-11.565629392862316,1.5000000237487257,Q,122417608461000
Raw,1676594913000,416836000000,,,-1360629714164267777,0.0,7.174906503987129,296.0,1.0,21,25,0.0,84003,434930911490293,8,43.60175323486328,540.9930477462433,0.15,16,223838.93517274025,340282346638528860000000000000000000000,1176450050,,,,0,,6,,39.50175476074219,-8.795061148703097,1.983619087928857,-8.795061148703097,1.5000000237487257,Q,122417608461000
Raw,1676594913000,416836000000,,,-1360629714164267777,0.0,7.174906503987129,296.0,1.0,21,30,0.0,84003,434930917021356,55,25.676313400268555,-266.51589744599653,0.9814503335771714,16,-113156.3142045397,340282346638528860000000000000000000000,1176450050,,,,0,,6,,21.576313018798828,-8.425652049481869,1.983619087928857,-8.425652049481869,1.5000000237487257,Q,122417608461000
Raw,1676594913000,416836000000,,,-1360629714164267777,0.0,7.174906503987129,296.0,1.0,21,34,0.0,84003,434930920671501,11,33.46724319458008,-198.2054693522516,0.6317575397887514,16,-89136.6402162423,340282346638528860000000000000000000000,1176450050,,,,0,,6,,29.367244720458984,-11.011515744030472,1.983619087928857,-11.011515744030472,1.5000000237487257,Q,122417608461000
Raw,1676594913000,416836000000,,,-1360629714164267777,0.0,7.174906503987129,296.0,1.0,21,36,0.0,84003,434930920613979,8,35.59568786621094,332.3894298983605,0.5360334658612989,16,133241.16035633895,340282346638528860000000000000000000000,1176450050,,,,0,,6,,31.49568748474121,-11.011515744030472,1.983619087928857,-11.011515744030472,1.5000000237487257,Q,122417608461000
UncalGyro,1676594914074,122417704619213,0.5384777,-0.47968194,0.59620446,0.00041232852,-0.00061079004,-0.0032089395
UncalAccel,1676594914074,122417704619213,0.5940182,2.7003005,8.760123,0.006110925,-0.043260336,-0.038735468
UncalMag,1676594914075,122417705867443,-27.8892,-11.6998,-108.7508,-45.491467,0.31409264,-60.09035
OrientationDeg,1676594914074,122417704619213,283.0,1.0,-24.0
Status,0,33,0,3,15,1602000000,42.70,308.0,79.0,1,1,1,38.495384
Status,0,33,1,1,11,1176450050,39.50,113.0,77.0,1,1,1,35.40176
Status,0,33,2,1,11,1575420030,39.30,113.0,77.0,1,1,1,35.0968
Status,0,33,3,6,2,1575420030,37.80,113.0,75.0,1,1,1,33.595535
Status,0,33,4,6,2,1176450050,37.01,113.0,75.0,1,1,1,32.90734
Status,0,33,5,3,17,1604249980,39.95,329.0,72.0,1,1,1,35.74767
Status,0,33,6,1,12,1575420030,43.53,329.0,67.0,1,1,1,39.334003
Status,0,33,7,6,34,1575420030,41.55,208.0,61.0,1,1,1,37.34614
Status,0,33,8,6,34,1176450050,37.10,208.0,61.0,1,1,1,32.998642
Status,0,33,9,6,36,1575420030,36.43,49.0,61.0,0,1,1,32.233955
Status,0,33,10,6,36,1176450050,37.31,49.0,61.0,1,1,1,33.214954
Status,0,33,11,6,30,1176450050,34.27,316.0,48.0,1,1,1,30.165295
Status,0,33,12,6,30,1575420030,42.63,316.0,48.0,1,1,1,38.432217
Status,0,33,13,3,14,1598062460,43.70,154.0,43.0,1,1,1,39.495094
Status,0,33,14,1,6,1176450050,37.43,46.0,42.0,1,1,1,33.328045
Status,0,33,15,1,6,1575420030,36.98,46.0,42.0,1,1,1,32.78314
Status,0,33,16,3,18,1600312450,45.93,242.0,38.0,1,1,1,41.733196
Status,0,33,17,1,25,1575420030,43.57,313.0,37.0,1,1,1,39.371124
Status,0,33,18,1,25,1176450050,36.61,313.0,37.0,1,1,1,32.506504
Status,0,33,19,1,24,1575420030,41.85,217.0,36.0,1,1,1,37.647663
Status,0,33,20,1,24,1176450050,37.42,217.0,36.0,1,1,1,33.320038
Status,0,33,21,3,24,1603124990,42.00,35.0,28.0,1,1,1,37.79724
Status,0,33,22,1,20,1575420030,48.26,140.0,28.0,1,1,1,44.056377
Status,0,33,23,6,25,1575420030,43.01,128.0,24.0,1,1,1,38.811756
Status,0,33,24,3,16,1601437440,41.53,328.0,24.0,1,1,1,37.329853
Status,0,33,25,6,25,1176450050,44.61,128.0,24.0,1,1,1,40.51056
Status,0,33,26,1,19,1575420030,41.45,62.0,23.0,1,1,1,37.24907
Status,0,33,27,1,29,1575420030,40.14,266.0,16.0,1,1,1,35.943596
Status,0,33,28,1,2,1575420030,46.72,218.0,13.0,1,1,1,42.52297
Status,0,33,29,6,11,1176450050,26.94,41.0,12.0,1,1,1,22.841846
Status,0,33,30,6,11,1575420030,35.89,41.0,12.0,1,1,1,31.690536
Status,0,33,31,6,15,1575420030,33.48,217.0,11.0,1,1,1,29.279894
Status,0,33,32,6,15,1176450050,35.90,217.0,11.0,1,1,1,31.804976
Fix,GPS,37.4311318211,-122.1551459718,-14.387375479387863,0.2342767,2.9777942,189.86588,1676594913000,0.093253694,42.02598,122417608461000,3.0
Fix,FLP,37.4311360000,-122.1551987000,-15.0,0.46202096,5.888,234.102,1676594913580,,,122417210742137,2.824105
UncalGyro,1676594914083,122417713587230,0.52610767,-0.3559817,0.6017023,0.00041232852,-0.00061079004,-0.0032089395
UncalAccel,1676594914083,122417713587230,0.92602235,2.391028,8.679366,0.006110925,-0.043260336,-0.038735468
OrientationDeg,1676594914083,122417713587230,283.0,1.0,-24.0
UncalMag,1676594914084,122417715867687,-31.0978,-12.3952,-110.044,-45.491467,0.31409264,-60.09035
UncalGyro,1676594914091,122417722578502,0.49480084,-0.22128594,0.64568454,0.00041232852,-0.00061079004,-0.0032089395
UncalAccel,1676594914091,122417722578502,1.3106686,2.3509483,8.847462,0.006110925,-0.043260336,-0.038735468
OrientationDeg,1676594914091,122417722578502,283.0,1.0,-24.0
UncalMag,1676594914094,122417725867687,-29.5362,-12.1268,-109.824394,-45.491467,0.31409264,-60.09035
UncalGyro,1676594914100,122417731557506,0.45463645,0.07391469,0.7093673,0.00041232852,-0.00061079004,-0.0032089395
UncalAccel,1676594914100,122417731557506,1.3489537,2.120639,10.457233,0.006110925,-0.043260336,-0.038735468
OrientationDeg,1676594914101,122417731557506,283.0,1.0,-24.0
UncalMag,1676594914104,122417735851818,-27.816,-12.0414,-108.0066,-45.491467,0.31409264,-60.09035
UncalGyro,1676594914110,122417740532787,0.41981715,0.5856671,0.8349001,0.00041232852,-0.00061079004,-0.0032089395
UncalAccel,1676594914110,122417740532787,1.3854443,1.9579271,11.447862,0.006110925,-0.043260336,-0.038735468
OrientationDeg,1676594914109,122417740532787,282.0,1.0,-25.0
UncalMag,1676594914115,122417745867443,-28.7188,-12.9808,-108.1286,-45.491467,0.31409264,-60.09035
UncalGyro,1676594914119,122417749517345,0.3746131,0.9390526,0.95646226,0.00041232852,-0.00061079004,-0.0032089395
UncalAccel,1676594914118,122417749517345,1.8478572,2.103291,9.759128,0.006110925,-0.043260336,-0.038735468
OrientationDeg,1676594914119,122417749517345,282.0,1.0,-25.0
UncalMag,1676594914125,122417755867443,-24.217,-11.565599,-105.151794,-45.491467,0.31409264,-60.09035
UncalGyro,1676594914127,122417758496898,0.32711834,1.1640037,1.0337367,0.00041232852,-0.00061079004,-0.0032089395
UncalAccel,1676594914128,122417758496898,2.207977,2.1487548,9.369696,0.006110925,-0.043260336,-0.038735468
OrientationDeg,1676594914128,122417758496898,281.0,1.0,-25.0
UncalMag,1676594914135,122417765871593,-26.522799,-13.0174,-105.5056,-45.491467,0.31409264,-60.09035
UncalGyro,1676594914136,122417767473155,0.26221392,1.3946054,1.045954,0.00041232852,-0.00061079004,-0.0032089395
UncalAccel,1676594914136,122417767473155,2.3467607,2.6656044,9.025128,0.006110925,-0.043260336,-0.038735468
OrientationDeg,1676594914136,122417767473155,281.0,2.0,-25.0
UncalMag,1676594914145,122417775856212,-24.3878,-12.4562,-103.7,-45.491467,0.31409264,-60.09035
UncalGyro,1676594914145,122417776456127,0.16279559,1.5279267,1.0050261,0.00041232852,-0.00061079004,-0.0032089395
UncalAccel,1676594914146,122417776456127,2.3838496,3.269194,8.209176,0.006110925,-0.043260336,-0.038735468
OrientationDeg,1676594914146,122417776456127,280.0,2.0,-25.0
UncalGyro,1676594914155,122417785438854,0.065973446,1.5117388,0.9253081,0.00041232852,-0.00061079004,-0.0032089395
UncalAccel,1676594914155,122417785438854,2.3659034,3.609573,7.55773,0.006110925,-0.043260336,-0.038735468
UncalMag,1676594914155,122417785855724,-28.3162,-14.5546,-106.4816,-45.491467,0.31409264,-60.09035
OrientationDeg,1676594914155,122417785438854,280.0,3.0,-25.0
UncalGyro,1676594914164,122417794414501,-0.009773844,1.3797919,0.82543164,0.00041232852,-0.00061079004,-0.0032089395
UncalAccel,1676594914164,122417794414501,2.2636101,3.8069808,7.3106713,0.006110925,-0.043260336,-0.038735468
OrientationDeg,1676594914163,122417794414501,279.0,3.0,-25.0
UncalMag,1676594914165,122417795867443,-25.6078,-13.3834,-105.8472,-45.491467,0.31409264,-60.09035
UncalGyro,1676594914173,122417803394542,-0.059253927,1.1971432,0.72051555,0.00041232852,-0.00061079004,-0.0032089395
UncalAccel,1676594914172,122417803394542,2.1595225,3.8793638,7.3292155,0.006110925,-0.043260336,-0.038735468
OrientationDeg,1676594914172,122417803394542,279.0,4.0,-25.0
UncalMag,1676594914174,122417805867687,-27.767199,-15.1402,-105.895996,-45.491467,0.31409264,-60.09035
UncalGyro,1676594914182,122417812362438,-0.08659015,1.0050261,0.61483586,0.00041232852,-0.00061079004,-0.0032089395
UncalAccel,1676594914181,122417812362438,1.9244276,3.9338005,7.681559,0.006110925,-0.043260336,-0.038735468
OrientationDeg,1676594914181,122417812362438,279.0,4.0,-25.0
UncalMag,1676594914184,122417815867443,-26.0348,-14.1764,-105.347,-45.491467,0.31409264,-60.09035
UncalGyro,1676594914191,122417821353893,-0.10644327,0.8338311,0.513585,0.00041232852,-0.00061079004,-0.0032089395
UncalAccel,1676594914191,122417821353893,1.6576279,3.9978085,7.789834,0.006110925,-0.043260336,-0.038735468
OrientationDeg,1676594914191,122417821353893,278.0,4.0,-25.0
UncalMag,1676594914194,122417825872081,-23.875399,-14.03,-105.4934,-45.491467,0.31409264,-60.09035
UncalGyro,1676594914199,122417830333263,-0.12339478,0.63194007,0.42821655,0.00041232852,-0.00061079004,-0.0032089395
UncalAccel,1676594914200,122417830333263,1.3334004,3.946961,7.7072816,0.006110925,-0.043260336,-0.038735468
OrientationDeg,1676594914200,122417830333263,278.0,5.0,-25.0
UncalMag,1676594914205,122417835867443,-23.2044,-14.1276,-103.9928,-45.491467,0.31409264,-60.09035
UncalGyro,1676594914208,122417839312694,-0.13591751,0.3811799,0.38255435,0.00041232852,-0.00061079004,-0.0032089395
UncalAccel,1676594914209,122417839312694,1.1754742,3.7411783,7.481758,0.006110925,-0.043260336,-0.038735468
OrientationDeg,1676594914208,122417839312694,278.0,5.0,-25.0
UncalMag,1676594914215,122417845867443,-25.5346,-14.9816,-104.2856,-45.491467,0.31409264,-60.09035
UncalGyro,1676594914218,122417848292308,-0.16264287,0.052839845,0.37598756,0.00041232852,-0.00061079004,-0.0032089395
UncalAccel,1676594914218,122417848292308,1.0899308,3.612564,7.2562346,0.006110925,-0.043260336,-0.038735468
OrientationDeg,1676594914218,122417848292308,278.0,5.0,-25.0
UncalMag,1676594914225,122417855867687,-24.217,-14.6765995,-104.127,-45.491467,0.31409264,-60.09035
UncalGyro,1676594914227,122417857271129,-0.20173825,-0.3323107,0.38026363,0.00041232852,-0.00061079004,-0.0032089395
UncalAccel,1676594914227,122417857271129,1.204188,3.635894,7.3142605,0.006110925,-0.043260336,-0.038735468
OrientationDeg,1676594914227,122417857271129,278.0,4.0,-25.0
UncalMag,1676594914235,122417865867687,-26.0348,-15.25,-104.249,-45.491467,0.31409264,-60.09035
UncalGyro,1676594914235,122417866251781,-0.23945917,-0.6739371,0.3642284,0.00041232852,-0.00061079004,-0.0032089395
UncalAccel,1676594914235,122417866251781,1.6163517,3.7674992,8.021938,0.006110925,-0.043260336,-0.038735468
OrientationDeg,1676594914236,122417866251781,278.0,4.0,-25.0
UncalGyro,1676594914245,122417875231456,-0.25305092,-0.90041536,0.3182608,0.00041232852,-0.00061079004,-0.0032089395
UncalAccel,1676594914244,122417875231456,1.9561325,3.9242291,9.015557,0.006110925,-0.043260336,-0.038735468
UncalMag,1676594914244,122417875856212,-24.4,-14.249599,-104.493,-45.491467,0.31409264,-60.09035
OrientationDeg,1676594914245,122417875231456,277.0,3.0,-25.0
UncalGyro,1676594914254,122417884211193,-0.23991732,-1.0264063,0.27488935,0.00041232852,-0.00061079004,-0.0032089395
UncalAccel,1676594914254,122417884211193,2.1451654,3.583252,9.725029,0.006110925,-0.043260336,-0.038735468
OrientationDeg,1676594914253,122417884211193,277.0,3.0,-25.0
UncalMag,1676594914255,122417885867443,-27.5964,-15.25,-106.5792,-45.491467,0.31409264,-60.09035
UncalGyro,1676594914262,122417893190502,-0.22403483,-1.0358747,0.23090707,0.00041232852,-0.00061079004,-0.0032089395
UncalAccel,1676594914262,122417893190502,2.5968108,3.8009987,10.37169,0.006110925,-0.043260336,-0.038735468
OrientationDeg,1676594914262,122417893190502,277.0,2.0,-24.0
UncalMag,1676594914265,122417895867443,-25.9006,-14.310599,-104.9566,-45.491467,0.31409264,-60.09035
UncalGyro,1676594914271,122417902164684,-0.2182316,-0.9103419,0.1684461,0.00041232852,-0.00061079004,-0.0032089395
UncalAccel,1676594914272,122417902164684,2.7032914,4.1844487,10.650454,0.006110925,-0.043260336,-0.038735468
OrientationDeg,1676594914272,122417902164684,277.0,2.0,-24.0
UncalMag,1676594914274,122417905867443,-24.338999,-13.42,-104.005,-45.491467,0.31409264,-60.09035
UncalGyro,1676594914280,122417911149730,-0.23655757,-0.7504479,0.099571034,0.00041232852,-0.00061079004,-0.0032089395
UncalAccel,1676594914280,122417911149730,2.175674,4.0959144,10.165907,0.006110925,-0.043260336,-0.038735468
OrientationDeg,1676594914281,122417911149730,277.0,1.0,-24.0
UncalMag,1676594914285,122417915855724,-20.8254,-11.834,-99.368996,-45.491467,0.31409264,-60.09035
UncalGyro,1676594914290,122417920126964,-0.30848694,-0.6197228,0.05757405,0.00041232852,-0.00061079004,-0.0032089395
UncalAccel,1676594914290,122417920126964,1.6390835,3.8644085,9.366704,0.006110925,-0.043260336,-0.038735468
OrientationDeg,1676594914290,122417920126964,277.0,1.0,-24.0
UncalMag,1676594914295,122417925867199,-24.2292,-13.724999,-100.8818,-45.491467,0.31409264,-60.09035
UncalGyro,1676594914298,122417929109447,-0.44638976,-0.52366424,0.042455133,0.00041232852,-0.00061079004,-0.0032089395
UncalAccel,1676594914298,122417929109447,1.2693924,3.6885362,8.734999,0.006110925,-0.043260336,-0.038735468
OrientationDeg,1676594914299,122417929109447,277.0,0.0,-24.0
UncalMag,1676594914305,122417935867443,-22.4846,-11.8706,-101.9432,-45.491467,0.31409264,-60.09035
UncalGyro,1676594914307,122417938091136,-0.6056729,-0.515723,0.049938235,0.00041232852,-0.00061079004,-0.0032089395
UncalAccel,1676594914307,122417938091136,1.0235299,3.5365918,8.089535,0.006110925,-0.043260336,-0.038735468
OrientationDeg,1676594914307,122417938091136,277.0,0.0,-23.0
UncalMag,1676594914315,122417945867443,-24.924599,-12.9442,-102.8582,-45.491467,0.31409264,-60.09035
UncalGyro,1676594914317,122417947064525,-0.75701475,-0.59238654,0.072540246,0.00041232852,-0.00061079004,-0.0032089395
UncalAccel,1676594914316,122417947064525,0.9272188,3.249453,7.7682986,0.006110925,-0.043260336,-0.038735468
OrientationDeg,1676594914317,122417947064525,277.0,0.0,-23.0
UncalMag,1676594914324,122417955867443,-27.571999,-13.481,-103.6146,-45.491467,0.31409264,-60.09035
UncalGyro,1676594914325,122417956044994,-0.8727737,-0.6927212,0.10247265,0.00041232852,-0.00061079004,-0.0032089395
UncalAccel,1676594914325,122417956044994,0.9451649,3.181856,7.8873415,0.006110925,-0.043260336,-0.038735468
OrientationDeg,1676594914326,122417956044994,277.0,0.0,-23.0
UncalGyro,1676594914334,122417965027172,-0.946383,-0.7330383,0.13408493,0.00041232852,-0.00061079004,-0.0032089395
UncalAccel,1676594914335,122417965027172,0.8961121,3.2877383,8.3784685,0.006110925,-0.043260336,-0.038735468
UncalMag,1676594914335,122417965855968,-24.583,-11.3216,-102.6996,-45.491467,0.31409264,-60.09035
OrientationDeg,1676594914335,122417965027172,277.0,0.0,-22.0
UncalGyro,1676594914343,122417974009776,-0.977079,-0.7307475,0.15454891,0.00041232852,-0.00061079004,-0.0032089395
UncalAccel,1676594914343,122417974009776,0.8386843,3.4229329,8.645866,0.006110925,-0.043260336,-0.038735468
OrientationDeg,1676594914343,122417974009776,277.0,0.0,-22.0
UncalMag,1676594914344,122417975864513,-25.229599,-11.565599,-104.432,-45.491467,0.31409264,-60.09035
UncalGyro,1676594914351,122417982986339,-0.99189246,-0.6580546,0.14905111,0.00041232852,-0.00061079004,-0.0032089395
UncalAccel,1676594914351,122417982986339,0.51565325,3.7651064,8.946764,0.006110925,-0.043260336,-0.038735468
OrientationDeg,1676594914351,122417982986339,277.0,-1.0,-21.0
UncalMag,1676594914355,122417985867199,-20.996199,-9.2109995,-102.2726,-45.491467,0.31409264,-60.09035
UncalGyro,1676594914361,122417991966137,-0.99021256,-0.57436603,0.13057245,0.00041232852,-0.00061079004,-0.0032089395
UncalAccel,1676594914361,122417991966137,0.19680966,3.8967116,9.017352,0.006110925,-0.043260336,-0.038735468
OrientationDeg,1676594914361,122417991966137,277.0,-1.0,-21.0
UncalMag,1676594914365,122417995867687,-23.6924,-9.7722,-101.9554,-45.491467,0.31409264,-60.09035
UncalGyro,1676594914370,122418000945873,-0.99005985,-0.4990769,0.10262536,0.00041232852,-0.00061079004,-0.0032089395
UncalAccel,1676594914370,122418000945873,0.05802595,3.7010984,8.853444,0.006110925,-0.043260336,-0.038735468
OrientationDeg,1676594914370,122418000945873,276.0,-1.0,-20.0
UncalMag,1676594914375,122418005855968,-24.924599,-10.4676,-102.4312,-45.491467,0.31409264,-60.09035
UncalGyro,1676594914378,122418009925121,-0.9998337,-0.41141775,0.077579886,0.00041232852,-0.00061079004,-0.0032089395
UncalAccel,1676594914378,122418009925121,-0.10049855,3.4857445,8.708678,0.006110925,-0.043260336,-0.038735468
OrientationDeg,1676594914378,122418009925121,276.0,-2.0,-20.0
UncalMag,1676594914385,122418015872081,-26.046999,-9.7844,-106.0058,-45.491467,0.31409264,-60.09035
UncalGyro,1676594914388,122418018905101,-1.0031935,-0.4016439,0.07666359,0.00041232852,-0.00061079004,-0.0032089395
UncalAccel,1676594914388,122418018905101,-0.12861422,3.2410784,8.316256,0.006110925,-0.043260336,-0.038735468
OrientationDeg,1676594914388,122418018905101,276.0,-2.0,-19.0
UncalMag,1676594914394,122418025867443,-25.851799,-9.8454,-104.859,-45.491467,0.31409264,-60.09035
UncalGyro,1676594914396,122418027884349,-1.0111347,-0.43295074,0.09773844,0.00041232852,-0.00061079004,-0.0032089395
UncalAccel,1676594914396,122418027884349,-0.049052864,3.0873394,8.349754,0.006110925,-0.043260336,-0.038735468
OrientationDeg,1676594914396,122418027884349,276.0,-2.0,-19.0
UncalMag,1676594914405,122418035867687,-26.3032,-9.6502,-105.456795,-45.491467,0.31409264,-60.09035
UncalGyro,1676594914406,122418036857738,-1.0245737,-0.4830417,0.12568553,0.00041232852,-0.00061079004,-0.0032089395
UncalAccel,1676594914405,122418036857738,0.04127619,3.1686954,8.550752,0.006110925,-0.043260336,-0.038735468
OrientationDeg,1676594914405,122418036857738,276.0,-2.0,-18.0
UncalGyro,1676594914414,122418045841381,-1.0401508,-0.5539021,0.16218472,0.00041232852,-0.00061079004,-0.0032089395
UncalAccel,1676594914414,122418045841381,0.09092726,2.9958138,8.749954,0.006110925,-0.043260336,-0.038735468
UncalMag,1676594914414,122418045873302,-25.6444,-8.7596,-104.9444,-45.491467,0.31409264,-60.09035
OrientationDeg,1676594914415,122418045841381,276.0,-3.0,-18.0
UncalGyro,1676594914424,122418054822765,-1.0673343,-0.6047566,0.19257528,0.00041232852,-0.00061079004,-0.0032089395
UncalAccel,1676594914424,122418054822765,0.29491538,3.1142588,9.213564,0.006110925,-0.043260336,-0.038735468
UncalMag,1676594914424,122418055855724,-24.9856,-8.3082,-104.663795,-45.491467,0.31409264,-60.09035
OrientationDeg,1676594914423,122418054822765,276.0,-3.0,-17.0
UncalGyro,1676594914433,122418063802745,-1.0813842,-0.65026605,0.18325958,0.00041232852,-0.00061079004,-0.0032089395
UncalAccel,1676594914433,122418063802745,0.5557331,3.0604203,9.34816,0.006110925,-0.043260336,-0.038735468
OrientationDeg,1676594914433,122418063802745,276.0,-3.0,-16.0
UncalMag,1676594914434,122418065856212,-23.973,-7.1492,-103.7976,-45.491467,0.31409264,-60.09035
UncalGyro,1676594914441,122418072782482,-1.0829114,-0.6084218,0.13439035,0.00041232852,-0.00061079004,-0.0032089395
UncalAccel,1676594914441,122418072782482,0.6053841,3.1130621,9.967901,0.006110925,-0.043260336,-0.038735468
UncalMag,1676594914444,122418075855968,-24.1194,-6.9052,-103.565796,-45.491467,0.31409264,-60.09035
OrientationDeg,1676594914442,122418072782482,276.0,-4.0,-16.0
UncalGyro,1676594914450,122418081761791,-1.0471758,-0.5887214,0.093004234,0.00041232852,-0.00061079004,-0.0032089395
UncalAccel,1676594914450,122418081761791,0.4001996,2.9126635,9.713663,0.006110925,-0.043260336,-0.038735468
OrientationDeg,1676594914450,122418081761791,276.0,-4.0,-15.0
UncalMag,1676594914455,122418085849376,-25.619999,-6.9417996,-106.1034,-45.491467,0.31409264,-60.09035
UncalGyro,1676594914460,122418090741588,-0.9682214,-0.59712076,0.08506299,0.00041232852,-0.00061079004,-0.0032089395
UncalAccel,1676594914460,122418090741588,0.317049,2.5585256,9.616156,0.006110925,-0.043260336,-0.038735468
OrientationDeg,1676594914460,122418090741588,276.0,-4.0,-15.0
UncalMag,1676594914465,122418095867443,-27.1328,-7.7591996,-106.628,-45.491467,0.31409264,-60.09035
UncalGyro,1676594914468,122418099721019,-0.8775079,-0.6250679,0.11224649,0.00041232852,-0.00061079004,-0.0032089395
UncalAccel,1676594914468,122418099721019,0.2542374,2.3425734,9.467203,0.006110925,-0.043260336,-0.038735468
OrientationDeg,1676594914468,122418099721019,276.0,-4.0,-14.0
UncalMag,1676594914474,122418105867687,-26.3398,-6.2098,-104.493,-45.491467,0.31409264,-60.09035
UncalGyro,1676594914477,122418108697948,-0.7672467,-0.676686,0.15577064,0.00041232852,-0.00061079004,-0.0032089395
UncalAccel,1676594914477,122418108697948,0.24526432,2.3718855,9.44806,0.006110925,-0.043260336,-0.038735468
OrientationDeg,1676594914477,122418108697948,276.0,-5.0,-14.0
UncalMag,1676594914485,122418115867443,-27.6574,-6.2585998,-104.7126,-45.491467,0.31409264,-60.09035
UncalGyro,1676594914486,122418117680004,-0.64843345,-0.7156286,0.20952678,0.00041232852,-0.00061079004,-0.0032089395
UncalAccel,1676594914486,122418117680004,0.2638087,2.405385,9.586246,0.006110925,-0.043260336,-0.038735468
OrientationDeg,1676594914487,122418117680004,276.0,-5.0,-14.0
UncalMag,1676594914495,122418125867443,-27.876999,-6.527,-105.7862,-45.491467,0.31409264,-60.09035
UncalGyro,1676594914496,122418126662242,-0.529162,-0.73792523,0.258396,0.00041232852,-0.00061079004,-0.0032089395
UncalAccel,1676594914496,122418126662242,0.59760743,2.3216362,9.439685,0.006110925,-0.043260336,-0.038735468
OrientationDeg,1676594914495,122418126662242,276.0,-6.0,-13.0
UncalGyro,1676594914505,122418135631908,-0.41890085,-0.7883216,0.2950479,0.00041232852,-0.00061079004,-0.0032089395
UncalAccel,1676594914505,122418135631908,0.73579293,2.1385853,9.139386,0.006110925,-0.043260336,-0.038735468
UncalMag,1676594914505,122418135855724,-28.108799,-5.7462,-106.237595,-45.491467,0.31409264,-60.09035
OrientationDeg,1676594914504,122418135631908,276.0,-6.0,-13.0
UncalGyro,1676594914514,122418144606334,-0.33307427,-0.84223044,0.3284928,0.00041232852,-0.00061079004,-0.0032089395
UncalAccel,1676594914513,122418144606334,0.6149554,2.5034907,9.12144,0.006110925,-0.043260336,-0.038735468
UncalMag,1676594914514,122418145867443,-27.5232,-5.8315997,-105.103,-45.491467,0.31409264,-60.09035
OrientationDeg,1676594914513,122418144606334,276.0,-7.0,-13.0
UncalGyro,1676594914523,122418153595287,-0.27275133,-0.8698721,0.34269542,0.00041232852,-0.00061079004,-0.0032089395
UncalAccel,1676594914522,122418153595287,0.68195444,2.6231318,9.155538,0.006110925,-0.043260336,-0.038735468
OrientationDeg,1676594914522,122418153595287,275.0,-7.0,-13.0
UncalMag,1676594914525,122418155867687,-27.8648,-5.0996,-105.8838,-45.491467,0.31409264,-60.09035
UncalGyro,1676594914532,122418162578075,-0.23625213,-0.882853,0.34223726,0.00041232852,-0.00061079004,-0.0032089395
UncalAccel,1676594914532,122418162578075,0.77706915,2.5022943,9.022138,0.006110925,-0.043260336,-0.038735468
OrientationDeg,1676594914531,122418162578075,275.0,-7.0,-13.0
UncalMag,1676594914534,122418165867687,-29.4264,-6.0512,-106.066795,-45.491467,0.31409264,-60.09035
UncalGyro,1676594914541,122418171560802,-0.22464569,-0.90469146,0.33200526,0.00041232852,-0.00061079004,-0.0032089395
UncalAccel,1676594914541,122418171560802,0.8003992,2.3054845,8.859426,0.006110925,-0.043260336,-0.038735468
OrientationDeg,1676594914541,122418171560802,275.0,-8.0,-12.0
UncalMag,1676594914545,122418175869396,-28.9994,-6.5636,-105.2006,-45.491467,0.31409264,-60.09035
UncalGyro,1676594914549,122418180526195,-0.22006421,-0.9656252,0.33567044,0.00041232852,-0.00061079004,-0.0032089395
UncalAccel,1676594914550,122418180526195,0.80937225,2.1379871,8.777472,0.006110925,-0.043260336,-0.038735468
OrientationDeg,1676594914550,122418180526195,275.0,-9.0,-12.0
UncalMag,1676594914555,122418185870373,-31.4516,-6.7465997,-108.0432,-45.491467,0.31409264,-60.09035
UncalGyro,1676594914559,122418189516674,-0.19883664,-1.0465649,0.36102137,0.00041232852,-0.00061079004,-0.0032089395
UncalAccel,1676594914559,122418189516674,0.84047896,1.9363917,8.938389,0.006110925,-0.043260336,-0.038735468
OrientationDeg,1676594914558,122418189516674,275.0,-9.0,-12.0
UncalMag,1676594914565,122418195867443,-29.597198,-5.9902,-106.8842,-45.491467,0.31409264,-60.09035
UncalGyro,1676594914568,122418198496166,-0.15332718,-1.1285735,0.39080104,0.00041232852,-0.00061079004,-0.0032089395
UncalAccel,1676594914568,122418198496166,0.89013004,1.7970098,9.276375,0.006110925,-0.043260336,-0.038735468
OrientationDeg,1676594914568,122418198496166,275.0,-10.0,-12.0
UncalMag,1676594914575,122418205867443,-30.195,-5.2338,-108.275,-45.491467,0.31409264,-60.09035
UncalGyro,1676594914577,122418207476085,-0.09193522,-1.1760683,0.4156938,0.00041232852,-0.00061079004,-0.0032089395
UncalAccel,1676594914577,122418207476085,0.86201435,1.6683956,9.942777,0.006110925,-0.043260336,-0.038735468
OrientationDeg,1676594914577,122418207476085,274.0,-10.0,-12.0
UncalMag,1676594914585,122418215867443,-32.6716,-6.4416,-108.8484,-45.491467,0.31409264,-60.09035
UncalGyro,1676594914585,122418216453563,-0.017562376,-1.1528554,0.45860708,0.00041232852,-0.00061079004,-0.0032089395
UncalAccel,1676594914585,122418216453563,0.8757731,1.3854443,10.54158,0.006110925,-0.043260336,-0.038735468
OrientationDeg,1676594914585,122418216453563,274.0,-11.0,-12.0
UncalGyro,1676594914595,122418225435131,0.0627664,-1.0633637,0.52122074,0.00041232852,-0.00061079004,-0.0032089395
UncalAccel,1676594914594,122418225435131,1.105484,1.1826526,11.027922,0.006110925,-0.043260336,-0.038735468
UncalMag,1676594914594,122418225856212,-30.2072,-5.124,-107.4454,-45.491467,0.31409264,-60.09035
OrientationDeg,1676594914594,122418225435131,274.0,-12.0,-12.0
UncalGyro,1676594914604,122418234417125,0.15424347,-0.9288206,0.5699373,0.00041232852,-0.00061079004,-0.0032089395
UncalAccel,1676594914604,122418234417125,1.3746766,1.1192428,11.443674,0.006110925,-0.043260336,-0.038735468
UncalMag,1676594914604,122418235867687,-32.2812,-6.283,-108.567795,-45.491467,0.31409264,-60.09035
OrientationDeg,1676594914603,122418234417125,274.0,-12.0,-12.0
UncalGyro,1676594914613,122418243394359,0.259465,-0.7643451,0.5842926,0.00041232852,-0.00061079004,-0.0032089395
UncalAccel,1676594914613,122418243394359,1.4883357,1.180858,11.625529,0.006110925,-0.043260336,-0.038735468
OrientationDeg,1676594914613,122418243394359,273.0,-13.0,-12.0
UncalMag,1676594914615,122418245867687,-31.073399,-6.344,-108.1408,-45.491467,0.31409264,-60.09035
UncalGyro,1676594914622,122418252369456,0.36896262,-0.6078109,0.5644395,0.00041232852,-0.00061079004,-0.0032089395
UncalAccel,1676594914622,122418252369456,1.6630118,1.3764713,11.360524,0.006110925,-0.043260336,-0.038735468
OrientationDeg,1676594914621,122418252369456,273.0,-13.0,-12.0
UncalMag,1676594914625,122418255867687,-32.757,-7.0516,-107.762596,-45.491467,0.31409264,-60.09035
UncalGyro,1676594914631,122418261353527,0.4654793,-0.50503284,0.5271767,0.00041232852,-0.00061079004,-0.0032089395
UncalAccel,1676594914630,122418261353527,1.7910278,1.6103697,10.842478,0.006110925,-0.043260336,-0.038735468
OrientationDeg,1676594914630,122418261353527,273.0,-13.0,-12.0
UncalMag,1676594914634,122418265868664,-31.9884,-6.954,-103.590195,-45.491467,0.31409264,-60.09035
UncalGyro,1676594914640,122418270332408,0.50747633,-0.463494,0.4700608,0.00041232852,-0.00061079004,-0.0032089395
UncalAccel,1676594914640,122418270332408,1.9621146,1.7288144,10.234102,0.006110925,-0.043260336,-0.038735468
OrientationDeg,1676594914640,122418270332408,272.0,-14.0,-12.0
UncalMag,1676594914644,122418275865734,-33.8672,-7.2468,-103.565796,-45.491467,0.31409264,-60.09035
UncalGyro,1676594914648,122418279312328,0.46670106,-0.44730607,0.4014912,0.00041232852,-0.00061079004,-0.0032089395
UncalAccel,1676594914649,122418279312328,2.030908,1.7856439,9.876974,0.006110925,-0.043260336,-0.038735468
OrientationDeg,1676594914649,122418279312328,272.0,-14.0,-13.0
UncalMag,1676594914655,122418285855724,-33.9892,-7.6006,-103.517,-45.491467,0.31409264,-60.09035
UncalGyro,1676594914657,122418288292247,0.35445455,-0.41890085,0.34055737,0.00041232852,-0.00061079004,-0.0032089395
UncalAccel,1676594914657,122418288292247,1.8167506,1.8394824,9.862019,0.006110925,-0.043260336,-0.038735468
OrientationDeg,1676594914658,122418288292247,272.0,-14.0,-13.0
