# 
# Header Description:
# 
# Version: v3.0.5.6 Platform: 13 Manufacturer: Google Model: Pixel 6
# 
# Raw,utcTimeMillis,TimeNanos,LeapSecond,TimeUncertaintyNanos,FullBiasNanos,BiasNanos,BiasUncertaintyNanos,DriftNanosPerSecond,DriftUncertaintyNanosPerSecond,HardwareClockDiscontinuityCount,Svid,TimeOffsetNanos,State,ReceivedSvTimeNanos,ReceivedSvTimeUncertaintyNanos,Cn0DbHz,PseudorangeRateMetersPerSecond,PseudorangeRateUncertaintyMetersPerSecond,AccumulatedDeltaRangeState,AccumulatedDeltaRangeMeters,AccumulatedDeltaRangeUncertaintyMeters,CarrierFrequencyHz,CarrierCycles,CarrierPhase,CarrierPhaseUncertainty,MultipathIndicator,SnrInDb,ConstellationType,AgcDb,BasebandCn0DbHz,FullInterSignalBiasNanos,FullInterSignalBiasUncertaintyNanos,SatelliteInterSignalBiasNanos,SatelliteInterSignalBiasUncertaintyNanos,CodeType,ChipsetElapsedRealtimeNanos
# 
# UncalAccel,utcTimeMillis,elapsedRealtimeNanos,UncalAccelXMps2,UncalAccelYMps2,UncalAccelZMps2,BiasXMps2,BiasYMps2,BiasZMps2
# 
# Accel,utcTimeMillis,elapsedRealtimeNanos,AccelXMps2,AccelYMps2,AccelZMps2
# 
# UncalGyro,utcTimeMillis,elapsedRealtimeNanos,UncalGyroXRadPerSec,UncalGyroYRadPerSec,UncalGyroZRadPerSec,DriftXRadPerSec,DriftYRadPerSec,DriftZRadPerSec
# 
# Gyro,utcTimeMillis,elapsedRealtimeNanos,GyroXRadPerSec,GyroYRadPerSec,GyroZRadPerSec
# 
# UncalMag,utcTimeMillis,elapsedRealtimeNanos,UncalMagXMicroT,UncalMagYMicroT,UncalMagZMicroT,BiasXMicroT,BiasYMicroT,BiasZMicroT
# 
# Mag,utcTimeMillis,elapsedRealtimeNanos,MagXMicroT,MagYMicroT,MagZMicroT
# 
# OrientationDeg,utcTimeMillis,elapsedRealtimeNanos,yawDeg,rollDeg,pitchDeg
# 
# Fix,Provider,LatitudeDegrees,LongitudeDegrees,AltitudeMeters,SpeedMps,AccuracyMeters,BearingDegrees,UnixTimeMillis,SpeedAccuracyMps,BearingAccuracyDegrees,elapsedRealtimeNanos,VerticalAccuracyMeters
# 
# Nav,Svid,Type,Status,MessageId,Sub-messageId,Data(Bytes)
# 
# Status,UnixTimeMillis,SignalCount,SignalIndex,ConstellationType,Svid,CarrierFrequencyHz,Cn0DbHz,AzimuthDegrees,ElevationDegrees,UsedInFix,HasAlmanacData,HasEphemerisData,BasebandCn0DbHz
# 
UncalGyro,1676594826927,122330558424876,-0.6443101,-0.7498371,0.22036964,0.0003453992,-0.0007481519,-0.0032808199
UncalAccel,1676594826928,122330558424876,0.36311084,2.2271197,11.32523,0.006110925,-0.043260336,-0.038735468
UncalGyro,1676594826937,122330567389660,-0.5354234,-0.9639453,0.15332718,0.0003453992,-0.0007481519,-0.0032808199
UncalAccel,1676594826937,122330567389660,0.42951167,1.9298115,11.938989,0.006110925,-0.043260336,-0.038735468
UncalMag,1676594826935,122330565860119,-69.4302,-1.2444,-109.2876,-45.491467,0.31409264,-60.09035
OrientationDeg,1676594826928,122330558424876,71.0,5.0,-13.0
OrientationDeg,1676594826937,122330567389660,71.0,5.0,-13.0
UncalMag,1676594826945,122330575856212,-69.8206,-1.403,-109.787796,-45.491467,0.31409264,-60.09035
UncalGyro,1676594826946,122330576369457,-0.5871942,-0.96852684,0.14538592,0.0003453992,-0.0007481519,-0.0032808199
UncalAccel,1676594826945,122330576369457,0.31046873,1.1778669,12.701701,0.006110925,-0.043260336,-0.038735468
OrientationDeg,1676594826945,122330576369457,70.0,4.0,-13.0
UncalGyro,1676594826954,122330585349254,-0.763887,-0.8552113,0.15836681,0.0003453992,-0.0007481519,-0.0032808199
UncalAccel,1676594826954,122330585349254,0.23868406,0.7471589,12.970893,0.006110925,-0.043260336,-0.038735468
UncalMag,1676594826954,122330585855968,-69.9304,-0.6954,-110.6174,-45.491467,0.31409264,-60.09035
OrientationDeg,1676594826954,122330585349254,70.0,4.0,-12.0
UncalGyro,1676594826964,122330594331432,-0.88193667,-0.7067711,0.16768251,0.0003453992,-0.0007481519,-0.0032808199
UncalAccel,1676594826963,122330594331432,0.044865426,0.63828546,13.526627,0.006110925,-0.043260336,-0.038735468
OrientationDeg,1676594826963,122330594331432,70.0,3.0,-12.0
UncalMag,1676594826965,122330595857677,-68.9788,-0.1952,-109.5194,-45.491467,0.31409264,-60.09035
UncalGyro,1676594826973,122330603312694,-0.91629785,-0.4718934,0.20326541,0.0003453992,-0.0007481519,-0.0032808199
UncalAccel,1676594826972,122330603312694,-0.28414768,0.29970104,13.981263,0.006110925,-0.043260336,-0.038735468
OrientationDeg,1676594826972,122330603312694,70.0,3.0,-11.0
UncalMag,1676594826975,122330605856456,-68.381,0.305,-108.824,-45.491467,0.31409264,-60.09035
OrientationDeg,1676594826981,122330612293285,70.0,3.0,-11.0
UncalGyro,1676594826982,122330612293285,-0.8903361,-0.21853705,0.28053987,0.0003453992,-0.0007481519,-0.0032808199
UncalAccel,1676594826982,122330612293285,-0.62512493,0.033499517,14.068601,0.006110925,-0.043260336,-0.038735468
UncalMag,1676594826985,122330615852306,-70.1744,0.54899997,-109.4462,-45.491467,0.31409264,-60.09035
UncalGyro,1676594826991,122330621271678,-0.79275036,-0.111177474,0.39202276,0.0003453992,-0.0007481519,-0.0032808199
UncalAccel,1676594826991,122330621271678,-0.69272214,0.3260221,13.669598,0.006110925,-0.043260336,-0.038735468
OrientationDeg,1676594826990,122330621271678,70.0,3.0,-10.0
UncalMag,1676594826994,122330625866955,-71.553,0.56119996,-111.63,-45.491467,0.31409264,-60.09035
UncalGyro,1676594827000,122330630247509,-0.5842926,-0.2060143,0.50793445,0.0003453992,-0.0007481519,-0.0032808199
UncalAccel,1676594827000,122330630247509,-0.69092757,0.91585284,13.243675,0.006110925,-0.043260336,-0.038735468
OrientationDeg,1676594826999,122330630247509,69.0,3.0,-10.0
UncalMag,1676594827005,122330635856212,-71.516396,1.3298,-113.2038,-45.491467,0.31409264,-60.09035
UncalGyro,1676594827008,122330639228588,-0.2501493,-0.410196,0.590554,0.0003453992,-0.0007481519,-0.0032808199
UncalAccel,1676594827009,122330639228588,-0.6376872,1.457229,12.9750805,0.006110925,-0.043260336,-0.038735468
OrientationDeg,1676594827009,122330639228588,69.0,2.0,-10.0
UncalMag,1676594827015,122330645856701,-71.199196,1.1834,-110.3856,-45.491467,0.31409264,-60.09035
UncalGyro,1676594827017,122330648205944,0.1919644,-0.61483586,0.61712664,0.0003453992,-0.0007481519,-0.0032808199
UncalAccel,1676594827018,122330648205944,-0.3684947,2.179263,12.617952,0.006110925,-0.043260336,-0.038735468
OrientationDeg,1676594827017,122330648205944,69.0,2.0,-10.0
UncalMag,1676594827024,122330655862560,-70.881996,1.9519999,-110.910194,-45.491467,0.31409264,-60.09035
UncalGyro,1676594827026,122330657186107,0.676686,-0.79305583,0.5864306,0.0003453992,-0.0007481519,-0.0032808199
UncalAccel,1676594827026,122330657186107,-0.08075777,2.786442,12.274582,0.006110925,-0.043260336,-0.038735468
OrientationDeg,1676594827026,122330657186107,68.0,1.0,-10.0
UncalMag,1676594827035,122330665857921,-69.784,1.342,-110.605194,-45.491467,0.31409264,-60.09035
UncalGyro,1676594827036,122330666164806,1.1517864,-0.95172805,0.52305335,0.0003453992,-0.0007481519,-0.0032808199
UncalAccel,1676594827035,122330666164806,0.013160525,2.9922247,11.937792,0.006110925,-0.043260336,-0.038735468
OrientationDeg,1676594827035,122330666164806,68.0,1.0,-11.0
UncalGyro,1676594827044,122330675145397,1.5607607,-1.1476631,0.44822237,0.0003453992,-0.0007481519,-0.0032808199
UncalAccel,1676594827045,122330675145397,-0.22971097,2.9880373,10.849656,0.006110925,-0.043260336,-0.038735468
UncalMag,1676594827045,122330675855968,-72.0288,0.4026,-109.982994,-45.491467,0.31409264,-60.09035
OrientationDeg,1676594827044,122330675145397,68.0,0.0,-12.0
UncalGyro,1676594827054,122330684124950,1.7498235,-1.6224581,0.38163805,0.0003453992,-0.0007481519,-0.0032808199
UncalAccel,1676594827054,122330684124950,-0.57487565,2.8594232,8.23131,0.006110925,-0.043260336,-0.038735468
OrientationDeg,1676594827053,122330684124950,68.0,0.0,-13.0
UncalMag,1676594827055,122330685856212,-75.1642,-1.7811999,-114.3994,-45.491467,0.31409264,-60.09035
UncalGyro,1676594827063,122330693102245,1.4721853,-2.335185,0.3193298,0.0003453992,-0.0007481519,-0.0032808199
UncalAccel,1676594827062,122330693102245,-0.80757767,3.354139,6.826723,0.006110925,-0.043260336,-0.038735468
OrientationDeg,1676594827062,122330693102245,67.0,-1.0,-14.0
UncalMag,1676594827064,122330695856701,-73.553795,-0.92719996,-108.1286,-45.491467,0.31409264,-60.09035
UncalGyro,1676594827071,122330702092052,1.146594,-2.5717428,0.2932153,0.0003453992,-0.0007481519,-0.0032808199
UncalAccel,1676594827072,122330702092052,-1.1443675,2.7768707,8.490333,0.006110925,-0.043260336,-0.038735468
OrientationDeg,1676594827071,122330702092052,67.0,-2.0,-14.0
UncalMag,1676594827075,122330705867687,-74.2614,-1.2078,-109.1046,-45.491467,0.31409264,-60.09035
UncalGyro,1676594827081,122330711076182,1.0624474,-2.5622742,0.2817616,0.0003453992,-0.0007481519,-0.0032808199
UncalAccel,1676594827081,122330711076182,0.08853444,2.8845477,8.129615,0.006110925,-0.043260336,-0.038735468
OrientationDeg,1676594827080,122330711076182,67.0,-4.0,-15.0
UncalMag,1676594827084,122330715864269,-76.640396,-2.0862,-108.3116,-45.491467,0.31409264,-60.09035
Raw,1676594826000,329836000000,,,-1360629714164293425,0.0,7.371621890386503,296.0,1.0,21,2,0.0,16431,434843919383471,17,39.723575592041016,-551.0848290401909,0.15,16,-183481.54866912946,340282346638528860000000000000000000000,1575420030,,,,0,,1,,35.52357482910156,0.0,1.0,0.0,1.0,C,122330607037000
Raw,1676594826000,329836000000,,,-1360629714164293425,0.0,7.371621890386503,296.0,1.0,21,6,0.0,16431,434843927913248,21,37.502952575683594,565.3006898207682,0.15,16,182113.89309759747,340282346638528860000000000000000000000,1575420030,,,,0,,1,,33.30295181274414,0.320142130558394,1.0,0.320142130558394,1.0,C,122330607037000
Raw,1676594826000,329836000000,,,-1360629714164293425,0.0,7.371621890386503,296.0,1.0,21,11,0.0,16431,434843932334653,31,32.64974594116211,51.72858874319655,0.6715166557742487,16,10657.91993606265,340282346638528860000000000000000000000,1575420030,,,,0,,1,,28.44974708557129,-0.20372681261465636,1.0,-0.20372681261465636,1.0,C,122330607037000
Raw,1676594826000,329836000000,,,-1360629714164293425,0.0,7.371621890386503,296.0,1.0,21,12,0.0,16431,434843931931134,12,44.18813705444336,-159.19322407061236,0.15,16,-56700.713304595236,340282346638528860000000000000000000000,1575420030,,,,0,,1,,39.988136291503906,-0.6984919076624261,1.0,-0.6984919076624261,1.0,C,122330607037000
Raw,1676594826000,329836000000,,,-1360629714164293425,0.0,7.371621890386503,296.0,1.0,21,19,0.0,16431,434843923492259,16,40.319034576416016,599.6769371188052,0.15,16,196844.43886823233,340282346638528860000000000000000000000,1575420030,,,,0,,1,,36.11903381347656,0.0,1.0,0.0,1.0,C,122330607037000
Raw,1676594826000,329836000000,,,-1360629714164293425,0.0,7.371621890386503,296.0,1.0,21,20,0.0,16431,434843923737481,19,38.523536682128906,-439.15793957191204,0.15,16,-147054.4430947029,340282346638528860000000000000000000000,1575420030,,,,0,,1,,34.32353591918945,0.0,1.0,0.0,1.0,C,122330607037000
Raw,1676594826000,329836000000,,,-1360629714164293425,0.0,7.371621890386503,296.0,1.0,21,24,0.0,16431,434843925253020,24,35.551368713378906,615.1977469947278,0.5397602027503638,16,199537.0761178915,340282346638528860000000000000000000000,1575420030,,,,0,,1,,31.351369857788086,-0.20372681261465636,1.0,-0.20372681261465636,1.0,C,122330607037000
Raw,1676594826000,329836000000,,,-1360629714164293425,0.0,7.371621890386503,296.0,1.0,21,25,0.0,16431,434843927293916,14,42.46989059448242,-432.72364893479676,0.15,16,-145007.31275764457,340282346638528860000000000000000000000,1575420030,,,,0,,1,,38.26988983154297,-2.0372682255564105,1.0,-2.0372682255564105,1.0,C,122330607037000
Raw,1676594826000,329836000000,,,-1360629714164293425,0.0,7.371621890386503,296.0,1.0,21,29,0.0,16431,434843919198854,30,32.88356399536133,-402.38975139264767,0.6622369081783388,16,-133825.37196166097,340282346638528860000000000000000000000,1575420030,,,,0,,1,,28.683563232421875,-0.6984919076624261,1.0,-0.6984919076624261,1.0,C,122330607037000
Raw,1676594826000,329836000000,,,-1360629714164293425,0.0,7.371621890386503,296.0,1.0,21,6,0.0,81921,434843927913795,9,35.6389045715332,565.4146615553805,0.5318055105027251,16,183771.34646236873,340282346638528860000000000000000000000,1176450050,,,,0,,1,,31.53890609741211,1.9208527336454408,1.5483999880403092,1.9208527336454408,1.0,Q,122330607037000
Raw,1676594826000,329836000000,,,-1360629714164293425,0.0,7.371621890386503,296.0,1.0,21,11,0.0,81921,434843932335191,10,35.89324951171875,51.75288101408319,0.5211633300207754,16,10704.339528525472,340282346638528860000000000000000000000,1176450050,,,,0,,1,,31.793249130249023,0.0,1.5483999880403092,0.0,1.0,Q,122330607037000
Raw,1676594826000,329836000000,,,-1360629714164293425,0.0,7.371621890386503,296.0,1.0,21,24,0.0,81921,434843925253576,19,33.706851959228516,615.0499654632449,0.6182092307825511,16,201280.73218176127,340282346638528860000000000000000000000,1176450050,,,,0,,1,,29.606853485107422,3.5215636101095664,1.5483999880403092,3.5215636101095664,1.0,Q,122330607037000
Raw,1676594826000,329836000000,,,-1360629714164293425,0.0,7.371621890386503,296.0,1.0,21,25,0.0,81921,434843927294459,9,43.35813903808594,-432.93952721441224,0.15,16,-146385.27091240077,340282346638528860000000000000000000000,1176450050,,,,0,,1,,39.258140563964844,1.0186341127782053,1.5483999880403092,1.0186341127782053,1.0,Q,122330607037000
Raw,1676594826000,329836000000,,,-1360629714164293425,0.0,7.371621890386503,296.0,1.0,21,14,0.0,32867,13625931307559,38,38.78614807128906,682.487695216495,0.15,16,219670.82868857172,340282346638528860000000000000000000000,1598062460,,,,0,,3,,34.58614730834961,50.29141902923584,2.0000000474974513,50.29141902923584,2.0000000474974513,C,122330607037000
Raw,1676594826000,329836000000,,,-1360629714164293425,0.0,7.371621890386503,296.0,1.0,21,18,0.0,32867,13625929964339,39,38.473453521728516,-385.28526609193614,0.15,16,-132184.6327577127,340282346638528860000000000000000000000,1600312450,,,,0,,3,,34.27345275878906,50.29141902923584,2.0000000474974513,50.29141902923584,2.0000000474974513,C,122330607037000
Raw,1676594826000,329836000000,,,-1360629714164293425,0.0,7.371621890386503,296.0,1.0,21,16,0.0,32995,13625925846860,33,44.67886734008789,-638.8598332602542,0.15,16,-212232.57651455552,340282346638528860000000000000000000000,1601437440,,,,0,,3,,40.47886657714844,50.29141902923584,2.0000000474974513,50.29141902923584,2.0000000474974513,C,122330607037000
Raw,1676594826000,329836000000,,,-1360629714164293425,0.0,7.371621890386503,296.0,1.0,21,15,0.0,32867,13625936179133,45,36.69044494628906,-48.726495204683715,0.15,16,-23884.810144436186,340282346638528860000000000000000000000,1602000000,,,,0,,3,,32.49044418334961,50.29141902923584,2.0000000474974513,50.29141902923584,2.0000000474974513,C,122330607037000
Raw,1676594826000,329836000000,,,-1360629714164293425,0.0,7.371621890386503,296.0,1.0,21,24,0.0,32995,13625927494298,47,35.93169021606445,732.9422050493417,0.523060930698251,16,239715.36171103045,340282346638528860000000000000000000000,1603124990,,,,0,,3,,31.731689453125,50.29141902923584,2.0000000474974513,50.29141902923584,2.0000000474974513,C,122330607037000
Raw,1676594826000,329836000000,,,-1360629714164293425,0.0,7.371621890386503,296.0,1.0,21,17,0.0,32995,13625936194266,43,37.295291900634766,206.02901204092143,0.15,16,62423.41219335025,340282346638528860000000000000000000000,1604249980,,,,0,,3,,33.09529113769531,50.29141902923584,2.0000000474974513,50.29141902923584,2.0000000474974513,C,122330607037000
Raw,1676594826000,329836000000,,,-1360629714164293425,0.0,7.371621890386503,296.0,1.0,21,2,0.0,85026,434843922237522,29,33.20918273925781,193.59627722070456,0.645262713185915,16,60785.18428520906,340282346638528860000000000000000000000,1575420030,,,,0,,6,,29.009183883666992,-6.024492904543876,1.5000000237487257,-6.024492904543876,1.5000000237487257,C,122330607037000
Raw,1676594826000,329836000000,,,-1360629714164293425,0.0,7.371621890386503,296.0,1.0,21,11,0.0,85026,434843909322330,40,31.116790771484375,620.5974305816367,299.79341155187944,16,204302.93450933616,340282346638528860000000000000000000000,1575420030,,,,0,,6,,26.916791915893555,-6.024492904543876,1.5000000237487257,-6.024492904543876,1.5000000237487257,C,122330607037000
Raw,1676594826000,329836000000,,,-1360629714164293425,0.0,7.371621890386503,296.0,1.0,21,15,0.0,85026,434843907618402,25,35.07242202758789,-468.2516106036526,0.5617234170182077,16,-55840.3266041401,340282346638528860000000000000000000000,1575420030,,,,0,,6,,30.872421264648438,-6.024492904543876,1.5000000237487257,-6.024492904543876,1.5000000237487257,C,122330607037000
Raw,1676594826000,329836000000,,,-1360629714164293425,0.0,7.371621890386503,296.0,1.0,21,25,0.0,85026,434843911646120,18,38.97237014770508,537.707669349727,0.15,16,175405.86939229444,340282346638528860000000000000000000000,1575420030,,,,0,,6,,34.772369384765625,-6.024492904543876,1.5000000237487257,-6.024492904543876,1.5000000237487257,C,122330607037000
Raw,1676594826000,329836000000,,,-1360629714164293425,0.0,7.371621890386503,296.0,1.0,21,30,0.0,85026,434843916943017,11,45.146793365478516,-269.13400950870925,0.15,16,-90177.6669459276,340282346638528860000000000000000000000,1575420030,,,,0,,6,,40.94679260253906,-6.024492904543876,1.5000000237487257,-6.024492904543876,1.5000000237487257,C,122330607037000
Raw,1676594826000,329836000000,,,-1360629714164293425,0.0,7.371621890386503,296.0,1.0,21,34,0.0,85026,434843920612294,43,28.411720275878906,-204.44436526612162,0.8607069074518154,16,-71235.17103731386,340282346638528860000000000000000000000,1575420030,,,,0,,6,,24.211719512939453,-6.024492904543876,1.5000000237487257,-6.024492904543876,1.5000000237487257,C,122330607037000
Raw,1676594826000,329836000000,,,-1360629714164293425,0.0,7.371621890386503,296.0,1.0,21,36,0.0,85026,434843920708851,23,36.193111419677734,326.61204452826587,0.15,16,104232.44208903534,340282346638528860000000000000000000000,1575420030,,,,0,,6,,31.993112564086914,-6.024492904543876,1.5000000237487257,-6.024492904543876,1.5000000237487257,C,122330607037000
Raw,1676594826000,329836000000,,,-1360629714164293425,0.0,7.371621890386503,296.0,1.0,21,2,0.0,84003,434843922238062,17,30.51780128479004,193.5509134710727,0.7646723969306244,16,60705.13428418049,340282346638528860000000000000000000000,1176450050,,,,0,,6,,26.417800903320312,-4.362151958048344,2.0484000117890346,-4.362151958048344,1.5000000237487257,Q,122330607037000
Raw,1676594826000,329836000000,,,-1360629714164293425,0.0,7.371621890386503,296.0,1.0,21,11,0.0,84003,434843909322868,53,25.959949493408203,622.3333182572565,0.9673107738310578,16,203706.12587145471,340282346638528860000000000000000000000,1176450050,,,,0,,6,,21.859949111938477,4.134257324039933,2.0484000117890346,4.134257324039933,1.5000000237487257,Q,122330607037000
Raw,1676594826000,329836000000,,,-1360629714164293425,0.0,7.371621890386503,296.0,1.0,21,15,0.0,84003,434843907618914,20,31.586055755615234,-468.54921861400976,0.7140045650024014,16,-55842.47088706326,340282346638528860000000000000000000000,1176450050,,,,0,,6,,27.486055374145508,-11.565629392862316,2.0484000117890346,-11.565629392862316,1.5000000237487257,Q,122330607037000
Raw,1676594826000,329836000000,,,-1360629714164293425,0.0,7.371621890386503,296.0,1.0,21,25,0.0,84003,434843911646635,18,31.515119552612305,537.7158150568359,0.7179189883878845,16,176912.84099067675,340282346638528860000000000000000000000,1176450050,,,,0,,6,,27.415119171142578,-8.795061148703097,2.0484000117890346,-8.795061148703097,1.5000000237487257,Q,122330607037000
Raw,1676594826000,329836000000,,,-1360629714164293425,0.0,7.371621890386503,296.0,1.0,21,30,0.0,84003,434843916943562,10,42.25298309326172,-269.150028263275,0.15,16,-89873.77577343208,340282346638528860000000000000000000000,1176450050,,,,0,,6,,38.152984619140625,-8.425652049481869,2.0484000117890346,-8.425652049481869,1.5000000237487257,Q,122330607037000
Raw,1676594826000,329836000000,,,-1360629714164293425,0.0,7.371621890386503,296.0,1.0,21,34,0.0,84003,434843920612877,11,35.1960334777832,-204.83644984596003,0.5540052716636428,16,-71615.2083359693,340282346638528860000000000000000000000,1176450050,,,,0,,6,,31.096033096313477,-11.011515744030472,2.0484000117890346,-11.011515744030472,1.5000000237487257,Q,122330607037000
Raw,1676594826000,329836000000,,,-1360629714164293425,0.0,7.371621890386503,296.0,1.0,21,36,0.0,84003,434843920709385,18,33.29959487915039,326.27346940516827,0.6393032092744675,16,104597.09073945414,340282346638528860000000000000000000000,1176450050,,,,0,,6,,29.199596405029297,-11.011515744030472,2.0484000117890346,-11.011515744030472,1.5000000237487257,Q,122330607037000
UncalGyro,1676594827089,122330720035716,0.93019503,-2.6068676,0.19715676,0.0003453992,-0.0007481519,-0.0032808199
UncalAccel,1676594827089,122330720035716,0.8853444,3.3206396,7.630113,0.006110925,-0.043260336,-0.038735468
UncalMag,1676594827094,122330725867443,-78.2752,-2.6108,-106.554794,-45.491467,0.31409264,-60.09035
UncalGyro,1676594827098,122330729032604,0.8888089,-2.644894,0.11988231,0.0003453992,-0.0007481519,-0.0032808199
UncalAccel,1676594827098,122330729032604,0.89013004,3.0329027,8.215158,0.006110925,-0.043260336,-0.038735468
OrientationDeg,1676594827089,122330720035716,67.0,-5.0,-15.0
OrientationDeg,1676594827098,122330729032604,67.0,-6.0,-16.0
Status,0,33,0,3,15,1602000000,39.55,311.0,78.0,1,1,1,35.349697
Status,0,33,1,1,11,1176450050,40.83,116.0,77.0,1,1,1,36.732204
Status,0,33,2,1,11,1575420030,40.42,116.0,77.0,1,1,1,36.222267
Status,0,33,3,6,2,1575420030,38.66,111.0,75.0,1,1,1,34.461296
Status,0,33,4,6,2,1176450050,37.59,111.0,75.0,1,1,1,33.486076
Status,0,33,5,3,17,1604249980,37.94,326.0,72.0,1,1,1,33.74308
Status,0,33,6,1,12,1575420030,44.91,328.0,67.0,1,1,1,40.70587
Status,0,33,7,6,34,1575420030,37.10,208.0,61.0,1,1,1,32.896454
Status,0,33,8,6,36,1575420030,39.24,50.0,61.0,1,1,1,35.044918
Status,0,33,9,6,34,1176450050,35.40,208.0,61.0,1,1,1,31.3031
Status,0,33,10,6,36,1176450050,37.15,50.0,61.0,1,1,1,33.05401
Status,0,33,11,6,30,1575420030,45.15,316.0,47.0,1,1,1,40.946793
Status,0,33,12,6,30,1176450050,42.25,316.0,47.0,1,1,1,38.152985
Status,0,33,13,1,6,1176450050,42.67,47.0,43.0,1,1,1,38.57252
Status,0,33,14,3,14,1598062460,42.89,154.0,43.0,1,1,1,38.688587
Status,0,33,15,1,6,1575420030,43.83,47.0,43.0,1,1,1,39.634697
Status,0,33,16,1,24,1176450050,39.33,217.0,37.0,1,1,1,35.23067
Status,0,33,17,1,24,1575420030,39.32,217.0,37.0,1,1,1,35.121708
Status,0,33,18,3,18,1600312450,39.18,241.0,37.0,1,1,1,34.976097
Status,0,33,19,1,25,1176450050,43.36,313.0,36.0,1,1,1,39.25814
Status,0,33,20,1,25,1575420030,45.26,313.0,36.0,1,1,1,41.057713
Status,0,33,21,3,24,1603124990,44.72,35.0,29.0,1,1,1,40.515987
Status,0,33,22,1,20,1575420030,41.34,141.0,28.0,1,1,1,37.14413
Status,0,33,23,6,25,1575420030,41.18,127.0,24.0,1,1,1,36.982273
Status,0,33,24,1,19,1575420030,44.73,62.0,24.0,1,1,1,40.528618
Status,0,33,25,6,25,1176450050,37.19,127.0,24.0,1,1,1,33.092636
Status,0,33,26,3,16,1601437440,47.97,328.0,23.0,1,1,1,43.77263
Status,0,33,27,1,29,1575420030,36.19,266.0,16.0,1,1,1,31.987864
Status,0,33,28,6,11,1176450050,27.55,41.0,13.0,1,1,1,23.450489
Status,0,33,29,6,11,1575420030,36.79,41.0,13.0,0,1,1,32.589962
Status,0,33,30,1,2,1575420030,42.93,218.0,13.0,1,1,1,38.726418
Status,0,33,31,6,15,1575420030,37.16,217.0,10.0,1,1,1,32.957092
Status,0,33,32,6,15,1176450050,33.57,217.0,10.0,1,1,1,29.471952
Fix,GPS,37.4311456260,-122.1551603169,-17.140122689028757,0.8281765,3.1058388,65.47207,1676594826000,0.1405162,70.71899,122330607037000,3.0
Fix,FLP,37.4311276000,-122.1551701000,-16.399999618530273,0.907429,5.584,144.86736,1676594826838,,,122330468626720,3.0160062
UncalMag,1676594827105,122330735867443,-82.35,-4.2822,-108.726395,-45.491467,0.31409264,-60.09035
UncalGyro,1676594827107,122330738009960,0.8231409,-2.5610526,0.028863383,0.0003453992,-0.0007481519,-0.0032808199
UncalAccel,1676594827107,122330738009960,0.69152576,2.900101,8.532805,0.006110925,-0.043260336,-0.038735468
OrientationDeg,1676594827108,122330738009960,67.0,-8.0,-16.0
UncalMag,1676594827115,122330745867687,-80.2516,-3.0012,-105.8838,-45.491467,0.31409264,-60.09035
UncalGyro,1676594827116,122330746991405,0.7512115,-2.3811526,-0.061239243,0.0003453992,-0.0007481519,-0.0032808199
UncalAccel,1676594827115,122330746991405,1.012164,2.4089742,8.589037,0.006110925,-0.043260336,-0.038735468
OrientationDeg,1676594827115,122330746991405,67.0,-9.0,-16.0
UncalMag,1676594827125,122330755867687,-79.422,-3.172,-104.127,-45.491467,0.31409264,-60.09035
UncalGyro,1676594827124,122330755967540,0.70203686,-2.1120665,-0.15409076,0.0003453992,-0.0007481519,-0.0032808199
UncalAccel,1676594827124,122330755967540,1.5104693,2.14696,8.613564,0.006110925,-0.043260336,-0.038735468
OrientationDeg,1676594827125,122330755967540,67.0,-10.0,-17.0
UncalGyro,1676594827133,122330764938976,0.6597345,-1.7817413,-0.2527455,0.0003453992,-0.0007481519,-0.0032808199
UncalAccel,1676594827134,122330764938976,1.8017955,2.2462623,8.59143,0.006110925,-0.043260336,-0.038735468
UncalMag,1676594827135,122330765855480,-80.9226,-3.7942,-103.7122,-45.491467,0.31409264,-60.09035
OrientationDeg,1676594827134,122330764938976,67.0,-11.0,-17.0
UncalGyro,1676594827142,122330773932445,0.6198755,-1.4579827,-0.36102137,0.0003453992,-0.0007481519,-0.0032808199
UncalAccel,1676594827142,122330773932445,1.6815561,2.6255248,8.426325,0.006110925,-0.043260336,-0.038735468
OrientationDeg,1676594827142,122330773932445,67.0,-12.0,-17.0
UncalMag,1676594827145,122330775867687,-80.459,-3.6722,-103.1876,-45.491467,0.31409264,-60.09035
UncalGyro,1676594827151,122330782909496,0.59880066,-1.2119566,-0.47021353,0.0003453992,-0.0007481519,-0.0032808199
UncalAccel,1676594827151,122330782909496,1.1653047,2.8923244,8.258229,0.006110925,-0.043260336,-0.038735468
OrientationDeg,1676594827151,122330782909496,67.0,-12.0,-18.0
UncalMag,1676594827154,122330785867687,-81.557,-4.6848,-103.7854,-45.491467,0.31409264,-60.09035
UncalGyro,1676594827161,122330791889110,0.634689,-1.0543534,-0.5546656,0.0003453992,-0.0007481519,-0.0032808199
UncalAccel,1676594827161,122330791889110,0.6963114,2.8235307,8.4705925,0.006110925,-0.043260336,-0.038735468
OrientationDeg,1676594827161,122330791889110,67.0,-13.0,-18.0
UncalMag,1676594827164,122330795867687,-79.7026,-3.9894,-101.7358,-45.491467,0.31409264,-60.09035
UncalGyro,1676594827170,122330800868358,0.7651087,-0.9324858,-0.59803706,0.0003453992,-0.0007481519,-0.0032808199
UncalAccel,1676594827169,122330800868358,0.64965135,2.7086751,9.065208,0.006110925,-0.043260336,-0.038735468
OrientationDeg,1676594827169,122330800868358,68.0,-13.0,-19.0
UncalMag,1676594827175,122330805855724,-80.7884,-4.819,-101.504,-45.491467,0.31409264,-60.09035
UncalGyro,1676594827178,122330809847911,0.9859365,-0.7325801,-0.6220135,0.0003453992,-0.0007481519,-0.0032808199
UncalAccel,1676594827179,122330809847911,1.1976078,3.103491,9.70828,0.006110925,-0.043260336,-0.038735468
OrientationDeg,1676594827179,122330809847911,68.0,-13.0,-19.0
UncalMag,1676594827184,122330815865001,-82.4964,-5.6363997,-102.6142,-45.491467,0.31409264,-60.09035
UncalGyro,1676594827188,122330818827465,1.2406673,-0.37950003,-0.66782844,0.0003453992,-0.0007481519,-0.0032808199
UncalAccel,1676594827187,122330818827465,1.7491534,4.0504503,10.535598,0.006110925,-0.043260336,-0.038735468
OrientationDeg,1676594827188,122330818827465,68.0,-13.0,-20.0
UncalMag,1676594827195,122330825859630,-81.1178,-6.1854,-101.6016,-45.491467,0.31409264,-60.09035
UncalGyro,1676594827196,122330827806957,1.4669929,0.22342396,-0.7139487,0.0003453992,-0.0007481519,-0.0032808199
UncalAccel,1676594827196,122330827806957,1.0803595,5.085346,11.362318,0.006110925,-0.043260336,-0.038735468
OrientationDeg,1676594827196,122330827806957,68.0,-13.0,-21.0
UncalMag,1676594827204,122330835867687,-82.899,-7.4175997,-103.0778,-45.491467,0.31409264,-60.09035
UncalGyro,1676594827205,122330836786327,1.6076446,0.9469938,-0.43111816,0.0003453992,-0.0007481519,-0.0032808199
UncalAccel,1676594827205,122330836786327,-4.0498524,6.022136,10.133604,0.006110925,-0.043260336,-0.038735468
OrientationDeg,1676594827205,122330836786327,68.0,-13.0,-22.0
UncalGyro,1676594827215,122330845765575,1.6749926,1.357648,0.31658092,0.0003453992,-0.0007481519,-0.0032808199
UncalAccel,1676594827215,122330845765575,-6.1040907,6.3164535,8.519645,0.006110925,-0.043260336,-0.038735468
UncalMag,1676594827215,122330845855724,-80.544395,-7.2468,-102.419,-45.491467,0.31409264,-60.09035
OrientationDeg,1676594827215,122330845765575,68.0,-12.0,-22.0
UncalGyro,1676594827224,122330854745372,1.6577356,1.6826283,0.8718574,0.0003453992,-0.0007481519,-0.0032808199
OrientationDeg,1676594827223,122330854745372,67.0,-11.0,-23.0
UncalAccel,1676594827223,122330854745372,-0.9457632,4.41057,7.4512496,0.006110925,-0.043260336,-0.038735468
UncalMag,1676594827224,122330855867687,-82.0694,-8.4911995,-103.0534,-45.491467,0.31409264,-60.09035
UncalGyro,1676594827232,122330863713207,1.4680619,1.8327484,0.8781188,0.0003453992,-0.0007481519,-0.0032808199
UncalAccel,1676594827232,122330863713207,3.6520455,2.329413,4.76411,0.006110925,-0.043260336,-0.038735468
OrientationDeg,1676594827232,122330863713207,66.0,-11.0,-24.0
UncalMag,1676594827234,122330865867687,-78.4582,-7.5518,-101.931,-45.491467,0.31409264,-60.09035
UncalGyro,1676594827241,122330872704418,1.1424707,1.7188221,0.63132924,0.0003453992,-0.0007481519,-0.0032808199
UncalAccel,1676594827241,122330872704418,4.587041,2.179263,3.4857445,0.006110925,-0.043260336,-0.038735468
OrientationDeg,1676594827242,122330872704418,66.0,-10.0,-24.0
UncalMag,1676594827244,122330875867443,-78.3362,-7.5518,-102.8704,-45.491467,0.31409264,-60.09035
UncalGyro,1676594827251,122330881683788,0.8323039,1.4482088,0.44211373,0.0003453992,-0.0007481519,-0.0032808199
UncalAccel,1676594827250,122330881683788,3.5120654,2.6895328,3.7740796,0.006110925,-0.043260336,-0.038735468
OrientationDeg,1676594827250,122330881683788,66.0,-10.0,-25.0
UncalMag,1676594827255,122330885867687,-78.4948,-8.1008,-103.9806,-45.491467,0.31409264,-60.09035
UncalGyro,1676594827259,122330890651561,0.6243043,1.1672108,0.42302418,0.0003453992,-0.0007481519,-0.0032808199
UncalAccel,1676594827259,122330890651561,2.352743,2.5531418,4.749753,0.006110925,-0.043260336,-0.038735468
OrientationDeg,1676594827259,122330890651561,65.0,-9.0,-25.0
UncalMag,1676594827265,122330895867443,-78.506996,-8.064199,-102.797195,-45.491467,0.31409264,-60.09035
UncalGyro,1676594827268,122330899642894,0.5213735,0.99204516,0.45066583,0.0003453992,-0.0007481519,-0.0032808199
UncalAccel,1676594827268,122330899642894,2.9108686,2.0081763,5.7074804,0.006110925,-0.043260336,-0.038735468
OrientationDeg,1676594827269,122330899642894,65.0,-9.0,-25.0
UncalMag,1676594827275,122330905867931,-80.068596,-8.5034,-105.5788,-45.491467,0.31409264,-60.09035
UncalGyro,1676594827277,122330908606456,0.4896085,0.8558222,0.40576723,0.0003453992,-0.0007481519,-0.0032808199
UncalAccel,1676594827277,122330908606456,3.8841493,1.6139588,5.895915,0.006110925,-0.043260336,-0.038735468
OrientationDeg,1676594827277,122330908606456,65.0,-9.0,-25.0
UncalMag,1676594827285,122330915855968,-78.7754,-8.8572,-102.3702,-45.491467,0.31409264,-60.09035
UncalGyro,1676594827287,122330917601330,0.5083926,0.68218374,0.32650748,0.0003453992,-0.0007481519,-0.0032808199
UncalAccel,1676594827287,122330917601330,4.0731826,1.5266209,6.1010995,0.006110925,-0.043260336,-0.038735468
OrientationDeg,1676594827286,122330917601330,64.0,-8.0,-26.0
UncalMag,1676594827295,122330925862804,-80.092995,-9.503799,-105.3714,-45.491467,0.31409264,-60.09035
UncalGyro,1676594827295,122330926581249,0.5514586,0.50228393,0.24709499,0.0003453992,-0.0007481519,-0.0032808199
UncalAccel,1676594827296,122330926581249,3.9882371,1.3980067,6.7669024,0.006110925,-0.043260336,-0.038735468
OrientationDeg,1676594827295,122330926581249,64.0,-8.0,-26.0
UncalGyro,1676594827305,122330935561290,0.61498857,0.37675115,0.22449298,0.0003453992,-0.0007481519,-0.0032808199
UncalAccel,1676594827305,122330935561290,3.5940197,1.0073783,7.697112,0.006110925,-0.043260336,-0.038735468
UncalMag,1676594827305,122330935863537,-80.2028,-9.5404,-105.8228,-45.491467,0.31409264,-60.09035
OrientationDeg,1676594827305,122330935561290,64.0,-8.0,-26.0
UncalGyro,1676594827313,122330944530834,0.6969972,0.31306845,0.26160303,0.0003453992,-0.0007481519,-0.0032808199
UncalAccel,1676594827314,122330944530834,3.4977086,0.6197411,8.333603,0.006110925,-0.043260336,-0.038735468
UncalMag,1676594827315,122330945867443,-78.055595,-9.1622,-103.9562,-45.491467,0.31409264,-60.09035
OrientationDeg,1676594827314,122330944530834,64.0,-8.0,-26.0
UncalGyro,1676594827323,122330953514660,0.7790059,0.33933565,0.3286455,0.0003453992,-0.0007481519,-0.0032808199
UncalAccel,1676594827323,122330953514660,3.606582,0.70588267,8.582457,0.006110925,-0.043260336,-0.038735468
OrientationDeg,1676594827322,122330953514660,64.0,-8.0,-27.0
UncalMag,1676594827325,122330955867443,-77.4944,-8.4911995,-103.8586,-45.491467,0.31409264,-60.09035
UncalGyro,1676594827331,122330962499340,0.8539896,0.40454552,0.3857614,0.0003453992,-0.0007481519,-0.0032808199
UncalAccel,1676594827332,122330962499340,3.5001013,0.9798609,8.444869,0.006110925,-0.043260336,-0.038735468
OrientationDeg,1676594827331,122330962499340,63.0,-8.0,-27.0
UncalMag,1676594827335,122330965867443,-76.7258,-9.1133995,-103.5292,-45.491467,0.31409264,-60.09035
UncalGyro,1676594827340,122330971475841,0.91324353,0.44073927,0.4280638,0.0003453992,-0.0007481519,-0.0032808199
UncalAccel,1676594827340,122330971475841,3.1836505,1.0295119,7.8670025,0.006110925,-0.043260336,-0.038735468
OrientationDeg,1676594827340,122330971475841,63.0,-8.0,-28.0
UncalMag,1676594827344,122330975867687,-77.3602,-9.6746,-104.212395,-45.491467,0.31409264,-60.09035
UncalGyro,1676594827349,122330980446239,0.9289733,0.5009095,0.46303585,0.0003453992,-0.0007481519,-0.0032808199
UncalAccel,1676594827349,122330980446239,2.687738,1.3722838,7.4237323,0.006110925,-0.043260336,-0.038735468
OrientationDeg,1676594827349,122330980446239,63.0,-8.0,-28.0
UncalMag,1676594827354,122330985867443,-76.969795,-9.7234,-102.3702,-45.491467,0.31409264,-60.09035
OrientationDeg,1676594827358,122330989440379,62.0,-8.0,-28.0
UncalGyro,1676594827358,122330989440379,0.8810204,0.6375906,0.47128254,0.0003453992,-0.0007481519,-0.0032808199
UncalAccel,1676594827358,122330989440379,2.5956144,2.1690936,7.117451,0.006110925,-0.043260336,-0.038735468
UncalMag,1676594827365,122330995867443,-77.433395,-9.9552,-103.6268,-45.491467,0.31409264,-60.09035
UncalGyro,1676594827367,122330998417247,0.77686787,0.7698429,0.47861293,0.0003453992,-0.0007481519,-0.0032808199
UncalAccel,1676594827367,122330998417247,2.2462623,2.3336003,6.640083,0.006110925,-0.043260336,-0.038735468
OrientationDeg,1676594827367,122330998417247,62.0,-8.0,-29.0
UncalMag,1676594827375,122331005867687,-76.311,-9.991799,-103.6634,-45.491467,0.31409264,-60.09035
UncalGyro,1676594827377,122331007396739,0.63071835,0.8550586,0.52503866,0.0003453992,-0.0007481519,-0.0032808199
UncalAccel,1676594827377,122331007396739,2.1308086,2.1427727,6.519245,0.006110925,-0.043260336,-0.038735468
OrientationDeg,1676594827377,122331007396739,61.0,-7.0,-29.0
UncalMag,1676594827385,122331015855968,-76.1524,-9.4794,-104.053795,-45.491467,0.31409264,-60.09035
UncalGyro,1676594827386,122331016376293,0.453262,0.96929044,0.62980205,0.0003453992,-0.0007481519,-0.0032808199
UncalAccel,1676594827386,122331016376293,2.245066,2.036292,6.366703,0.006110925,-0.043260336,-0.038735468
OrientationDeg,1676594827386,122331016376293,61.0,-7.0,-29.0
UncalGyro,1676594827394,122331025355541,0.2817616,1.0042624,0.7796168,0.0003453992,-0.0007481519,-0.0032808199
UncalAccel,1676594827394,122331025355541,2.219343,2.0697916,5.9288163,0.006110925,-0.043260336,-0.038735468
UncalMag,1676594827394,122331025855968,-76.25,-9.6868,-106.7378,-45.491467,0.31409264,-60.09035
OrientationDeg,1676594827395,122331025355541,61.0,-7.0,-29.0
UncalGyro,1676594827404,122331034335216,0.15439619,0.95646226,0.9120218,0.0003453992,-0.0007481519,-0.0032808199
UncalAccel,1676594827403,122331034335216,2.4101706,2.1068804,5.9150577,0.006110925,-0.043260336,-0.038735468
UncalMag,1676594827405,122331035855968,-75.9206,-8.881599,-105.5422,-45.491467,0.31409264,-60.09035
OrientationDeg,1676594827404,122331034335216,60.0,-7.0,-29.0
UncalGyro,1676594827412,122331043314708,0.071318515,0.88239485,0.9961685,0.0003453992,-0.0007481519,-0.0032808199
UncalAccel,1676594827412,122331043314708,2.7846475,1.8460627,5.9587264,0.006110925,-0.043260336,-0.038735468
OrientationDeg,1676594827412,122331043314708,59.0,-6.0,-29.0
UncalMag,1676594827414,122331045867687,-74.175995,-8.479,-104.1148,-45.491467,0.31409264,-60.09035
UncalGyro,1676594827421,122331052294262,0.021685716,0.8332202,1.0697777,0.0003453992,-0.0007481519,-0.0032808199
UncalAccel,1676594827422,122331052294262,3.1441689,1.5032908,5.9916277,0.006110925,-0.043260336,-0.038735468
OrientationDeg,1676594827422,122331052294262,59.0,-6.0,-29.0
UncalMag,1676594827425,122331055867443,-75.554596,-8.967,-105.749596,-45.491467,0.31409264,-60.09035
UncalGyro,1676594827431,122331061261912,0.019547688,0.75518215,1.180497,0.0003453992,-0.0007481519,-0.0032808199
UncalAccel,1676594827431,122331061261912,3.3284163,1.2963116,5.9437714,0.006110925,-0.043260336,-0.038735468
OrientationDeg,1676594827431,122331061261912,58.0,-6.0,-29.0
UncalMag,1676594827434,122331065855724,-73.224396,-7.259,-104.8956,-45.491467,0.31409264,-60.09035
UncalGyro,1676594827440,122331070252147,0.07086037,0.57803124,1.3147347,0.0003453992,-0.0007481519,-0.0032808199
UncalAccel,1676594827439,122331070252147,3.6293137,1.4141582,6.026922,0.006110925,-0.043260336,-0.038735468
OrientationDeg,1676594827439,122331070252147,57.0,-7.0,-29.0
UncalMag,1676594827445,122331075867687,-73.224396,-7.259,-104.8956,-45.491467,0.31409264,-60.09035
OrientationDeg,1676594827449,122331079232982,56.0,-7.0,-29.0
UncalGyro,1676594827448,122331079232982,0.15577064,0.3643811,1.415222,0.0003453992,-0.0007481519,-0.0032808199
UncalAccel,1676594827448,122331079232982,3.8793638,1.666601,6.0580287,0.006110925,-0.043260336,-0.038735468
UncalMag,1676594827455,122331085867443,-73.1024,-7.0394,-104.053795,-45.491467,0.31409264,-60.09035
UncalGyro,1676594827457,122331088213328,0.25259277,0.18295415,1.4714217,0.0003453992,-0.0007481519,-0.0032808199
UncalAccel,1676594827457,122331088213328,3.7854455,1.8448663,5.9916277,0.006110925,-0.043260336,-0.038735468
OrientationDeg,1676594827458,122331088213328,55.0,-7.0,-29.0
UncalMag,1676594827464,122331095867443,-73.4562,-6.5148,-103.285194,-45.491467,0.31409264,-60.09035
UncalGyro,1676594827467,122331097191417,0.3388775,0.06291912,1.4978416,0.0003453992,-0.0007481519,-0.0032808199
UncalAccel,1676594827467,122331097191417,3.4887354,2.1391835,5.7248282,0.006110925,-0.043260336,-0.038735468
OrientationDeg,1676594827466,122331097191417,55.0,-8.0,-29.0
UncalMag,1676594827475,122331105867443,-74.8592,-6.3928,-104.8468,-45.491467,0.31409264,-60.09035
UncalGyro,1676594827475,122331106168285,0.39354995,-0.024129177,1.5030339,0.0003453992,-0.0007481519,-0.0032808199
UncalAccel,1676594827476,122331106168285,3.2937205,2.43709,5.1206403,0.006110925,-0.043260336,-0.038735468
OrientationDeg,1676594827476,122331106168285,54.0,-8.0,-29.0
UncalGyro,1676594827485,122331115146068,0.38423425,-0.11301007,1.4880677,0.0003453992,-0.0007481519,-0.0032808199
UncalAccel,1676594827485,122331115146068,3.3212378,2.4699912,4.400999,0.006110925,-0.043260336,-0.038735468
UncalMag,1676594827484,122331115855968,-75.6644,-6.8564,-104.8468,-45.491467,0.31409264,-60.09035
OrientationDeg,1676594827485,122331115146068,53.0,-9.0,-29.0
UncalGyro,1676594827494,122331124133250,0.3043636,-0.24770586,1.4949399,0.0003453992,-0.0007481519,-0.0032808199
UncalAccel,1676594827494,122331124133250,3.4833515,2.1140587,3.827918,0.006110925,-0.043260336,-0.038735468
UncalMag,1676594827495,122331125867199,-74.5542,-6.344,-104.029396,-45.491467,0.31409264,-60.09035
OrientationDeg,1676594827493,122331124133250,52.0,-9.0,-29.0
UncalGyro,1676594827503,122331133114146,0.17165314,-0.47968194,1.5555683,0.0003453992,-0.0007481519,-0.0032808199
UncalAccel,1676594827503,122331133114146,4.2592244,1.2466606,3.7034912,0.006110925,-0.043260336,-0.038735468
OrientationDeg,1676594827503,122331133114146,51.0,-10.0,-29.0
UncalMag,1676594827505,122331135867443,-75.6034,-6.1731997,-103.577995,-45.491467,0.31409264,-60.09035
UncalGyro,1676594827512,122331142086254,0.007788532,-0.75670934,1.7101172,0.0003453992,-0.0007481519,-0.0032808199
UncalAccel,1676594827512,122331142086254,4.759324,0.33260235,4.3968115,0.006110925,-0.043260336,-0.038735468
OrientationDeg,1676594827511,122331142086254,50.0,-11.0,-29.0
UncalMag,1676594827515,122331145867443,-78.1654,-6.6001997,-104.993195,-45.491467,0.31409264,-60.09035
UncalGyro,1676594827521,122331151068981,-0.18432859,-0.97326106,1.9517145,0.0003453992,-0.0007481519,-0.0032808199
UncalAccel,1676594827520,122331151068981,5.0644093,0.2638087,5.2079782,0.006110925,-0.043260336,-0.038735468
OrientationDeg,1676594827520,122331151068981,49.0,-12.0,-28.0
UncalMag,1676594827525,122331155855724,-77.3724,-5.2826,-104.8712,-45.491467,0.31409264,-60.09035
UncalGyro,1676594827530,122331160047557,-0.39293906,-1.1614076,2.150704,0.0003453992,-0.0007481519,-0.0032808199
UncalAccel,1676594827529,122331160047557,5.743971,0.72023964,5.413163,0.006110925,-0.043260336,-0.038735468
UncalMag,1676594827534,122331165867199,-78.848595,-4.5383997,-103.7854,-45.491467,0.31409264,-60.09035
OrientationDeg,1676594827529,122331160047557,47.0,-13.0,-28.0
UncalGyro,1676594827539,122331169027721,-0.6065892,-1.3199271,2.2884538,0.0003453992,-0.0007481519,-0.0032808199
UncalAccel,1676594827539,122331169027721,5.9676995,0.9732806,5.8827543,0.006110925,-0.043260336,-0.038735468
OrientationDeg,1676594827539,122331169027721,46.0,-15.0,-27.0
UncalMag,1676594827545,122331175867199,-78.5558,-3.6234,-102.6142,-45.491467,0.31409264,-60.09035
UncalGyro,1676594827548,122331178007640,-0.81397796,-1.348485,2.3916903,0.0003453992,-0.0007481519,-0.0032808199
UncalAccel,1676594827548,122331178007640,6.218946,1.1162517,6.385247,0.006110925,-0.043260336,-0.038735468
OrientationDeg,1676594827547,122331178007640,45.0,-16.0,-27.0
UncalMag,1676594827554,122331185867443,-79.849,-2.7937999,-103.7732,-45.491467,0.31409264,-60.09035
UncalGyro,1676594827555,122331186975170,-1.0215194,-1.2823589,2.4608707,0.0003453992,-0.0007481519,-0.0032808199
UncalAccel,1676594827555,122331186975170,6.4205413,0.9708878,6.7854466,0.006110925,-0.043260336,-0.038735468
OrientationDeg,1676594827556,122331186975170,44.0,-17.0,-26.0
UncalMag,1676594827564,122331195867687,-79.2512,-0.93939996,-103.1754,-45.491467,0.31409264,-60.09035
UncalGyro,1676594827565,122331195963329,-1.2481505,-1.1123856,2.5120306,0.0003453992,-0.0007481519,-0.0032808199
UncalAccel,1676594827565,122331195963329,6.215357,0.7902297,7.555936,0.006110925,-0.043260336,-0.038735468
OrientationDeg,1676594827564,122331195963329,43.0,-18.0,-25.0
UncalGyro,1676594827573,122331204942394,-1.4705054,-0.97203934,2.5744915,0.0003453992,-0.0007481519,-0.0032808199
UncalAccel,1676594827574,122331204942394,6.7381887,1.2095718,7.584051,0.006110925,-0.043260336,-0.038735468
UncalMag,1676594827575,122331205855968,-82.252396,-0.7686,-102.9924,-45.491467,0.31409264,-60.09035
OrientationDeg,1676594827573,122331204942394,41.0,-19.0,-23.0
UncalGyro,1676594827583,122331213927746,-1.6528486,-1.0563387,2.5631905,0.0003453992,-0.0007481519,-0.0032808199
UncalAccel,1676594827583,122331213927746,8.002197,1.8777676,7.3788667,0.006110925,-0.043260336,-0.038735468
OrientationDeg,1676594827583,122331213927746,40.0,-20.0,-22.0
UncalMag,1676594827584,122331215867443,-82.105995,0.732,-104.370995,-45.491467,0.31409264,-60.09035
UncalGyro,1676594827591,122331222907969,-1.7679968,-1.1690434,2.453693,0.0003453992,-0.0007481519,-0.0032808199
UncalAccel,1676594827592,122331222907969,8.434102,2.431706,8.641679,0.006110925,-0.043260336,-0.038735468
OrientationDeg,1676594827592,122331222907969,39.0,-21.0,-21.0
UncalMag,1676594827595,122331225867199,-82.581795,2.074,-103.8098,-45.491467,0.31409264,-60.09035
UncalGyro,1676594827600,122331231884349,-1.813048,-1.1690434,2.2960896,0.0003453992,-0.0007481519,-0.0032808199
UncalAccel,1676594827600,122331231884349,8.608179,2.7762725,9.702297,0.006110925,-0.043260336,-0.038735468
OrientationDeg,1676594827601,122331231884349,39.0,-22.0,-19.0
UncalMag,1676594827604,122331235867199,-82.35,3.4526,-102.114,-45.491467,0.31409264,-60.09035
UncalGyro,1676594827609,122331240863597,-1.8295414,-1.0823005,2.1665864,0.0003453992,-0.0007481519,-0.0032808199
UncalAccel,1676594827609,122331240863597,8.219346,2.1942184,10.240683,0.006110925,-0.043260336,-0.038735468
OrientationDeg,1676594827610,122331240863597,38.0,-23.0,-18.0
UncalMag,1676594827615,122331245849132,-82.0206,5.1484,-102.626396,-45.491467,0.31409264,-60.09035
UncalGyro,1676594827618,122331249843029,-1.8768835,-0.9421069,2.1415408,0.0003453992,-0.0007481519,-0.0032808199
UncalAccel,1676594827618,122331249843029,7.704889,1.4153546,10.024731,0.006110925,-0.043260336,-0.038735468
OrientationDeg,1676594827618,122331249843029,37.0,-24.0,-17.0
UncalMag,1676594827625,122331255867443,-86.473595,4.4774,-103.0534,-45.491467,0.31409264,-60.09035
UncalGyro,1676594827628,122331258822704,-1.9973767,-0.89568114,2.2508857,0.0003453992,-0.0007481519,-0.0032808199
UncalAccel,1676594827627,122331258822704,7.2293153,1.2693924,9.512068,0.006110925,-0.043260336,-0.038735468
OrientationDeg,1676594827627,122331258822704,37.0,-24.0,-15.0
UncalMag,1676594827635,122331265867443,-85.5586,6.7222,-98.027,-45.491467,0.31409264,-60.09035
UncalGyro,1676594827637,122331267802013,-2.1238258,-0.91813046,2.334727,0.0003453992,-0.0007481519,-0.0032808199
UncalAccel,1676594827636,122331267802013,7.4979095,2.1020947,9.450453,0.006110925,-0.043260336,-0.038735468
OrientationDeg,1676594827637,122331267802013,36.0,-25.0,-14.0
UncalMag,1676594827645,122331275867443,-85.8026,7.7226,-96.7948,-45.491467,0.31409264,-60.09035
UncalGyro,1676594827645,122331276781505,-2.1933117,-0.96577793,2.3051,0.0003453992,-0.0007481519,-0.0032808199
UncalAccel,1676594827645,122331276781505,7.859824,2.728416,9.560523,0.006110925,-0.043260336,-0.038735468
OrientationDeg,1676594827646,122331276781505,35.0,-26.0,-12.0
UncalGyro,1676594827655,122331285760997,-2.179109,-1.0477866,2.1870503,0.0003453992,-0.0007481519,-0.0032808199
UncalAccel,1676594827654,122331285760997,8.102695,3.4025939,9.655638,0.006110925,-0.043260336,-0.038735468
UncalMag,1676594827654,122331285855724,-85.705,9.0524,-96.2092,-45.491467,0.31409264,-60.09035
OrientationDeg,1676594827655,122331285760997,35.0,-26.0,-11.0
UncalGyro,1676594827663,122331294741039,-2.1227567,-1.1937834,2.0129538,0.0003453992,-0.0007481519,-0.0032808199
UncalAccel,1676594827663,122331294741039,7.9627156,3.6526437,9.422338,0.006110925,-0.043260336,-0.038735468
UncalMag,1676594827665,122331295855968,-85.0096,10.8946,-96.880196,-45.491467,0.31409264,-60.09035
OrientationDeg,1676594827664,122331294741039,35.0,-27.0,-9.0
UncalGyro,1676594827672,122331303720897,-2.0715969,-1.3825408,1.87444,0.0003453992,-0.0007481519,-0.0032808199
UncalAccel,1676594827673,122331303720897,7.5667033,3.295515,8.92822,0.006110925,-0.043260336,-0.038735468
OrientationDeg,1676594827673,122331303720897,35.0,-28.0,-8.0
UncalMag,1676594827675,122331305867687,-83.338196,12.7368,-93.7326,-45.491467,0.31409264,-60.09035
UncalGyro,1676594827682,122331312699413,-2.0254765,-1.6029104,1.7979292,0.0003453992,-0.0007481519,-0.0032808199
UncalAccel,1676594827682,122331312699413,7.347162,2.8695927,8.334201,0.006110925,-0.043260336,-0.038735468
OrientationDeg,1676594827682,122331312699413,34.0,-29.0,-7.0
UncalMag,1676594827685,122331315867443,-84.1678,13.6152,-91.9758,-45.491467,0.31409264,-60.09035
UncalGyro,1676594827690,122331321666820,-1.9688187,-1.8506162,1.7518088,0.0003453992,-0.0007481519,-0.0032808199
UncalAccel,1676594827690,122331321666820,7.2562346,2.4526432,7.8263245,0.006110925,-0.043260336,-0.038735468
OrientationDeg,1676594827691,122331321666820,34.0,-30.0,-5.0
UncalMag,1676594827695,122331325867199,-83.692,14.7864,-90.3776,-45.491467,0.31409264,-60.09035
UncalGyro,1676594827699,122331330647045,-1.9081903,-2.1190915,1.7525724,0.0003453992,-0.0007481519,-0.0032808199
UncalAccel,1676594827699,122331330647045,7.025327,1.9268204,7.4123664,0.006110925,-0.043260336,-0.038735468
OrientationDeg,1676594827700,122331330647045,34.0,-31.0,-4.0
UncalMag,1676594827705,122331335867443,-84.3874,16.043,-90.511795,-45.491467,0.31409264,-60.09035
UncalGyro,1676594827708,122331339637951,-1.8606955,-2.3687828,1.813659,0.0003453992,-0.0007481519,-0.0032808199
UncalAccel,1676594827709,122331339637951,6.666404,1.535594,7.16112,0.006110925,-0.043260336,-0.038735468
OrientationDeg,1676594827708,122331339637951,33.0,-32.0,-3.0
UncalMag,1676594827715,122331345867687,-84.423996,17.1898,-89.584595,-45.491467,0.31409264,-60.09035
UncalGyro,1676594827717,122331348614452,-1.8626808,-2.6503916,1.9637791,0.0003453992,-0.0007481519,-0.0032808199
UncalAccel,1676594827718,122331348614452,6.122635,0.9343972,6.259624,0.006110925,-0.043260336,-0.038735468
OrientationDeg,1676594827718,122331348614452,33.0,-34.0,-1.0
UncalMag,1676594827724,122331355867443,-85.4366,18.1658,-87.254395,-45.491467,0.31409264,-60.09035
UncalGyro,1676594827727,122331357596935,-1.9376645,-2.990491,2.234545,0.0003453992,-0.0007481519,-0.0032808199
UncalAccel,1676594827726,122331357596935,5.663811,0.33738798,5.615955,0.006110925,-0.043260336,-0.038735468
OrientationDeg,1676594827726,122331357596935,33.0,-35.0,0.0
UncalMag,1676594827735,122331365867687,-86.754196,19.666399,-86.937195,-45.491467,0.31409264,-60.09035
UncalGyro,1676594827735,122331366576915,-2.022422,-3.3907602,2.5240953,0.0003453992,-0.0007481519,-0.0032808199
UncalAccel,1676594827735,122331366576915,5.5627146,-0.21355942,4.964509,0.006110925,-0.043260336,-0.038735468
OrientationDeg,1676594827736,122331366576915,32.0,-37.0,1.0
UncalGyro,1676594827744,122331375550792,-2.0578523,-3.770413,2.804635,0.0003453992,-0.0007481519,-0.0032808199
UncalAccel,1676594827744,122331375550792,5.503492,-1.1676974,4.916652,0.006110925,-0.043260336,-0.038735468
UncalMag,1676594827745,122331375852306,-87.5106,20.5082,-84.9364,-45.491467,0.31409264,-60.09035
OrientationDeg,1676594827745,122331375550792,32.0,-39.0,2.0
UncalGyro,1676594827754,122331384535472,-2.0392208,-4.056451,3.0349312,0.0003453992,-0.0007481519,-0.0032808199
UncalAccel,1676594827754,122331384535472,5.580661,-2.2085752,5.063811,0.006110925,-0.043260336,-0.038735468
UncalMag,1676594827754,122331385856701,-87.388596,21.9112,-84.2532,-45.491467,0.31409264,-60.09035
OrientationDeg,1676594827754,122331384535472,31.0,-41.0,4.0
UncalGyro,1676594827763,122331393512157,-1.9850066,-4.224744,3.1748195,0.0003453992,-0.0007481519,-0.0032808199
UncalAccel,1676594827762,122331393512157,5.881558,-3.245864,5.293522,0.006110925,-0.043260336,-0.038735468
OrientationDeg,1676594827762,122331393512157,31.0,-43.0,6.0
UncalMag,1676594827765,122331395867687,-88.511,23.1434,-80.8006,-45.491467,0.31409264,-60.09035
UncalGyro,1676594827772,122331402494335,-1.9049833,-4.3463063,3.2699616,0.0003453992,-0.0007481519,-0.0032808199
UncalAccel,1676594827772,122331402494335,6.2554364,-4.115655,5.462216,0.006110925,-0.043260336,-0.038735468
OrientationDeg,1676594827771,122331402494335,30.0,-45.0,8.0
UncalMag,1676594827774,122331405867687,-89.6944,24.2902,-84.058,-45.491467,0.31409264,-60.09035
UncalGyro,1676594827781,122331411476817,-1.8132007,-4.4335074,3.374725,0.0003453992,-0.0007481519,-0.0032808199
UncalAccel,1676594827781,122331411476817,6.8979096,-4.666004,5.7577295,0.006110925,-0.043260336,-0.038735468
OrientationDeg,1676594827780,122331411476817,30.0,-48.0,10.0
UncalMag,1676594827785,122331415855968,-87.8278,26.5472,-77.714,-45.491467,0.31409264,-60.09035
UncalGyro,1676594827790,122331420441417,-1.7464638,-4.4420595,3.464675,0.0003453992,-0.0007481519,-0.0032808199
UncalAccel,1676594827789,122331420441417,7.4123664,-5.076373,6.1585274,0.006110925,-0.043260336,-0.038735468
OrientationDeg,1676594827789,122331420441417,29.0,-50.0,12.0
UncalMag,1676594827795,122331425858165,-88.181595,27.4378,-76.2744,-45.491467,0.31409264,-60.09035
UncalGyro,1676594827798,122331429432811,-1.7278323,-4.3537893,3.5091155,0.0003453992,-0.0007481519,-0.0032808199
UncalAccel,1676594827799,122331429432811,7.6977105,-5.577071,6.5001025,0.006110925,-0.043260336,-0.038735468
OrientationDeg,1676594827799,122331429432811,29.0,-52.0,14.0
UncalMag,1676594827805,122331435867443,-86.0954,29.511799,-72.7486,-45.491467,0.31409264,-60.09035
UncalGyro,1676594827808,122331438408214,-1.757612,-4.201073,3.530801,0.0003453992,-0.0007481519,-0.0032808199
UncalAccel,1676594827808,122331438408214,8.001,-6.2548385,6.8602223,0.006110925,-0.043260336,-0.038735468
OrientationDeg,1676594827807,122331438408214,29.0,-54.0,16.0
UncalMag,1676594827815,122331445867443,-83.0698,32.1592,-69.015396,-45.491467,0.31409264,-60.09035
UncalGyro,1676594827817,122331447392223,-1.7983873,-4.049884,3.5639405,0.0003453992,-0.0007481519,-0.0032808199
UncalAccel,1676594827817,122331447392223,8.275578,-7.0857463,6.914061,0.006110925,-0.043260336,-0.038735468
OrientationDeg,1676594827816,122331447392223,28.0,-56.0,18.0
UncalMag,1676594827825,122331455867443,-84.5704,32.7936,-65.9654,-45.491467,0.31409264,-60.09035
UncalGyro,1676594827825,122331456375987,-1.8194622,-3.949702,3.595553,0.0003453992,-0.0007481519,-0.0032808199
UncalAccel,1676594827825,122331456375987,8.626724,-7.7976108,7.088737,0.006110925,-0.043260336,-0.038735468
OrientationDeg,1676594827825,122331456375987,28.0,-58.0,20.0
UncalGyro,1676594827835,122331465350841,-1.8020525,-3.926947,3.5871534,0.0003453992,-0.0007481519,-0.0032808199
UncalAccel,1676594827835,122331465350841,9.418748,-8.329415,7.0558357,0.006110925,-0.043260336,-0.038735468
UncalMag,1676594827835,122331465855968,-85.278,33.367,-66.49,-45.491467,0.31409264,-60.09035
OrientationDeg,1676594827834,122331465350841,28.0,-60.0,22.0
UncalGyro,1676594827843,122331474330333,-1.7278323,-4.004222,3.499036,0.0003453992,-0.0007481519,-0.0032808199
UncalAccel,1676594827843,122331474330333,10.12822,-8.626724,6.7812595,0.006110925,-0.043260336,-0.038735468
UncalMag,1676594827844,122331475867443,-84.9608,33.855,-64.782,-45.491467,0.31409264,-60.09035
OrientationDeg,1676594827843,122331474330333,28.0,-62.0,24.0
UncalGyro,1676594827853,122331483310070,-1.5819882,-4.3003387,3.3883169,0.0003453992,-0.0007481519,-0.0032808199
UncalAccel,1676594827853,122331483310070,10.643873,-8.754142,6.4492555,0.006110925,-0.043260336,-0.038735468
UncalMag,1676594827855,122331485867687,-83.4724,36.051,-61.2196,-45.491467,0.31409264,-60.09035
OrientationDeg,1676594827852,122331483310070,28.0,-64.0,26.0
UncalGyro,1676594827861,122331492286144,-1.3651311,-4.807815,3.3423493,0.0003453992,-0.0007481519,-0.0032808199
UncalAccel,1676594827862,122331492286144,11.117652,-9.189037,6.4157557,0.006110925,-0.043260336,-0.038735468
OrientationDeg,1676594827862,122331492286144,29.0,-66.0,28.0
UncalMag,1676594827865,122331495867687,-83.57,35.8802,-60.2314,-45.491467,0.31409264,-60.09035
UncalGyro,1676594827871,122331501268810,-1.0939069,-5.247027,3.5158348,0.0003453992,-0.0007481519,-0.0032808199
UncalAccel,1676594827870,122331501268810,11.596217,-10.970493,7.176075,0.006110925,-0.043260336,-0.038735468
OrientationDeg,1676594827871,122331501268810,29.0,-69.0,30.0
UncalMag,1676594827874,122331505856212,-82.6916,37.3442,-59.255398,-45.491467,0.31409264,-60.09035
UncalGyro,1676594827880,122331510251719,-0.657291,-5.7980275,3.868915,0.0003453992,-0.0007481519,-0.0032808199
UncalAccel,1676594827879,122331510251719,12.0227375,-12.315858,6.5228343,0.006110925,-0.043260336,-0.038735468
OrientationDeg,1676594827879,122331510251719,29.0,-72.0,32.0
UncalMag,1676594827884,122331515872326,-80.080795,38.8936,-56.242,-45.491467,0.31409264,-60.09035
UncalGyro,1676594827889,122331519216137,-0.048563786,-6.426455,4.2012258,0.0003453992,-0.0007481519,-0.0032808199
UncalAccel,1676594827889,122331519216137,12.513266,-12.1352005,8.918648,0.006110925,-0.043260336,-0.038735468
OrientationDeg,1676594827888,122331519216137,28.0,-75.0,34.0
UncalMag,1676594827895,122331525859630,-79.2756,39.5402,-55.9736,-45.491467,0.31409264,-60.09035
UncalGyro,1676594827898,122331528207592,0.60231316,-6.882466,4.3111815,0.0003453992,-0.0007481519,-0.0032808199
UncalAccel,1676594827897,122331528207592,12.872787,-10.966905,11.204392,0.006110925,-0.043260336,-0.038735468
OrientationDeg,1676594827897,122331528207592,28.0,-78.0,36.0
UncalMag,1676594827905,122331535867199,-75.9084,41.2726,-51.8378,-45.491467,0.31409264,-60.09035
UncalGyro,1676594827906,122331537186657,1.4225525,-7.0970325,4.387845,0.0003453992,-0.0007481519,-0.0032808199
UncalAccel,1676594827907,122331537186657,12.816556,-10.884352,13.0055895,0.006110925,-0.043260336,-0.038735468
OrientationDeg,1676594827907,122331537186657,26.0,-80.0,38.0
UncalMag,1676594827914,122331545867687,-70.699,43.5906,-49.3124,-45.491467,0.31409264,-60.09035
UncalGyro,1676594827915,122331546163341,2.440254,-7.057479,4.5291076,0.0003453992,-0.0007481519,-0.0032808199
UncalAccel,1676594827915,122331546163341,12.850654,-10.960922,13.791632,0.006110925,-0.043260336,-0.038735468
OrientationDeg,1676594827915,122331546163341,24.0,-83.0,40.0
UncalGyro,1676594827924,122331555145580,3.4578028,-6.7825894,4.6616654,0.0003453992,-0.0007481519,-0.0032808199
UncalAccel,1676594827925,122331555145580,12.909278,-10.621141,13.040883,0.006110925,-0.043260336,-0.038735468
UncalMag,1676594827925,122331555857433,-67.344,45.481598,-48.8976,-45.491467,0.31409264,-60.09035
OrientationDeg,1676594827925,122331555145580,22.0,-84.0,43.0
UncalGyro,1676594827933,122331564127574,4.255287,-6.461427,4.750088,0.0003453992,-0.0007481519,-0.0032808199
UncalAccel,1676594827934,122331564127574,12.654443,-10.481161,10.810175,0.006110925,-0.043260336,-0.038735468
OrientationDeg,1676594827934,122331564127574,18.0,-85.0,45.0
UncalMag,1676594827935,122331565867199,-65.440796,46.8602,-51.642597,-45.491467,0.31409264,-60.09035
OrientationDeg,1676594827943,122331573104686,15.0,-85.0,47.0
UncalGyro,1676594827943,122331573104686,4.812855,-6.056729,4.822781,0.0003453992,-0.0007481519,-0.0032808199
UncalAccel,1676594827942,122331573104686,12.346367,-10.916656,8.766704,0.006110925,-0.043260336,-0.038735468
UncalMag,1676594827945,122331575867443,-62.463997,48.0924,-56.6812,-45.491467,0.31409264,-60.09035
OrientationDeg,1676594827952,122331582082531,10.0,-85.0,49.0
UncalGyro,1676594827951,122331582082531,5.1286716,-5.5666623,4.913342,0.0003453992,-0.0007481519,-0.0032808199
UncalAccel,1676594827951,122331582082531,11.806187,-11.100903,6.895517,0.006110925,-0.043260336,-0.038735468
UncalMag,1676594827955,122331585867199,-61.7076,48.604797,-58.4502,-45.491467,0.31409264,-60.09035
UncalGyro,1676594827961,122331591061107,5.2045717,-5.001765,4.975192,0.0003453992,-0.0007481519,-0.0032808199
UncalAccel,1676594827961,122331591061107,11.738589,-10.995618,5.2893343,0.006110925,-0.043260336,-0.038735468
OrientationDeg,1676594827960,122331591061107,6.0,-84.0,52.0
UncalMag,1676594827964,122331595855724,-58.926,49.6662,-60.585197,-45.491467,0.31409264,-60.09035
UncalGyro,1676594827969,122331600045238,5.1111097,-4.41625,4.9715266,0.0003453992,-0.0007481519,-0.0032808199
UncalAccel,1676594827969,122331600045238,12.035299,-10.98844,4.066004,0.006110925,-0.043260336,-0.038735468
OrientationDeg,1676594827970,122331600045238,1.0,-82.0,54.0
UncalMag,1676594827974,122331605863537,-57.8036,49.9712,-63.501,-45.491467,0.31409264,-60.09035
UncalGyro,1676594827979,122331609017039,4.9350276,-3.8496728,4.939151,0.0003453992,-0.0007481519,-0.0032808199
UncalAccel,1676594827978,122331609017039,12.550953,-11.476576,3.1507492,0.006110925,-0.043260336,-0.038735468
OrientationDeg,1676594827978,122331609017039,356.0,-80.0,56.0
UncalMag,1676594827985,122331615870861,-53.253,50.7154,-65.2334,-45.491467,0.31409264,-60.09035
UncalGyro,1676594827988,122331618002208,4.699081,-3.4190128,4.872414,0.0003453992,-0.0007481519,-0.0032808199
UncalAccel,1676594827988,122331618002208,12.443276,-11.72543,2.4340987,0.006110925,-0.043260336,-0.038735468
