# 
# Header Description:
# 
# Version: v3.0.5.6 Platform: 13 Manufacturer: Google Model: Pixel 6
# 
# Raw,utcTimeMillis,TimeNanos,LeapSecond,TimeUncertaintyNanos,FullBiasNanos,BiasNanos,BiasUncertaintyNanos,DriftNanosPerSecond,DriftUncertaintyNanosPerSecond,HardwareClockDiscontinuityCount,Svid,TimeOffsetNanos,State,ReceivedSvTimeNanos,ReceivedSvTimeUncertaintyNanos,Cn0DbHz,PseudorangeRateMetersPerSecond,PseudorangeRateUncertaintyMetersPerSecond,AccumulatedDeltaRangeState,AccumulatedDeltaRangeMeters,AccumulatedDeltaRangeUncertaintyMeters,CarrierFrequencyHz,CarrierCycles,CarrierPhase,CarrierPhaseUncertainty,MultipathIndicator,SnrInDb,ConstellationType,AgcDb,BasebandCn0DbHz,FullInterSignalBiasNanos,FullInterSignalBiasUncertaintyNanos,SatelliteInterSignalBiasNanos,SatelliteInterSignalBiasUncertaintyNanos,CodeType,ChipsetElapsedRealtimeNanos
# 
# UncalAccel,utcTimeMillis,elapsedRealtimeNanos,UncalAccelXMps2,UncalAccelYMps2,UncalAccelZMps2,BiasXMps2,BiasYMps2,BiasZMps2
# 
# Accel,utcTimeMillis,elapsedRealtimeNanos,AccelXMps2,AccelYMps2,AccelZMps2
# 
# UncalGyro,utcTimeMillis,elapsedRealtimeNanos,UncalGyroXRadPerSec,UncalGyroYRadPerSec,UncalGyroZRadPerSec,DriftXRadPerSec,DriftYRadPerSec,DriftZRadPerSec
# 
# Gyro,utcTimeMillis,elapsedRealtimeNanos,GyroXRadPerSec,GyroYRadPerSec,GyroZRadPerSec
# 
# UncalMag,utcTimeMillis,elapsedRealtimeNanos,UncalMagXMicroT,UncalMagYMicroT,UncalMagZMicroT,BiasXMicroT,BiasYMicroT,BiasZMicroT
# 
# Mag,utcTimeMillis,elapsedRealtimeNanos,MagXMicroT,MagYMicroT,MagZMicroT
# 
# OrientationDeg,utcTimeMillis,elapsedRealtimeNanos,yawDeg,rollDeg,pitchDeg
# 
# Fix,Provider,LatitudeDegrees,LongitudeDegrees,AltitudeMeters,SpeedMps,AccuracyMeters,BearingDegrees,UnixTimeMillis,SpeedAccuracyMps,BearingAccuracyDegrees,elapsedRealtimeNanos,VerticalAccuracyMeters
# 
# Nav,Svid,Type,Status,MessageId,Sub-messageId,Data(Bytes)
# 
# Status,UnixTimeMillis,SignalCount,SignalIndex,ConstellationType,Svid,CarrierFrequencyHz,Cn0DbHz,AzimuthDegrees,ElevationDegrees,UsedInFix,HasAlmanacData,HasEphemerisData,BasebandCn0DbHz
# 
UncalGyro,1676594984743,122488373327159,-0.011453724,0.12736541,-0.025809057,0.0003451123,-0.00074430334,-0.0032802918
UncalGyro,1676594984751,122488382312145,-0.02611449,0.5920811,0.1611157,0.0003451123,-0.00074430334,-0.0032802918
UncalAccel,1676594984742,122488373327159,-0.7286145,1.6977077,12.561721,0.006110925,-0.043260336,-0.038735468
UncalAccel,1676594984751,122488382312145,-0.8327023,1.7126628,12.318251,0.006110925,-0.043260336,-0.038735468
UncalMag,1676594984744,122488375856456,-70.7966,-13.0784,-104.505196,-45.491467,0.31409264,-60.09035
UncalMag,1676594984754,122488385857189,-69.2594,-11.9438,-104.2612,-45.491467,0.31409264,-60.09035
UncalGyro,1676594984760,122488391285594,-0.07269296,0.9421069,0.3903429,0.0003451123,-0.00074430334,-0.0032802918
UncalGyro,1676594984770,122488400263500,-0.11362094,1.1163563,0.62018096,0.0003451123,-0.00074430334,-0.0032802918
UncalAccel,1676594984761,122488391285594,-0.9302098,1.5643078,11.559128,0.006110925,-0.043260336,-0.038735468
UncalAccel,1676594984770,122488400263500,-0.9804591,1.8999012,10.779068,0.006110925,-0.043260336,-0.038735468
OrientationDeg,1676594984743,122488373327159,90.0,3.0,-20.0
OrientationDeg,1676594984761,122488391285594,90.0,4.0,-20.0
UncalGyro,1676594984779,122488409245434,-0.11866058,1.1705705,0.7910705,0.0003451123,-0.00074430334,-0.0032802918
UncalAccel,1676594984779,122488409245434,-1.0654043,2.4227328,10.37169,0.006110925,-0.043260336,-0.038735468
OrientationDeg,1676594984779,122488409245434,89.0,5.0,-20.0
UncalMag,1676594984765,122488395861828,-70.089,-12.2244,-104.187996,-45.491467,0.31409264,-60.09035
UncalMag,1676594984775,122488405856456,-75.0788,-13.8348,-107.6894,-45.491467,0.31409264,-60.09035
UncalMag,1676594984785,122488415856212,-77.128395,-14.5546,-108.0432,-45.491467,0.31409264,-60.09035
UncalGyro,1676594984788,122488418223827,-0.088728175,1.237613,0.88224214,0.0003451123,-0.00074430334,-0.0032802918
UncalAccel,1676594984788,122488418223827,-1.0869397,2.6482565,10.24846,0.006110925,-0.043260336,-0.038735468
OrientationDeg,1676594984788,122488418223827,88.0,5.0,-20.0
UncalMag,1676594984795,122488425868175,-75.1398,-13.6152,-106.8842,-45.491467,0.31409264,-60.09035
UncalGyro,1676594984797,122488427211681,-0.00290161,1.2082914,0.88040954,0.0003451123,-0.00074430334,-0.0032802918
UncalAccel,1676594984797,122488427211681,-0.48454657,3.12383,9.686745,0.006110925,-0.043260336,-0.038735468
OrientationDeg,1676594984797,122488427211681,88.0,6.0,-20.0
UncalMag,1676594984805,122488435856701,-75.3838,-13.883599,-108.6166,-45.491467,0.31409264,-60.09035
UncalGyro,1676594984806,122488436184337,0.12095132,1.0303769,0.7684685,0.0003451123,-0.00074430334,-0.0032802918
UncalAccel,1676594984805,122488436184337,-0.5808577,3.1770704,8.924032,0.006110925,-0.043260336,-0.038735468
OrientationDeg,1676594984805,122488436184337,87.0,6.0,-20.0
UncalGyro,1676594984815,122488445163280,0.30711251,0.7319693,0.6038403,0.0003451123,-0.00074430334,-0.0032802918
UncalAccel,1676594984815,122488445163280,-0.5341976,3.5120654,8.740383,0.006110925,-0.043260336,-0.038735468
UncalMag,1676594984814,122488445855968,-74.0662,-14.1032,-106.2864,-45.491467,0.31409264,-60.09035
OrientationDeg,1676594984814,122488445163280,87.0,6.0,-20.0
UncalGyro,1676594984824,122488454146068,0.53985214,0.49037206,0.4540256,0.0003451123,-0.00074430334,-0.0032802918
UncalAccel,1676594984824,122488454146068,-0.7292127,3.8201413,9.09811,0.006110925,-0.043260336,-0.038735468
OrientationDeg,1676594984824,122488454146068,87.0,7.0,-20.0
UncalMag,1676594984825,122488455858898,-74.2248,-13.724999,-107.4942,-45.491467,0.31409264,-60.09035
UncalGyro,1676594984832,122488463122631,0.78542,0.29336804,0.33353242,0.0003451123,-0.00074430334,-0.0032802918
UncalAccel,1676594984832,122488463122631,-0.9236295,3.970291,9.088538,0.006110925,-0.043260336,-0.038735468
OrientationDeg,1676594984832,122488463122631,87.0,7.0,-21.0
UncalMag,1676594984835,122488465856212,-74.3834,-13.847,-108.262794,-45.491467,0.31409264,-60.09035
UncalGyro,1676594984842,122488472103587,1.0144944,0.063988134,0.22434026,0.0003451123,-0.00074430334,-0.0032802918
UncalAccel,1676594984842,122488472103587,-0.9804591,3.9224346,9.045467,0.006110925,-0.043260336,-0.038735468
OrientationDeg,1676594984841,122488472103587,87.0,7.0,-21.0
UncalMag,1676594984845,122488475858898,-72.9682,-13.883599,-107.0306,-45.491467,0.31409264,-60.09035
UncalGyro,1676594984851,122488481081127,1.1835514,-0.23991732,0.105832405,0.0003451123,-0.00074430334,-0.0032802918
UncalAccel,1676594984851,122488481081127,-0.9086744,3.9026937,8.864211,0.006110925,-0.043260336,-0.038735468
OrientationDeg,1676594984851,122488481081127,87.0,7.0,-22.0
UncalMag,1676594984854,122488485855968,-71.821396,-13.883599,-108.579994,-45.491467,0.31409264,-60.09035
UncalGyro,1676594984859,122488490060741,1.2212723,-0.58123827,-0.032070424,0.0003451123,-0.00074430334,-0.0032802918
UncalAccel,1676594984860,122488490060741,-0.7920243,3.9308095,8.440681,0.006110925,-0.043260336,-0.038735468
OrientationDeg,1676594984860,122488490060741,87.0,6.0,-22.0
UncalMag,1676594984864,122488495855968,-74.8226,-15.2866,-112.3742,-45.491467,0.31409264,-60.09035
UncalGyro,1676594984869,122488499044627,1.0871874,-0.91736686,-0.17608191,0.0003451123,-0.00074430334,-0.0032802918
UncalAccel,1676594984868,122488499044627,-0.5617151,3.8811584,8.084151,0.006110925,-0.043260336,-0.038735468
OrientationDeg,1676594984868,122488499044627,87.0,6.0,-23.0
UncalMag,1676594984875,122488505855480,-73.4074,-14.871799,-107.140396,-45.491467,0.31409264,-60.09035
UncalGyro,1676594984877,122488508033947,0.84116143,-1.2147056,-0.30909783,0.0003451123,-0.00074430334,-0.0032802918
UncalAccel,1676594984878,122488508033947,0.46959144,3.2566316,7.7760754,0.006110925,-0.043260336,-0.038735468
OrientationDeg,1676594984877,122488508033947,87.0,5.0,-23.0
UncalMag,1676594984885,122488515856456,-70.0768,-14.505799,-104.005,-45.491467,0.31409264,-60.09035
UncalGyro,1676594984887,122488517000010,0.59315014,-1.6145169,-0.4792238,0.0003451123,-0.00074430334,-0.0032802918
UncalAccel,1676594984886,122488517000010,1.8903298,3.0179477,7.4237323,0.006110925,-0.043260336,-0.038735468
OrientationDeg,1676594984886,122488517000010,87.0,5.0,-24.0
UncalMag,1676594984895,122488525855724,-75.420395,-16.7262,-104.8468,-45.491467,0.31409264,-60.09035
UncalGyro,1676594984894,122488525977000,0.41783184,-1.9255999,-0.63606346,0.0003451123,-0.00074430334,-0.0032802918
UncalAccel,1676594984894,122488525977000,1.9746768,3.1423743,7.925029,0.006110925,-0.043260336,-0.038735468
OrientationDeg,1676594984895,122488525977000,88.0,4.0,-24.0
UncalGyro,1676594984903,122488534961254,0.32406402,-2.1085541,-0.80878556,0.0003451123,-0.00074430334,-0.0032802918
UncalAccel,1676594984904,122488534961254,2.1050856,3.0406795,8.382656,0.006110925,-0.043260336,-0.038735468
UncalMag,1676594984905,122488535860607,-71.662796,-14.8596,-104.212395,-45.491467,0.31409264,-60.09035
OrientationDeg,1676594984904,122488534961254,88.0,3.0,-24.0
UncalGyro,1676594984913,122488543938671,0.27687466,-2.1830797,-0.9935723,0.0003451123,-0.00074430334,-0.0032802918
UncalAccel,1676594984913,122488543938671,2.155335,2.9210382,8.635098,0.006110925,-0.043260336,-0.038735468
OrientationDeg,1676594984912,122488543938671,89.0,2.0,-24.0
UncalMag,1676594984915,122488545857433,-71.919,-15.2866,-102.9924,-45.491467,0.31409264,-60.09035
UncalGyro,1676594984922,122488552917919,0.24037547,-2.143068,-1.181108,0.0003451123,-0.00074430334,-0.0032802918
UncalAccel,1676594984922,122488552917919,2.0632114,2.9168508,8.906086,0.006110925,-0.043260336,-0.038735468
OrientationDeg,1676594984922,122488552917919,90.0,1.0,-24.0
UncalMag,1676594984925,122488555857189,-72.0654,-15.921,-101.0526,-45.491467,0.31409264,-60.09035
UncalGyro,1676594984930,122488561897655,0.19898935,-2.0001256,-1.3677273,0.0003451123,-0.00074430334,-0.0032802918
UncalAccel,1676594984930,122488561897655,1.8717855,2.9515467,9.105886,0.006110925,-0.043260336,-0.038735468
OrientationDeg,1676594984930,122488561897655,90.0,0.0,-24.0
UncalMag,1676594984935,122488565859630,-72.2484,-16.1162,-101.809,-45.491467,0.31409264,-60.09035
UncalGyro,1676594984939,122488570876232,0.14935656,-1.7591392,-1.5491543,0.0003451123,-0.00074430334,-0.0032802918
UncalAccel,1676594984939,122488570876232,1.5894325,3.0346973,9.419347,0.006110925,-0.043260336,-0.038735468
OrientationDeg,1676594984939,122488570876232,91.0,0.0,-24.0
UncalMag,1676594984945,122488575867687,-73.0902,-16.2016,-103.9562,-45.491467,0.31409264,-60.09035
UncalGyro,1676594984948,122488579858837,0.10995574,-1.416902,-1.713477,0.0003451123,-0.00074430334,-0.0032802918
UncalAccel,1676594984949,122488579858837,1.1407782,3.0903304,9.693923,0.006110925,-0.043260336,-0.038735468
OrientationDeg,1676594984949,122488579858837,92.0,0.0,-24.0
UncalMag,1676594984954,122488585855968,-72.919395,-16.7628,-102.809395,-45.491467,0.31409264,-60.09035
UncalGyro,1676594984957,122488588837780,0.06658431,-0.98868537,-1.847562,0.0003451123,-0.00074430334,-0.0032802918
UncalAccel,1676594984957,122488588837780,0.5401797,3.3146574,9.954741,0.006110925,-0.043260336,-0.038735468
OrientationDeg,1676594984958,122488588837780,93.0,0.0,-24.0
UncalMag,1676594984965,122488595865246,-73.3708,-17.604599,-104.5784,-45.491467,0.31409264,-60.09035
UncalGyro,1676594984966,122488597814464,-0.0777326,-0.3313944,-1.8277088,0.0003451123,-0.00074430334,-0.0032802918
UncalAccel,1676594984966,122488597814464,-2.9306095,3.9684963,10.152148,0.006110925,-0.043260336,-0.038735468
OrientationDeg,1676594984966,122488597814464,94.0,0.0,-24.0
UncalMag,1676594984975,122488605856945,-71.6262,-17.0312,-102.5288,-45.491467,0.31409264,-60.09035
UncalGyro,1676594984976,122488606794384,-0.14462234,0.17363845,-1.0642799,0.0003451123,-0.00074430334,-0.0032802918
UncalAccel,1676594984976,122488606794384,-11.543574,4.64746,9.039486,0.006110925,-0.043260336,-0.038735468
OrientationDeg,1676594984976,122488606794384,95.0,0.0,-24.0
UncalGyro,1676594984985,122488615778514,-0.23655757,0.3819435,0.081855945,0.0003451123,-0.00074430334,-0.0032802918
UncalAccel,1676594984985,122488615778514,-9.716655,4.880162,7.176075,0.006110925,-0.043260336,-0.038735468
UncalMag,1676594984984,122488615863292,-72.455795,-17.921799,-103.2974,-45.491467,0.31409264,-60.09035
OrientationDeg,1676594984984,122488615778514,95.0,0.0,-24.0
UncalGyro,1676594984994,122488624757152,-0.48487428,0.22693644,0.7315111,0.0003451123,-0.00074430334,-0.0032802918
UncalAccel,1676594984993,122488624757152,-3.0993035,3.3487554,4.7198424,0.006110925,-0.043260336,-0.038735468
UncalMag,1676594984994,122488625855724,-70.9186,-16.7018,-105.7862,-45.491467,0.31409264,-60.09035
OrientationDeg,1676594984993,122488624757152,94.0,0.0,-24.0
UncalGyro,1676594985002,122488633732921,-0.7499898,-0.18784106,0.8196284,0.0003451123,-0.00074430334,-0.0032802918
UncalAccel,1676594985003,122488633732921,0.13519448,2.341377,4.596014,0.006110925,-0.043260336,-0.038735468
OrientationDeg,1676594985003,122488633732921,94.0,0.0,-24.0
UncalMag,1676594985005,122488635856701,-71.6384,-16.3724,-106.4694,-45.491467,0.31409264,-60.09035
UncalGyro,1676594985012,122488642715404,-0.8912524,-0.49281552,0.7309003,0.0003451123,-0.00074430334,-0.0032802918
UncalAccel,1676594985011,122488642715404,0.587438,2.3587248,6.7519474,0.006110925,-0.043260336,-0.038735468
OrientationDeg,1676594985011,122488642715404,93.0,0.0,-23.0
UncalMag,1676594985015,122488645858165,-73.139,-16.9946,-105.9448,-45.491467,0.31409264,-60.09035
UncalGyro,1676594985020,122488651693920,-0.87369,-0.56214875,0.6921103,0.0003451123,-0.00074430334,-0.0032802918
UncalAccel,1676594985020,122488651693920,0.2727818,2.510071,8.839087,0.006110925,-0.043260336,-0.038735468
OrientationDeg,1676594985021,122488651693920,93.0,0.0,-23.0
UncalMag,1676594985024,122488655860119,-75.3472,-16.8482,-108.0554,-45.491467,0.31409264,-60.09035
UncalGyro,1676594985029,122488660671702,-0.71883565,-0.5177083,0.7441866,0.0003451123,-0.00074430334,-0.0032802918
UncalAccel,1676594985030,122488660671702,0.09810573,2.708077,9.796814,0.006110925,-0.043260336,-0.038735468
OrientationDeg,1676594985029,122488660671702,93.0,0.0,-22.0
UncalMag,1676594985035,122488665867687,-73.700195,-16.0552,-106.078995,-45.491467,0.31409264,-60.09035
UncalGyro,1676594985038,122488669665782,-0.51159966,-0.4894558,0.82619524,0.0003451123,-0.00074430334,-0.0032802918
UncalAccel,1676594985038,122488669665782,0.5461618,3.00718,9.342776,0.006110925,-0.043260336,-0.038735468
OrientationDeg,1676594985039,122488669665782,92.0,-1.0,-22.0
UncalMag,1676594985044,122488675867443,-73.0536,-14.871799,-104.5662,-45.491467,0.31409264,-60.09035
UncalGyro,1676594985047,122488678645457,-0.32375857,-0.569021,0.90026265,0.0003451123,-0.00074430334,-0.0032802918
UncalAccel,1676594985047,122488678645457,0.7537391,3.1310084,8.973084,0.006110925,-0.043260336,-0.038735468
OrientationDeg,1676594985048,122488678645457,92.0,-1.0,-22.0
UncalMag,1676594985055,122488685867443,-74.2492,-14.8108,-104.554,-45.491467,0.31409264,-60.09035
UncalGyro,1676594985056,122488687622631,-0.18127427,-0.6808093,0.9418015,0.0003451123,-0.00074430334,-0.0032802918
UncalAccel,1676594985056,122488687622631,0.7686943,3.1543384,8.906086,0.006110925,-0.043260336,-0.038735468
OrientationDeg,1676594985056,122488687622631,91.0,-2.0,-22.0
UncalMag,1676594985065,122488695867687,-73.236595,-13.908,-103.5292,-45.491467,0.31409264,-60.09035
UncalGyro,1676594985065,122488696590160,-0.10338894,-0.76831573,0.94134337,0.0003451123,-0.00074430334,-0.0032802918
UncalAccel,1676594985065,122488696590160,0.80757767,3.2596226,8.883354,0.006110925,-0.043260336,-0.038735468
OrientationDeg,1676594985065,122488696590160,91.0,-2.0,-22.0
UncalGyro,1676594985075,122488705581371,-0.086437434,-0.76923203,0.91232723,0.0003451123,-0.00074430334,-0.0032802918
UncalAccel,1676594985075,122488705581371,0.7220342,3.3415768,8.98804,0.006110925,-0.043260336,-0.038735468
UncalMag,1676594985074,122488705865490,-75.701,-14.4326,-103.7,-45.491467,0.31409264,-60.09035
OrientationDeg,1676594985075,122488705581371,90.0,-3.0,-21.0
Raw,1676594984000,487836000000,,,-1360629714164246831,0.0,7.260675729438909,295.0,1.0,21,2,0.0,16431,435001919672103,28,33.78306198120117,-544.1987754418658,0.6218726288876679,16,-269948.03701496555,340282346638528860000000000000000000000,1575420030,,,,1,,1,,29.58306312561035,0.0,1.0,0.0,1.0,C,122488609631000
Raw,1676594984000,487836000000,,,-1360629714164246831,0.0,7.260675729438909,295.0,1.0,21,6,0.0,16431,435001927612419,13,45.655025482177734,576.9312599442642,0.15,16,272401.71748049813,340282346638528860000000000000000000000,1575420030,,,,0,,1,,41.45502471923828,0.320142130558394,1.0,0.320142130558394,1.0,C,122488609631000
Raw,1676594984000,487836000000,,,-1360629714164246831,0.0,7.260675729438909,295.0,1.0,21,11,0.0,16431,435001932302617,13,42.71735382080078,70.39961877398721,0.15,16,20345.272945457535,340282346638528860000000000000000000000,1575420030,,,,0,,1,,38.51735305786133,-0.20372681261465636,1.0,-0.20372681261465636,1.0,C,122488609631000
Raw,1676594984000,487836000000,,,-1360629714164246831,0.0,7.260675729438909,295.0,1.0,21,12,0.0,16431,435001932012041,13,42.85786819458008,-146.9228921557267,0.15,16,-80867.14916015728,340282346638528860000000000000000000000,1575420030,,,,0,,1,,38.657867431640625,-0.6984919076624261,1.0,-0.6984919076624261,1.0,C,122488609631000
Raw,1676594984000,487836000000,,,-1360629714164246831,0.0,7.260675729438909,295.0,1.0,21,19,0.0,16431,435001923176007,11,47.356651306152344,601.4198457804687,0.15,16,291747.4090858374,340282346638528860000000000000000000000,1575420030,,,,0,,1,,43.15665054321289,0.0,1.0,0.0,1.0,C,122488609631000
Raw,1676594984000,487836000000,,,-1360629714164246831,0.0,7.260675729438909,295.0,1.0,21,20,0.0,16431,435001923967611,13,42.68337631225586,-432.89426571214995,0.15,16,-215948.3902836871,340282346638528860000000000000000000000,1575420030,,,,0,,1,,38.483375549316406,0.0,1.0,0.0,1.0,C,122488609631000
Raw,1676594984000,487836000000,,,-1360629714164246831,0.0,7.260675729438909,295.0,1.0,21,24,0.0,16431,435001924926537,32,32.07284164428711,624.0926546629639,0.6961269186429315,16,297484.21147430857,340282346638528860000000000000000000000,1575420030,,,,0,,1,,27.872840881347656,-0.20372681261465636,1.0,-0.20372681261465636,1.0,C,122488609631000
Raw,1676594984000,487836000000,,,-1360629714164246831,0.0,7.260675729438909,295.0,1.0,21,25,0.0,16431,435001927520253,18,39.35359573364258,-425.4759804727646,0.15,16,-212790.9552622151,340282346638528860000000000000000000000,1575420030,,,,0,,1,,35.153594970703125,-2.0372682255564105,1.0,-2.0372682255564105,1.0,C,122488609631000
Raw,1676594984000,487836000000,,,-1360629714164246831,0.0,7.260675729438909,295.0,1.0,21,29,0.0,16431,435001919410300,38,30.13088607788086,-399.11333668219686,0.7860598040716669,16,-197169.6686608613,340282346638528860000000000000000000000,1575420030,,,,1,,1,,25.93088722229004,-0.6984919076624261,1.0,-0.6984919076624261,1.0,C,122488609631000
Raw,1676594984000,487836000000,,,-1360629714164246831,0.0,7.260675729438909,295.0,1.0,21,6,0.0,81921,435001927612982,10,44.25181579589844,576.8986089509153,0.15,16,274021.9884386301,340282346638528860000000000000000000000,1176450050,,,,0,,1,,40.151817321777344,1.9208527336454408,1.4448759153860409,1.9208527336454408,1.0,Q,122488609631000
Raw,1676594984000,487836000000,,,-1360629714164246831,0.0,7.260675729438909,295.0,1.0,21,11,0.0,81921,435001932303152,11,39.86289978027344,70.40859950128097,0.15,16,20393.597534653396,340282346638528860000000000000000000000,1176450050,,,,0,,1,,35.762901306152344,0.0,1.4448759153860409,0.0,1.0,Q,122488609631000
Raw,1676594984000,487836000000,,,-1360629714164246831,0.0,7.260675729438909,295.0,1.0,21,24,0.0,81921,435001924927061,11,34.56901931762695,624.4497024774969,0.5793797936794709,16,299245.95638074615,340282346638528860000000000000000000000,1176450050,,,,0,,1,,30.46902084350586,3.5215636101095664,1.4448759153860409,3.5215636101095664,1.0,Q,122488609631000
Raw,1676594984000,487836000000,,,-1360629714164246831,0.0,7.260675729438909,295.0,1.0,21,25,0.0,81921,435001927520790,11,38.91593551635742,-425.43508152493723,0.15,16,-214146.4627499028,340282346638528860000000000000000000000,1176450050,,,,0,,1,,34.81593704223633,1.0186341127782053,1.4448759153860409,1.0186341127782053,1.0,Q,122488609631000
Raw,1676594984000,487836000000,,,-1360629714164246831,0.0,7.260675729438909,295.0,1.0,21,14,0.0,32867,13783930943974,33,40.31324768066406,698.431877367344,0.15,16,328773.7806188093,340282346638528860000000000000000000000,1598062460,,,,0,,3,,36.11324691772461,50.29141902923584,2.0000000474974513,50.29141902923584,2.0000000474974513,C,122488609631000
Raw,1676594984000,487836000000,,,-1360629714164246831,0.0,7.260675729438909,295.0,1.0,21,18,0.0,32867,13783930163711,66,31.891273498535156,-370.39593597046814,0.7052338575335031,16,-191880.73351390826,340282346638528860000000000000000000000,1600312450,,,,1,,3,,27.691274642944336,50.29141902923584,2.0000000474974513,50.29141902923584,2.0000000474974513,C,122488609631000
Raw,1676594984000,487836000000,,,-1360629714164246831,0.0,7.260675729438909,295.0,1.0,21,16,0.0,32995,13783926181696,33,42.62714767456055,-630.7000841792151,0.15,16,-312529.4065210858,340282346638528860000000000000000000000,1601437440,,,,0,,3,,38.427146911621094,50.29141902923584,2.0000000474974513,50.29141902923584,2.0000000474974513,C,122488609631000
Raw,1676594984000,487836000000,,,-1360629714164246831,0.0,7.260675729438909,295.0,1.0,21,15,0.0,32867,13783936198727,33,42.92975997924805,-25.25852557028304,0.15,16,-29664.86919342221,340282346638528860000000000000000000000,1602000000,,,,0,,3,,38.729759216308594,50.29141902923584,2.0000000474974513,50.29141902923584,2.0000000474974513,C,122488609631000
Raw,1676594984000,487836000000,,,-1360629714164246831,0.0,7.260675729438909,295.0,1.0,21,24,0.0,32995,13783927107802,33,45.86801528930664,735.2369086821095,0.15,16,355647.49203031056,340282346638528860000000000000000000000,1603124990,,,,0,,3,,41.66801452636719,50.29141902923584,2.0000000474974513,50.29141902923584,2.0000000474974513,C,122488609631000
Raw,1676594984000,487836000000,,,-1360629714164246831,0.0,7.260675729438909,295.0,1.0,21,17,0.0,32995,13783936081165,33,40.21059799194336,223.2289452611251,0.15,16,96420.06464057617,340282346638528860000000000000000000000,1604249980,,,,0,,3,,36.010597229003906,50.29141902923584,2.0000000474974513,50.29141902923584,2.0000000474974513,C,122488609631000
Raw,1676594984000,487836000000,,,-1360629714164246831,0.0,7.260675729438909,295.0,1.0,21,2,0.0,85026,435001922133190,17,39.516841888427734,203.17535612117956,0.15,16,92145.30448340901,340282346638528860000000000000000000000,1575420030,,,,0,,6,,35.31684112548828,-6.024492904543876,1.5000000237487257,-6.024492904543876,1.5000000237487257,C,122488609631000
Raw,1676594984000,487836000000,,,-1360629714164246831,0.0,7.260675729438909,295.0,1.0,21,11,0.0,85026,435001908994026,17,39.85430908203125,623.2569528290246,0.15,16,302889.81986895145,340282346638528860000000000000000000000,1575420030,,,,0,,6,,35.6543083190918,-6.024492904543876,1.5000000237487257,-6.024492904543876,1.5000000237487257,C,122488609631000
Raw,1676594984000,487836000000,,,-1360629714164246831,0.0,7.260675729438909,295.0,1.0,21,15,0.0,85026,435001907864597,25,35.323333740234375,-464.63358743147364,0.5504844939942684,16,-129547.17134828785,340282346638528860000000000000000000000,1575420030,,,,0,,6,,31.123332977294922,-6.024492904543876,1.5000000237487257,-6.024492904543876,1.5000000237487257,C,122488609631000
Raw,1676594984000,487836000000,,,-1360629714164246831,0.0,7.260675729438909,295.0,1.0,21,25,0.0,85026,435001911361469,14,42.185245513916016,543.254111994423,0.15,16,260802.0032612541,340282346638528860000000000000000000000,1575420030,,,,0,,6,,37.98524475097656,-6.024492904543876,1.5000000237487257,-6.024492904543876,1.5000000237487257,C,122488609631000
Raw,1676594984000,487836000000,,,-1360629714164246831,0.0,7.260675729438909,295.0,1.0,21,30,0.0,85026,435001917083649,12,46.47505187988281,-263.96165590680755,0.15,16,-132270.44232442006,340282346638528860000000000000000000000,1575420030,,,,0,,6,,42.27505111694336,-6.024492904543876,1.5000000237487257,-6.024492904543876,1.5000000237487257,C,122488609631000
Raw,1676594984000,487836000000,,,-1360629714164246831,0.0,7.260675729438909,295.0,1.0,21,34,0.0,85026,435001920717464,25,35.23649978637695,-193.4114821414379,0.5538232433875458,16,-102658.70270620758,340282346638528860000000000000000000000,1575420030,,,,0,,6,,31.0364990234375,-6.024492904543876,1.5000000237487257,-6.024492904543876,1.5000000237487257,C,122488609631000
Raw,1676594984000,487836000000,,,-1360629714164246831,0.0,7.260675729438909,295.0,1.0,21,36,0.0,85026,435001920534318,20,37.87867736816406,336.40042379424744,0.15,16,156650.26437913248,340282346638528860000000000000000000000,1575420030,,,,0,,6,,33.67867660522461,-6.024492904543876,1.5000000237487257,-6.024492904543876,1.5000000237487257,C,122488609631000
Raw,1676594984000,487836000000,,,-1360629714164246831,0.0,7.260675729438909,295.0,1.0,21,2,0.0,84003,435001922133737,8,34.77626419067383,203.30584080597714,0.5731553519223969,16,92059.78728525426,340282346638528860000000000000000000000,1176450050,,,,0,,6,,30.6762638092041,-4.362151958048344,1.9448759391347665,-4.362151958048344,1.5000000237487257,Q,122488609631000
Raw,1676594984000,487836000000,,,-1360629714164246831,0.0,7.260675729438909,295.0,1.0,21,11,0.0,84003,435001908994561,10,32.5615119934082,623.9991324022653,0.6703868090270579,16,302209.9068657361,340282346638528860000000000000000000000,1176450050,,,,0,,6,,28.46151351928711,4.134257324039933,1.9448759391347665,4.134257324039933,1.5000000237487257,Q,122488609631000
Raw,1676594984000,487836000000,,,-1360629714164246831,0.0,7.260675729438909,295.0,1.0,21,15,0.0,84003,435001907865103,14,31.592191696166992,-464.9980993039851,0.7137729108057229,16,-129547.49779558131,340282346638528860000000000000000000000,1176450050,,,,0,,6,,27.492191314697266,-11.565629392862316,1.9448759391347665,-11.565629392862316,1.5000000237487257,Q,122488609631000
Raw,1676594984000,487836000000,,,-1360629714164246831,0.0,7.260675729438909,295.0,1.0,21,25,0.0,84003,435001911361997,7,35.49617385864258,543.2776629718803,0.5388442700149623,16,262326.80601781735,340282346638528860000000000000000000000,1176450050,,,,0,,6,,31.39617347717285,-8.795061148703097,1.9448759391347665,-8.795061148703097,1.5000000237487257,Q,122488609631000
Raw,1676594984000,487836000000,,,-1360629714164246831,0.0,7.260675729438909,295.0,1.0,21,30,0.0,84003,435001917084196,9,34.67544937133789,-263.9294479853935,0.5767805403985213,16,-131958.98422657503,340282346638528860000000000000000000000,1176450050,,,,0,,6,,30.575450897216797,-8.425652049481869,1.9448759391347665,-8.425652049481869,1.5000000237487257,Q,122488609631000
Raw,1676594984000,487836000000,,,-1360629714164246831,0.0,7.260675729438909,295.0,1.0,21,34,0.0,84003,435001920717983,11,39.11396408081055,-193.47927214746176,0.15,16,-103051.10487198617,340282346638528860000000000000000000000,1176450050,,,,0,,6,,35.01396560668945,-11.011515744030472,1.9448759391347665,-11.011515744030472,1.5000000237487257,Q,122488609631000
Raw,1676594984000,487836000000,,,-1360629714164246831,0.0,7.260675729438909,295.0,1.0,21,36,0.0,84003,435001920534869,9,37.90575408935547,336.5023985041637,0.15,16,156990.4896115427,340282346638528860000000000000000000000,1176450050,,,,0,,6,,33.805755615234375,-11.011515744030472,1.9448759391347665,-11.011515744030472,1.5000000237487257,Q,122488609631000
UncalGyro,1676594985083,122488714560985,-0.09682214,-0.6937902,0.88086766,0.0003451123,-0.00074430334,-0.0032802918
UncalAccel,1676594985083,122488714560985,0.65084773,3.423531,9.026325,0.006110925,-0.043260336,-0.038735468
UncalMag,1676594985084,122488715867687,-78.6412,-15.066999,-106.8964,-45.491467,0.31409264,-60.09035
OrientationDeg,1676594985083,122488714560985,90.0,-4.0,-21.0
Status,0,33,0,3,15,1602000000,42.93,306.0,79.0,1,1,1,38.72976
Status,0,33,1,1,11,1176450050,40.64,110.0,77.0,1,1,1,36.539845
Status,0,33,2,1,11,1575420030,42.72,110.0,77.0,1,1,1,38.517353
Status,0,33,3,6,2,1575420030,41.40,114.0,74.0,1,1,1,37.1972
Status,0,33,4,6,2,1176450050,36.77,114.0,74.0,1,1,1,32.669422
Status,0,33,5,3,17,1604249980,43.26,330.0,71.0,1,1,1,39.063454
Status,0,33,6,1,12,1575420030,43.50,329.0,68.0,1,1,1,39.29513
Status,0,33,7,6,34,1575420030,41.07,209.0,62.0,1,1,1,36.87118
Status,0,33,8,6,34,1176450050,40.76,209.0,62.0,1,1,1,36.66087
Status,0,33,9,6,36,1575420030,39.51,49.0,61.0,1,1,1,35.30811
Status,0,33,10,6,36,1176450050,37.91,49.0,61.0,1,1,1,33.805756
Status,0,33,11,6,30,1176450050,35.00,316.0,48.0,1,1,1,30.903503
Status,0,33,12,6,30,1575420030,46.48,316.0,48.0,1,1,1,42.27505
Status,0,33,13,3,14,1598062460,40.31,155.0,42.0,1,1,1,36.113247
Status,0,33,14,1,6,1176450050,44.25,46.0,42.0,1,1,1,40.151817
Status,0,33,15,1,6,1575420030,45.66,46.0,42.0,1,1,1,41.455025
Status,0,33,16,1,25,1575420030,43.58,313.0,38.0,1,1,1,39.381172
Status,0,33,17,1,25,1176450050,40.36,313.0,38.0,1,1,1,36.263374
Status,0,33,18,3,18,1600312450,42.67,243.0,38.0,1,1,1,38.473167
Status,0,33,19,1,24,1575420030,42.75,216.0,36.0,1,1,1,38.548637
Status,0,33,20,1,24,1176450050,41.55,216.0,36.0,1,1,1,37.445484
Status,0,33,21,1,20,1575420030,42.68,140.0,29.0,1,1,1,38.483376
Status,0,33,22,3,24,1603124990,45.87,35.0,27.0,1,1,1,41.668015
Status,0,33,23,3,16,1601437440,47.23,328.0,25.0,1,1,1,43.029842
Status,0,33,24,6,25,1575420030,42.19,128.0,24.0,1,1,1,37.985245
Status,0,33,25,6,25,1176450050,35.50,128.0,24.0,1,1,1,31.396173
Status,0,33,26,1,19,1575420030,47.36,63.0,23.0,1,1,1,43.15665
Status,0,33,27,1,29,1575420030,38.36,267.0,17.0,1,1,1,34.156044
Status,0,33,28,1,2,1575420030,44.62,218.0,14.0,1,1,1,40.422173
Status,0,33,29,6,11,1176450050,32.56,41.0,12.0,1,1,1,28.461514
Status,0,33,30,6,11,1575420030,39.85,41.0,12.0,1,1,1,35.65431
Status,0,33,31,6,15,1575420030,36.87,217.0,11.0,1,1,1,32.673862
Status,0,33,32,6,15,1176450050,40.52,217.0,11.0,1,1,1,36.421673
Fix,GPS,37.4311265452,-122.1551528795,-16.450154592373295,0.25218955,2.994907,99.501625,1676594984000,0.09470688,138.71045,122488609631000,3.0
Fix,FLP,37.4311495000,-122.1551721000,-15.0,0.0647153,3.763,,1676594984698,,,122488328440563,3.8210807
UncalGyro,1676594985092,122488723540477,-0.10842858,-0.58108556,0.8529206,0.0003451123,-0.00074430334,-0.0032802918
UncalAccel,1676594985092,122488723540477,0.67058855,3.562913,9.113065,0.006110925,-0.043260336,-0.038735468
OrientationDeg,1676594985092,122488723540477,89.0,-4.0,-21.0
UncalMag,1676594985095,122488725855480,-78.531395,-14.737599,-105.103,-45.491467,0.31409264,-60.09035
UncalGyro,1676594985101,122488732520092,-0.1151481,-0.43554693,0.8185594,0.0003451123,-0.00074430334,-0.0032802918
UncalAccel,1676594985102,122488732520092,0.76989067,3.7106698,9.404989,0.006110925,-0.043260336,-0.038735468
OrientationDeg,1676594985101,122488732520092,89.0,-4.0,-21.0
UncalMag,1676594985104,122488735867443,-76.0548,-13.724999,-102.650795,-45.491467,0.31409264,-60.09035
UncalGyro,1676594985111,122488741499096,-0.11301007,-0.23716843,0.7797695,0.0003451123,-0.00074430334,-0.0032802918
UncalAccel,1676594985111,122488741499096,0.69272214,3.888935,9.862617,0.006110925,-0.043260336,-0.038735468
OrientationDeg,1676594985110,122488741499096,88.0,-5.0,-21.0
UncalMag,1676594985115,122488745867443,-79.7392,-14.4936,-105.2494,-45.491467,0.31409264,-60.09035
UncalGyro,1676594985120,122488750467357,-0.101556346,0.040317107,0.7454083,0.0003451123,-0.00074430334,-0.0032802918
UncalAccel,1676594985120,122488750467357,0.6053841,4.009773,10.382458,0.006110925,-0.043260336,-0.038735468
OrientationDeg,1676594985120,122488750467357,88.0,-5.0,-21.0
UncalMag,1676594985125,122488755867687,-78.067795,-13.8104,-103.895195,-45.491467,0.31409264,-60.09035
UncalGyro,1676594985129,122488759458751,-0.08093964,0.5497787,0.72387534,0.0003451123,-0.00074430334,-0.0032802918
UncalAccel,1676594985128,122488759458751,0.34396824,3.662215,12.562319,0.006110925,-0.043260336,-0.038735468
OrientationDeg,1676594985128,122488759458751,87.0,-5.0,-21.0
UncalMag,1676594985135,122488765867443,-78.372795,-13.3712,-105.042,-45.491467,0.31409264,-60.09035
UncalGyro,1676594985137,122488768438549,-0.022602014,1.4040737,0.7328856,0.0003451123,-0.00074430334,-0.0032802918
UncalAccel,1676594985138,122488768438549,0.72023964,3.3146574,13.129417,0.006110925,-0.043260336,-0.038735468
OrientationDeg,1676594985137,122488768438549,87.0,-4.0,-21.0
UncalMag,1676594985145,122488775867443,-74.5664,-12.675799,-103.1632,-45.491467,0.31409264,-60.09035
UncalGyro,1676594985147,122488777418041,0.04795292,1.6678149,0.7489208,0.0003451123,-0.00074430334,-0.0032802918
UncalAccel,1676594985146,122488777418041,1.0725827,3.1190443,9.035896,0.006110925,-0.043260336,-0.038735468
OrientationDeg,1676594985147,122488777418041,87.0,-3.0,-21.0
UncalMag,1676594985155,122488785867687,-74.5298,-12.3952,-104.6272,-45.491467,0.31409264,-60.09035
UncalGyro,1676594985156,122488786382579,0.09010262,1.4973835,0.7703011,0.0003451123,-0.00074430334,-0.0032802918
UncalAccel,1676594985156,122488786382579,1.0935199,2.9359934,7.372287,0.006110925,-0.043260336,-0.038735468
OrientationDeg,1676594985156,122488786382579,86.0,-3.0,-21.0
UncalGyro,1676594985165,122488795377025,0.09728029,1.0699304,0.808022,0.0003451123,-0.00074430334,-0.0032802918
UncalAccel,1676594985165,122488795377025,0.5240282,3.083152,6.193223,0.006110925,-0.043260336,-0.038735468
UncalMag,1676594985165,122488795856945,-75.6034,-12.3342,-105.6642,-45.491467,0.31409264,-60.09035
OrientationDeg,1676594985165,122488795377025,86.0,-2.0,-21.0
UncalGyro,1676594985174,122488804353526,0.069485925,0.50426924,0.89476484,0.0003451123,-0.00074430334,-0.0032802918
UncalAccel,1676594985174,122488804353526,0.01794617,2.6925237,5.7409797,0.006110925,-0.043260336,-0.038735468
UncalMag,1676594985175,122488805867687,-73.6758,-11.9316,-103.6512,-45.491467,0.31409264,-60.09035
OrientationDeg,1676594985174,122488804353526,85.0,-2.0,-21.0
UncalGyro,1676594985182,122488813335948,0.02275473,-0.017104227,1.0424415,0.0003451123,-0.00074430334,-0.0032802918
UncalAccel,1676594985183,122488813335948,-0.27756742,2.4311078,6.2674007,0.006110925,-0.043260336,-0.038735468
OrientationDeg,1676594985183,122488813335948,85.0,-2.0,-21.0
UncalMag,1676594985185,122488815869884,-74.908,-12.053599,-105.0054,-45.491467,0.31409264,-60.09035
UncalGyro,1676594985192,122488822315502,-0.024281893,-0.29565877,1.2035573,0.0003451123,-0.00074430334,-0.0032802918
UncalAccel,1676594985191,122488822315502,-0.49830532,2.5956144,7.792227,0.006110925,-0.043260336,-0.038735468
OrientationDeg,1676594985191,122488822315502,84.0,-3.0,-21.0
UncalMag,1676594985194,122488825857433,-75.3716,-12.248799,-104.7614,-45.491467,0.31409264,-60.09035
UncalGyro,1676594985201,122488831283824,-0.043066,-0.31413746,1.3264939,0.0003451123,-0.00074430334,-0.0032802918
UncalAccel,1676594985201,122488831283824,-0.07597212,3.313461,9.232108,0.006110925,-0.043260336,-0.038735468
OrientationDeg,1676594985200,122488831283824,83.0,-3.0,-21.0
UncalMag,1676594985204,122488835850109,-74.2736,-10.6262,-103.6512,-45.491467,0.31409264,-60.09035
UncalGyro,1676594985210,122488840274791,-0.009010263,-0.21090123,1.3761266,0.0003451123,-0.00074430334,-0.0032802918
UncalAccel,1676594985210,122488840274791,0.3152544,3.7908292,9.94158,0.006110925,-0.043260336,-0.038735468
OrientationDeg,1676594985210,122488840274791,82.0,-4.0,-21.0
UncalMag,1676594985214,122488845867443,-74.0296,-10.4432,-105.151794,-45.491467,0.31409264,-60.09035
UncalGyro,1676594985218,122488849254406,0.06337727,-0.089186326,1.3796391,0.0003451123,-0.00074430334,-0.0032802918
UncalAccel,1676594985218,122488849254406,0.35234314,3.9918263,10.47159,0.006110925,-0.043260336,-0.038735468
OrientationDeg,1676594985219,122488849254406,82.0,-4.0,-21.0
UncalMag,1676594985224,122488855867687,-76.030396,-10.736,-104.2856,-45.491467,0.31409264,-60.09035
UncalGyro,1676594985228,122488858233837,0.14065172,0.07345655,1.3271047,0.0003451123,-0.00074430334,-0.0032802918
UncalAccel,1676594985227,122488858233837,0.72023964,4.2006,10.603195,0.006110925,-0.043260336,-0.038735468
OrientationDeg,1676594985227,122488858233837,81.0,-4.0,-21.0
UncalMag,1676594985234,122488865867687,-75.9816,-10.089399,-104.529594,-45.491467,0.31409264,-60.09035
UncalGyro,1676594985236,122488867213451,0.19349156,0.23197608,1.2108877,0.0003451123,-0.00074430334,-0.0032802918
UncalAccel,1676594985236,122488867213451,1.2083755,4.2311087,10.329217,0.006110925,-0.043260336,-0.038735468
OrientationDeg,1676594985236,122488867213451,80.0,-4.0,-21.0
UncalMag,1676594985245,122488875867443,-76.823395,-10.6872,-104.1758,-45.491467,0.31409264,-60.09035
UncalGyro,1676594985245,122488876192943,0.21395555,0.36545014,1.0800097,0.0003451123,-0.00074430334,-0.0032802918
UncalAccel,1676594985246,122488876192943,1.4039887,4.0959144,9.976874,0.006110925,-0.043260336,-0.038735468
OrientationDeg,1676594985245,122488876192943,80.0,-4.0,-21.0
UncalGyro,1676594985254,122488885172069,0.20097467,0.50900346,0.9810496,0.0003451123,-0.00074430334,-0.0032802918
UncalAccel,1676594985254,122488885172069,1.4075779,3.9086757,9.942178,0.006110925,-0.043260336,-0.038735468
UncalMag,1676594985254,122488885856945,-77.3114,-10.711599,-104.187996,-45.491467,0.31409264,-60.09035
OrientationDeg,1676594985254,122488885172069,79.0,-4.0,-21.0
UncalGyro,1676594985264,122488894152172,0.16493362,0.6963864,0.9298896,0.0003451123,-0.00074430334,-0.0032802918
UncalAccel,1676594985264,122488894152172,1.3310076,3.6406796,9.640682,0.006110925,-0.043260336,-0.038735468
OrientationDeg,1676594985264,122488894152172,79.0,-4.0,-21.0
UncalMag,1676594985265,122488895867199,-76.128,-9.7722,-105.0664,-45.491467,0.31409264,-60.09035
UncalGyro,1676594985272,122488903130321,0.10903945,0.8390234,0.93599826,0.0003451123,-0.00074430334,-0.0032802918
UncalAccel,1676594985272,122488903130321,1.1174482,3.4689946,9.1669035,0.006110925,-0.043260336,-0.038735468
OrientationDeg,1676594985272,122488903130321,78.0,-4.0,-21.0
UncalMag,1676594985275,122488905867687,-76.5672,-10.3334,-105.0542,-45.491467,0.31409264,-60.09035
UncalGyro,1676594985282,122488912111339,0.065209866,0.8718574,0.9839512,0.0003451123,-0.00074430334,-0.0032802918
UncalAccel,1676594985282,122488912111339,1.1072787,3.5216367,8.47119,0.006110925,-0.043260336,-0.038735468
OrientationDeg,1676594985281,122488912111339,78.0,-4.0,-21.0
UncalMag,1676594985285,122488915867687,-75.0788,-9.089,-105.0664,-45.491467,0.31409264,-60.09035
UncalGyro,1676594985290,122488921092418,0.013897184,0.7348709,1.0170907,0.0003451123,-0.00074430334,-0.0032802918
UncalAccel,1676594985291,122488921092418,1.4697913,3.5479577,7.405786,0.006110925,-0.043260336,-0.038735468
OrientationDeg,1676594985290,122488921092418,77.0,-3.0,-21.0
UncalMag,1676594985295,122488925855724,-75.261795,-8.5278,-106.3108,-45.491467,0.31409264,-60.09035
UncalGyro,1676594985299,122488930070140,-0.035277467,0.45707992,0.9966267,0.0003451123,-0.00074430334,-0.0032802918
UncalAccel,1676594985299,122488930070140,1.9621146,3.8895333,6.699305,0.006110925,-0.043260336,-0.038735468
OrientationDeg,1676594985299,122488930070140,76.0,-3.0,-21.0
UncalMag,1676594985305,122488935867443,-74.175995,-8.296,-103.5048,-45.491467,0.31409264,-60.09035
UncalGyro,1676594985309,122488939049877,-0.04932737,0.08078693,0.9265299,0.0003451123,-0.00074430334,-0.0032802918
UncalAccel,1676594985308,122488939049877,2.0697916,4.152744,6.6394844,0.006110925,-0.043260336,-0.038735468
OrientationDeg,1676594985308,122488939049877,76.0,-4.0,-21.0
UncalMag,1676594985314,122488945867443,-75.2374,-8.235,-104.432,-45.491467,0.31409264,-60.09035
UncalGyro,1676594985317,122488948026867,0.0015271631,-0.29520062,0.83459467,0.0003451123,-0.00074430334,-0.0032802918
UncalAccel,1676594985318,122488948026867,1.9824536,4.2687955,7.1210403,0.006110925,-0.043260336,-0.038735468
OrientationDeg,1676594985318,122488948026867,75.0,-4.0,-21.0
UncalMag,1676594985324,122488955867443,-75.9206,-8.8084,-106.3108,-45.491467,0.31409264,-60.09035
UncalGyro,1676594985327,122488957008800,0.09636399,-0.58108556,0.7279987,0.0003451123,-0.00074430334,-0.0032802918
UncalAccel,1676594985327,122488957008800,2.0434706,3.9661036,7.7772717,0.006110925,-0.043260336,-0.038735468
OrientationDeg,1676594985326,122488957008800,75.0,-4.0,-21.0
UncalMag,1676594985334,122488965867443,-75.3594,-7.8445997,-104.7614,-45.491467,0.31409264,-60.09035
UncalGyro,1676594985335,122488965987864,0.20311269,-0.78022766,0.6488916,0.0003451123,-0.00074430334,-0.0032802918
UncalAccel,1676594985335,122488965987864,2.1535404,3.0837502,8.268997,0.006110925,-0.043260336,-0.038735468
OrientationDeg,1676594985335,122488965987864,75.0,-5.0,-21.0
UncalGyro,1676594985343,122488974956676,0.2753475,-0.89965177,0.6740898,0.0003451123,-0.00074430334,-0.0032802918
UncalAccel,1676594985343,122488974956676,1.8981066,2.1260228,8.343773,0.006110925,-0.043260336,-0.038735468
UncalMag,1676594985344,122488975856456,-75.9572,-7.8445997,-105.5666,-45.491467,0.31409264,-60.09035
OrientationDeg,1676594985344,122488974956676,74.0,-6.0,-21.0
UncalGyro,1676594985353,122488983950450,0.2648101,-0.98624194,0.81229806,0.0003451123,-0.00074430334,-0.0032802918
UncalAccel,1676594985353,122488983950450,1.7964116,1.8245273,8.127222,0.006110925,-0.043260336,-0.038735468
OrientationDeg,1676594985352,122488983950450,74.0,-6.0,-21.0
UncalMag,1676594985355,122488985867443,-77.775,-8.7962,-104.187996,-45.491467,0.31409264,-60.09035
UncalGyro,1676594985361,122488992926585,0.20861048,-1.0596985,0.9837985,0.0003451123,-0.00074430334,-0.0032802918
UncalAccel,1676594985361,122488992926585,2.1655045,2.1343977,8.278568,0.006110925,-0.043260336,-0.038735468
OrientationDeg,1676594985362,122488992926585,73.0,-7.0,-21.0
UncalMag,1676594985364,122488995867687,-77.6774,-8.259399,-104.6028,-45.491467,0.31409264,-60.09035
UncalGyro,1676594985370,122489001904612,0.1638646,-1.0882565,1.093296,0.0003451123,-0.00074430334,-0.0032802918
UncalAccel,1676594985370,122489001904612,2.801397,2.87378,8.990433,0.006110925,-0.043260336,-0.038735468
OrientationDeg,1676594985370,122489001904612,73.0,-8.0,-21.0
UncalMag,1676594985374,122489005867443,-76.8966,-7.442,-104.370995,-45.491467,0.31409264,-60.09035
UncalGyro,1676594985379,122489010886913,0.1441642,-1.0436633,1.0902418,0.0003451123,-0.00074430334,-0.0032802918
UncalAccel,1676594985379,122489010886913,3.5443685,3.6993039,9.374481,0.006110925,-0.043260336,-0.038735468
OrientationDeg,1676594985380,122489010886913,72.0,-9.0,-21.0
UncalMag,1676594985384,122489015852306,-77.714,-7.4298,-102.8582,-45.491467,0.31409264,-60.09035
UncalGyro,1676594985388,122489019871837,0.116675265,-0.87766063,0.96974856,0.0003451123,-0.00074430334,-0.0032802918
UncalAccel,1676594985389,122489019871837,3.9942193,4.1330028,9.769297,0.006110925,-0.043260336,-0.038735468
OrientationDeg,1676594985389,122489019871837,71.0,-9.0,-21.0
UncalMag,1676594985395,122489025867443,-79.0194,-7.3444,-103.8464,-45.491467,0.31409264,-60.09035
UncalGyro,1676594985398,122489028845226,0.069027774,-0.5412266,0.7884743,0.0003451123,-0.00074430334,-0.0032802918
UncalAccel,1676594985397,122489028845226,3.818945,3.9421754,10.149158,0.006110925,-0.043260336,-0.038735468
OrientationDeg,1676594985397,122489028845226,71.0,-10.0,-21.0
UncalMag,1676594985404,122489035867443,-79.458595,-7.2102,-103.7732,-45.491467,0.31409264,-60.09035
UncalGyro,1676594985407,122489037822154,-0.022143865,-0.17806722,0.6374379,0.0003451123,-0.00074430334,-0.0032802918
UncalAccel,1676594985407,122489037822154,3.3212378,3.676572,9.206385,0.006110925,-0.043260336,-0.038735468
OrientationDeg,1676594985407,122489037822154,71.0,-10.0,-21.0
UncalMag,1676594985415,122489045867443,-79.3366,-7.1004,-103.5536,-45.491467,0.31409264,-60.09035
UncalGyro,1676594985415,122489046804759,-0.17806722,0.01450805,0.5862779,0.0003451123,-0.00074430334,-0.0032802918
UncalAccel,1676594985415,122489046804759,2.5663023,3.397808,8.148159,0.006110925,-0.043260336,-0.038735468
OrientationDeg,1676594985416,122489046804759,70.0,-10.0,-21.0
UncalGyro,1676594985424,122489055787059,-0.35338554,0.09819659,0.6102544,0.0003451123,-0.00074430334,-0.0032802918
UncalAccel,1676594985425,122489055787059,1.8981066,3.1663027,7.944171,0.006110925,-0.043260336,-0.038735468
UncalMag,1676594985424,122489055850353,-78.7998,-6.3196,-103.260796,-45.491467,0.31409264,-60.09035
OrientationDeg,1676594985425,122489055787059,70.0,-10.0,-21.0
UncalGyro,1676594985434,122489064763988,-0.49602258,0.1563815,0.66706485,0.0003451123,-0.00074430334,-0.0032802918
UncalAccel,1676594985434,122489064763988,1.5475581,3.0299118,8.303693,0.006110925,-0.043260336,-0.038735468
UncalMag,1676594985435,122489065855724,-79.3366,-6.1731997,-103.6512,-45.491467,0.31409264,-60.09035
OrientationDeg,1676594985434,122489064763988,70.0,-10.0,-20.0
UncalGyro,1676594985442,122489073740794,-0.5685628,0.21563543,0.7266242,0.0003451123,-0.00074430334,-0.0032802918
UncalAccel,1676594985442,122489073740794,1.3950156,2.8869405,8.979067,0.006110925,-0.043260336,-0.038735468
OrientationDeg,1676594985442,122489073740794,69.0,-10.0,-20.0
UncalMag,1676594985444,122489075867443,-80.080795,-6.3684,-102.602,-45.491467,0.31409264,-60.09035
UncalGyro,1676594985452,122489082722972,-0.5839872,0.3387248,0.8054258,0.0003451123,-0.00074430334,-0.0032802918
UncalAccel,1676594985451,122489082722972,1.2418749,2.6243281,9.758529,0.006110925,-0.043260336,-0.038735468
OrientationDeg,1676594985451,122489082722972,69.0,-10.0,-20.0
UncalMag,1676594985454,122489085867443,-77.909195,-4.8312,-104.127,-45.491467,0.31409264,-60.09035
UncalGyro,1676594985461,122489091704845,-0.5777258,0.4196644,0.88331115,0.0003451123,-0.00074430334,-0.0032802918
UncalAccel,1676594985460,122489091704845,1.7545372,2.7074788,9.327821,0.006110925,-0.043260336,-0.038735468
OrientationDeg,1676594985461,122489091704845,69.0,-10.0,-19.0
UncalMag,1676594985464,122489095867687,-80.2028,-5.6608,-103.6512,-45.491467,0.31409264,-60.09035
UncalGyro,1676594985469,122489100685253,-0.5395467,0.38133264,0.88606006,0.0003451123,-0.00074430334,-0.0032802918
OrientationDeg,1676594985469,122489100685253,68.0,-10.0,-19.0
UncalAccel,1676594985469,122489100685253,2.134996,3.1226335,9.160323,0.006110925,-0.043260336,-0.038735468
UncalMag,1676594985475,122489105867443,-78.08,-4.2455997,-101.6016,-45.491467,0.31409264,-60.09035
UncalGyro,1676594985478,122489109661449,-0.46929723,0.35308012,0.83169305,0.0003451123,-0.00074430334,-0.0032802918
UncalAccel,1676594985478,122489109661449,1.8215362,3.397808,9.364909,0.006110925,-0.043260336,-0.038735468
OrientationDeg,1676594985478,122489109661449,68.0,-10.0,-19.0
UncalMag,1676594985485,122489115854748,-78.3972,-4.0504,-103.0168,-45.491467,0.31409264,-60.09035
UncalGyro,1676594985488,122489118641246,-0.4027129,0.32727104,0.78893244,0.0003451123,-0.00074430334,-0.0032802918
UncalAccel,1676594985488,122489118641246,1.5978073,3.3894334,9.27817,0.006110925,-0.043260336,-0.038735468
OrientationDeg,1676594985488,122489118641246,67.0,-10.0,-18.0
UncalMag,1676594985494,122489125855724,-78.3484,-3.477,-102.9192,-45.491467,0.31409264,-60.09035
UncalGyro,1676594985496,122489127617748,-0.3576616,0.23609942,0.7680103,0.0003451123,-0.00074430334,-0.0032802918
UncalAccel,1676594985496,122489127617748,1.649253,3.1926236,9.158528,0.006110925,-0.043260336,-0.038735468
OrientationDeg,1676594985496,122489127617748,67.0,-10.0,-18.0
UncalMag,1676594985505,122489135867687,-77.591995,-2.3058,-102.4556,-45.491467,0.31409264,-60.09035
UncalGyro,1676594985506,122489136600292,-0.31871894,0.1647809,0.77014834,0.0003451123,-0.00074430334,-0.0032802918
UncalAccel,1676594985506,122489136600292,1.5565311,3.0681968,9.41456,0.006110925,-0.043260336,-0.038735468
OrientationDeg,1676594985505,122489136600292,67.0,-10.0,-18.0
UncalGyro,1676594985514,122489145582774,-0.2939789,0.13225232,0.8013025,0.0003451123,-0.00074430334,-0.0032802918
UncalAccel,1676594985514,122489145582774,1.5948163,3.0346973,9.338589,0.006110925,-0.043260336,-0.038735468
UncalMag,1676594985514,122489145860851,-79.2756,-2.9401999,-102.5166,-45.491467,0.31409264,-60.09035
OrientationDeg,1676594985514,122489145582774,66.0,-10.0,-18.0
UncalGyro,1676594985523,122489154559397,-0.28420505,0.051923547,0.8258898,0.0003451123,-0.00074430334,-0.0032802918
UncalAccel,1676594985524,122489154559397,1.8891335,3.190829,8.830712,0.006110925,-0.043260336,-0.038735468
OrientationDeg,1676594985524,122489154559397,66.0,-10.0,-17.0
UncalMag,1676594985525,122489155867199,-77.3724,-2.013,-103.431595,-45.491467,0.31409264,-60.09035
UncalGyro,1676594985532,122489163538402,-0.2782491,-0.082619525,0.82772243,0.0003451123,-0.00074430334,-0.0032802918
UncalAccel,1676594985532,122489163538402,2.1774685,3.3714871,8.723035,0.006110925,-0.043260336,-0.038735468
OrientationDeg,1676594985532,122489163538402,65.0,-10.0,-17.0
UncalMag,1676594985535,122489165867443,-77.9824,-1.8299999,-104.1758,-45.491467,0.31409264,-60.09035
OrientationDeg,1676594985542,122489172518139,65.0,-11.0,-17.0
UncalGyro,1676594985542,122489172518139,-0.25625798,-0.183565,0.808022,0.0003451123,-0.00074430334,-0.0032802918
UncalAccel,1676594985541,122489172518139,2.2713869,3.4474592,9.1052885,0.006110925,-0.043260336,-0.038735468
UncalMag,1676594985545,122489175867443,-77.3968,-1.1834,-101.4674,-45.491467,0.31409264,-60.09035
UncalGyro,1676594985551,122489181499279,-0.20952678,-0.24266621,0.7695375,0.0003451123,-0.00074430334,-0.0032802918
UncalAccel,1676594985550,122489181499279,2.3515465,3.5431721,9.449257,0.006110925,-0.043260336,-0.038735468
OrientationDeg,1676594985550,122489181499279,65.0,-11.0,-17.0
UncalMag,1676594985555,122489185867199,-79.544,-1.3786,-102.7118,-45.491467,0.31409264,-60.09035
UncalGyro,1676594985560,122489190465831,-0.16371189,-0.22128594,0.7145596,0.0003451123,-0.00074430334,-0.0032802918
UncalAccel,1676594985559,122489190465831,2.405385,3.3511481,9.781859,0.006110925,-0.043260336,-0.038735468
OrientationDeg,1676594985559,122489190465831,64.0,-11.0,-17.0
UncalMag,1676594985564,122489195867443,-78.7632,-1.2444,-102.662994,-45.491467,0.31409264,-60.09035
UncalGyro,1676594985569,122489199455333,-0.14340061,-0.12339478,0.6585127,0.0003451123,-0.00074430334,-0.0032802918
UncalAccel,1676594985569,122489199455333,2.2725832,3.251248,9.552148,0.006110925,-0.043260336,-0.038735468
OrientationDeg,1676594985569,122489199455333,64.0,-11.0,-16.0
UncalMag,1676594985575,122489205867687,-79.9466,-1.2932,-103.272995,-45.491467,0.31409264,-60.09035
UncalGyro,1676594985578,122489208431224,-0.17195857,-0.055436023,0.6113234,0.0003451123,-0.00074430334,-0.0032802918
UncalAccel,1676594985577,122489208431224,1.9579271,3.339184,8.684152,0.006110925,-0.043260336,-0.038735468
OrientationDeg,1676594985577,122489208431224,64.0,-11.0,-16.0
UncalMag,1676594985585,122489215867931,-78.8608,-0.3904,-104.3832,-45.491467,0.31409264,-60.09035
UncalGyro,1676594985587,122489217416088,-0.2443461,-0.051465396,0.5749769,0.0003451123,-0.00074430334,-0.0032802918
UncalAccel,1676594985587,122489217416088,1.7168503,3.1196425,7.9860454,0.006110925,-0.043260336,-0.038735468
OrientationDeg,1676594985586,122489217416088,63.0,-11.0,-16.0
UncalMag,1676594985595,122489225867443,-78.665596,-0.3172,-104.249,-45.491467,0.31409264,-60.09035
UncalGyro,1676594985595,122489226394176,-0.33368513,-0.0571159,0.5849035,0.0003451123,-0.00074430334,-0.0032802918
UncalAccel,1676594985595,122489226394176,1.5607185,2.4969103,7.7054873,0.006110925,-0.043260336,-0.038735468
OrientationDeg,1676594985596,122489226394176,63.0,-11.0,-16.0
UncalGyro,1676594985604,122489235375255,-0.41554108,-0.081397794,0.6220135,0.0003451123,-0.00074430334,-0.0032802918
UncalAccel,1676594985604,122489235375255,1.6534405,2.2809582,7.862217,0.006110925,-0.043260336,-0.038735468
UncalMag,1676594985605,122489235855724,-77.274796,0.3172,-103.285194,-45.491467,0.31409264,-60.09035
OrientationDeg,1676594985604,122489235375255,63.0,-12.0,-16.0
UncalGyro,1676594985614,122489244356150,-0.45845437,-0.0804815,0.66156703,0.0003451123,-0.00074430334,-0.0032802918
UncalAccel,1676594985614,122489244356150,1.5290136,2.425724,8.271988,0.006110925,-0.043260336,-0.038735468
UncalMag,1676594985614,122489245867687,-77.5188,0.7442,-101.2722,-45.491467,0.31409264,-60.09035
OrientationDeg,1676594985613,122489244356150,63.0,-12.0,-15.0
UncalGyro,1676594985623,122489253322826,-0.47525316,-0.111941054,0.68645984,0.0003451123,-0.00074430334,-0.0032802918
UncalAccel,1676594985623,122489253322826,1.8400806,2.7451658,8.413164,0.006110925,-0.043260336,-0.038735468
OrientationDeg,1676594985622,122489253322826,62.0,-12.0,-15.0
UncalMag,1676594985624,122489255867687,-78.067795,0.6954,-100.320595,-45.491467,0.31409264,-60.09035
UncalGyro,1676594985631,122489262296215,-0.4642576,-0.17730364,0.67363167,0.0003451123,-0.00074430334,-0.0032802918
UncalAccel,1676594985631,122489262296215,1.8287147,2.716452,8.837293,0.006110925,-0.043260336,-0.038735468
OrientationDeg,1676594985631,122489262296215,62.0,-12.0,-15.0
UncalMag,1676594985635,122489265867443,-78.7632,0.7564,-98.0148,-45.491467,0.31409264,-60.09035
UncalGyro,1676594985641,122489271293529,-0.43890667,-0.21120666,0.68875057,0.0003451123,-0.00074430334,-0.0032802918
UncalAccel,1676594985640,122489271293529,1.5643078,2.6656044,9.150154,0.006110925,-0.043260336,-0.038735468
OrientationDeg,1676594985640,122489271293529,62.0,-12.0,-14.0
UncalMag,1676594985644,122489275868908,-78.7144,2.0374,-100.0278,-45.491467,0.31409264,-60.09035
UncalGyro,1676594985649,122489280272777,-0.41874814,-0.24801129,0.68798697,0.0003451123,-0.00074430334,-0.0032802918
UncalAccel,1676594985649,122489280272777,1.5930216,2.4735804,8.8014,0.006110925,-0.043260336,-0.038735468
OrientationDeg,1676594985650,122489280272777,61.0,-12.0,-14.0
UncalMag,1676594985655,122489285867443,-79.0316,1.6592,-100.5646,-45.491467,0.31409264,-60.09035
UncalGyro,1676594985659,122489289252941,-0.43295074,-0.3145956,0.70829827,0.0003451123,-0.00074430334,-0.0032802918
UncalAccel,1676594985659,122489289252941,1.6438692,2.108675,8.599805,0.006110925,-0.043260336,-0.038735468
OrientationDeg,1676594985658,122489289252941,61.0,-13.0,-14.0
UncalMag,1676594985664,122489295867687,-77.6774,2.9401999,-98.3442,-45.491467,0.31409264,-60.09035
UncalGyro,1676594985668,122489298231945,-0.43676865,-0.42332962,0.7463246,0.0003451123,-0.00074430334,-0.0032802918
UncalAccel,1676594985667,122489298231945,1.8245273,2.088336,8.648259,0.006110925,-0.043260336,-0.038735468
OrientationDeg,1676594985667,122489298231945,61.0,-13.0,-14.0
UncalMag,1676594985675,122489305867931,-79.2512,2.8425999,-98.283195,-45.491467,0.31409264,-60.09035
UncalGyro,1676594985676,122489307211742,-0.39690968,-0.5635232,0.7788532,0.0003451123,-0.00074430334,-0.0032802918
UncalAccel,1676594985676,122489307211742,2.2456641,1.899303,9.068798,0.006110925,-0.043260336,-0.038735468
OrientationDeg,1676594985676,122489307211742,60.0,-13.0,-13.0
UncalMag,1676594985685,122489315867443,-79.0316,3.0744,-98.7102,-45.491467,0.31409264,-60.09035
UncalGyro,1676594985685,122489316190929,-0.30695978,-0.7005097,0.81382525,0.0003451123,-0.00074430334,-0.0032802918
UncalAccel,1676594985685,122489316190929,2.6428726,1.7964116,9.54138,0.006110925,-0.043260336,-0.038735468
OrientationDeg,1676594985686,122489316190929,60.0,-14.0,-13.0
UncalGyro,1676594985695,122489325170665,-0.19501872,-0.8361218,0.8199339,0.0003451123,-0.00074430334,-0.0032802918
UncalAccel,1676594985694,122489325170665,3.0269206,2.201397,9.65504,0.006110925,-0.043260336,-0.038735468
UncalMag,1676594985694,122489325855968,-79.604996,3.1232,-97.4658,-45.491467,0.31409264,-60.09035
OrientationDeg,1676594985694,122489325170665,59.0,-14.0,-13.0
UncalGyro,1676594985704,122489334150646,-0.09697486,-0.93233305,0.7791586,0.0003451123,-0.00074430334,-0.0032802918
UncalAccel,1676594985704,122489334150646,3.3487554,2.4197419,9.381062,0.006110925,-0.043260336,-0.038735468
UncalMag,1676594985704,122489335855968,-79.422,3.2452,-96.0384,-45.491467,0.31409264,-60.09035
OrientationDeg,1676594985703,122489334150646,59.0,-15.0,-13.0
UncalGyro,1676594985712,122489343130138,-0.047647487,-1.0248792,0.7312057,0.0003451123,-0.00074430334,-0.0032802918
UncalAccel,1676594985712,122489343130138,3.531208,2.1355941,8.76132,0.006110925,-0.043260336,-0.038735468
OrientationDeg,1676594985712,122489343130138,59.0,-16.0,-12.0
UncalMag,1676594985715,122489345867199,-78.8974,4.026,-95.965195,-45.491467,0.31409264,-60.09035
UncalGyro,1676594985722,122489352109508,-0.047800206,-1.1450669,0.71761394,0.0003451123,-0.00074430334,-0.0032802918
UncalAccel,1676594985722,122489352109508,3.6634114,1.6265212,8.196614,0.006110925,-0.043260336,-0.038735468
OrientationDeg,1676594985722,122489352109508,58.0,-16.0,-12.0
UncalMag,1676594985724,122489355867443,-80.5078,4.2334,-97.502396,-45.491467,0.31409264,-60.09035
UncalGyro,1676594985731,122489361089244,-0.073303826,-1.2826643,0.75396043,0.0003451123,-0.00074430334,-0.0032802918
UncalAccel,1676594985731,122489361089244,3.6951163,1.1419746,7.827521,0.006110925,-0.043260336,-0.038735468
OrientationDeg,1676594985730,122489361089244,58.0,-17.0,-12.0
UncalMag,1676594985735,122489365860607,-79.178,4.6116,-97.7952,-45.491467,0.31409264,-60.09035
UncalGyro,1676594985739,122489370068554,-0.09728029,-1.4492778,0.8741482,0.0003451123,-0.00074430334,-0.0032802918
UncalAccel,1676594985739,122489370068554,3.4396825,0.59641105,7.5326056,0.006110925,-0.043260336,-0.038735468
OrientationDeg,1676594985740,122489370068554,58.0,-18.0,-12.0
UncalMag,1676594985745,122489375859386,-79.8734,5.2338,-96.6972,-45.491467,0.31409264,-60.09035
UncalGyro,1676594985748,122489379048351,-0.1085813,-1.6064229,1.0677924,0.0003451123,-0.00074430334,-0.0032802918
UncalAccel,1676594985748,122489379048351,2.9395826,0.4121637,7.2245297,0.006110925,-0.043260336,-0.038735468
OrientationDeg,1676594985749,122489379048351,57.0,-19.0,-12.0
UncalMag,1676594985755,122489385867443,-81.6546,4.9165998,-95.892,-45.491467,0.31409264,-60.09035
UncalGyro,1676594985758,122489388027416,-0.12812899,-1.7774651,1.2889256,0.0003451123,-0.00074430334,-0.0032802918
UncalAccel,1676594985758,122489388027416,3.1058838,0.41575295,6.3338017,0.006110925,-0.043260336,-0.038735468
OrientationDeg,1676594985757,122489388027416,56.0,-20.0,-11.0
UncalMag,1676594985764,122489395867687,-81.9108,5.5998,-94.1596,-45.491467,0.31409264,-60.09035
UncalGyro,1676594985765,122489396991283,-0.19883664,-1.9466748,1.484708,0.0003451123,-0.00074430334,-0.0032802918
UncalAccel,1676594985766,122489396991283,3.1489546,0.3481557,5.2666025,0.006110925,-0.043260336,-0.038735468
OrientationDeg,1676594985765,122489396991283,56.0,-21.0,-11.0
UncalMag,1676594985774,122489405867931,-83.6188,5.5022,-93.5862,-45.491467,0.31409264,-60.09035
UncalGyro,1676594985774,122489405984202,-0.3594942,-2.0917554,1.7333301,0.0003451123,-0.00074430334,-0.0032802918
UncalAccel,1676594985774,122489405984202,3.1453655,0.19920248,4.741378,0.006110925,-0.043260336,-0.038735468
OrientationDeg,1676594985775,122489405984202,55.0,-22.0,-11.0
UncalGyro,1676594985784,122489414965160,-0.5656612,-2.1630738,1.9917262,0.0003451123,-0.00074430334,-0.0032802918
UncalAccel,1676594985784,122489414965160,3.685545,-0.2739782,4.679165,0.006110925,-0.043260336,-0.038735468
UncalMag,1676594985784,122489415855968,-85.375595,6.1366,-94.720795,-45.491467,0.31409264,-60.09035
OrientationDeg,1676594985783,122489414965160,54.0,-24.0,-10.0
UncalGyro,1676594985793,122489423948741,-0.7151705,-2.2844832,2.185523,0.0003451123,-0.00074430334,-0.0032802918
UncalAccel,1676594985793,122489423948741,4.237689,-0.51206404,4.475775,0.006110925,-0.043260336,-0.038735468
OrientationDeg,1676594985793,122489423948741,53.0,-25.0,-9.0
UncalMag,1676594985794,122489425858410,-88.7184,5.5022,-95.8432,-45.491467,0.31409264,-60.09035
UncalGyro,1676594985801,122489432926952,-0.76923203,-2.5144742,2.309376,0.0003451123,-0.00074430334,-0.0032802918
