# 
# Header Description:
# 
# Version: v3.0.5.6 Platform: 13 Manufacturer: Google Model: Pixel 6
# 
# Raw,utcTimeMillis,TimeNanos,LeapSecond,TimeUncertaintyNanos,FullBiasNanos,BiasNanos,BiasUncertaintyNanos,DriftNanosPerSecond,DriftUncertaintyNanosPerSecond,HardwareClockDiscontinuityCount,Svid,TimeOffsetNanos,State,ReceivedSvTimeNanos,ReceivedSvTimeUncertaintyNanos,Cn0DbHz,PseudorangeRateMetersPerSecond,PseudorangeRateUncertaintyMetersPerSecond,AccumulatedDeltaRangeState,AccumulatedDeltaRangeMeters,AccumulatedDeltaRangeUncertaintyMeters,CarrierFrequencyHz,CarrierCycles,CarrierPhase,CarrierPhaseUncertainty,MultipathIndicator,SnrInDb,ConstellationType,AgcDb,BasebandCn0DbHz,FullInterSignalBiasNanos,FullInterSignalBiasUncertaintyNanos,SatelliteInterSignalBiasNanos,SatelliteInterSignalBiasUncertaintyNanos,CodeType,ChipsetElapsedRealtimeNanos
# 
# UncalAccel,utcTimeMillis,elapsedRealtimeNanos,UncalAccelXMps2,UncalAccelYMps2,UncalAccelZMps2,BiasXMps2,BiasYMps2,BiasZMps2
# 
# Accel,utcTimeMillis,elapsedRealtimeNanos,AccelXMps2,AccelYMps2,AccelZMps2
# 
# UncalGyro,utcTimeMillis,elapsedRealtimeNanos,UncalGyroXRadPerSec,UncalGyroYRadPerSec,UncalGyroZRadPerSec,DriftXRadPerSec,DriftYRadPerSec,DriftZRadPerSec
# 
# Gyro,utcTimeMillis,elapsedRealtimeNanos,GyroXRadPerSec,GyroYRadPerSec,GyroZRadPerSec
# 
# UncalMag,utcTimeMillis,elapsedRealtimeNanos,UncalMagXMicroT,UncalMagYMicroT,UncalMagZMicroT,BiasXMicroT,BiasYMicroT,BiasZMicroT
# 
# Mag,utcTimeMillis,elapsedRealtimeNanos,MagXMicroT,MagYMicroT,MagZMicroT
# 
# OrientationDeg,utcTimeMillis,elapsedRealtimeNanos,yawDeg,rollDeg,pitchDeg
# 
# Fix,Provider,LatitudeDegrees,LongitudeDegrees,AltitudeMeters,SpeedMps,AccuracyMeters,BearingDegrees,UnixTimeMillis,SpeedAccuracyMps,BearingAccuracyDegrees,elapsedRealtimeNanos,VerticalAccuracyMeters
# 
# Nav,Svid,Type,Status,MessageId,Sub-messageId,Data(Bytes)
# 
# Status,UnixTimeMillis,SignalCount,SignalIndex,ConstellationType,Svid,CarrierFrequencyHz,Cn0DbHz,AzimuthDegrees,ElevationDegrees,UsedInFix,HasAlmanacData,HasEphemerisData,BasebandCn0DbHz
# 
UncalGyro,1676593389924,120893555040172,0.20616703,-0.66996646,0.37720928,0.00053183397,-0.0008613125,-0.003378958
UncalGyro,1676593389933,120893564009593,0.2666427,-0.59895337,0.33536503,0.00053183397,-0.0008613125,-0.003378958
UncalAccel,1676593389929,120893559518565,-0.23688944,3.6681972,11.324632,0.006110925,-0.043260336,-0.038735468
UncalAccel,1676593389938,120893568497386,0.35473597,3.9188452,11.691332,0.006110925,-0.043260336,-0.038735468
UncalMag,1676593389929,120893559999035,-50.7276,-27.389,-103.407196,-44.47528,5.575939,-61.08579
UncalMag,1676593389940,120893570007335,-52.3868,-28.8408,-101.6626,-44.47528,5.575939,-61.08579
UncalGyro,1676593389941,120893572990245,0.35170567,-0.44638976,0.19746219,0.00053183397,-0.0008613125,-0.003378958
OrientationDeg,1676593389928,120893559518565,166.0,2.0,-18.0
OrientationDeg,1676593389937,120893568497386,166.0,2.0,-18.0
UncalAccel,1676593389947,120893577484874,0.5377869,3.874578,12.092129,0.006110925,-0.043260336,-0.038735468
OrientationDeg,1676593389946,120893577484874,166.0,2.0,-18.0
UncalMag,1676593389948,120893579999767,-51.85,-28.499199,-101.394196,-44.47528,5.575939,-61.08579
UncalGyro,1676593389950,120893581969981,0.45448375,-0.19058995,0.026725354,0.00053183397,-0.0008613125,-0.003378958
UncalAccel,1676593389955,120893586451854,0.43669012,3.2231321,12.312269,0.006110925,-0.043260336,-0.038735468
OrientationDeg,1676593389956,120893586451854,166.0,2.0,-18.0
UncalMag,1676593389959,120893590001720,-51.606,-28.7066,-101.6016,-44.47528,5.575939,-61.08579
UncalGyro,1676593389959,120893590945080,0.549626,0.13805555,-0.074830994,0.00053183397,-0.0008613125,-0.003378958
UncalAccel,1676593389965,120893595435253,0.42592242,2.629114,12.613765,0.006110925,-0.043260336,-0.038735468
OrientationDeg,1676593389964,120893595435253,166.0,2.0,-19.0
UncalGyro,1676593389969,120893599930126,0.61529404,0.50854534,-0.049480084,0.00053183397,-0.0008613125,-0.003378958
UncalMag,1676593389968,120893599992687,-53.0578,-29.341,-103.7732,-44.47528,5.575939,-61.08579
UncalAccel,1676593389973,120893604417247,0.18783657,2.1176481,12.753146,0.006110925,-0.043260336,-0.038735468
OrientationDeg,1676593389974,120893604417247,166.0,2.0,-19.0
UncalGyro,1676593389977,120893608909862,0.66339964,0.818254,0.07895433,0.00053183397,-0.0008613125,-0.003378958
UncalMag,1676593389979,120893609999523,-50.1908,-28.609,-101.4918,-44.47528,5.575939,-61.08579
UncalAccel,1676593389982,120893613398021,-0.10289137,1.9417756,12.455838,0.006110925,-0.043260336,-0.038735468
OrientationDeg,1676593389983,120893613398021,166.0,3.0,-19.0
UncalGyro,1676593389987,120893617887218,0.7318166,0.98975444,0.25152376,0.00053183397,-0.0008613125,-0.003378958
UncalMag,1676593389989,120893620007091,-52.0818,-29.5728,-101.6382,-44.47528,5.575939,-61.08579
UncalAccel,1676593389992,120893622375804,-0.36311084,2.3264217,11.722438,0.006110925,-0.043260336,-0.038735468
OrientationDeg,1676593389992,120893622375804,165.0,3.0,-20.0
UncalGyro,1676593389996,120893626864024,0.7890852,0.9094256,0.4017966,0.00053183397,-0.0008613125,-0.003378958
UncalMag,1676593389999,120893630001232,-48.9586,-28.914,-100.2474,-44.47528,5.575939,-61.08579
UncalAccel,1676593390001,120893631352367,-0.05922236,4.0301113,8.706285,0.006110925,-0.043260336,-0.038735468
OrientationDeg,1676593390000,120893631352367,165.0,4.0,-20.0
UncalGyro,1676593390005,120893635845897,0.7154759,0.30482176,0.35460728,0.00053183397,-0.0008613125,-0.003378958
UncalMag,1676593390008,120893639999767,-49.922398,-28.7432,-101.504,-44.47528,5.575939,-61.08579
UncalAccel,1676593390010,120893640333874,0.0065802624,5.539983,7.4039917,0.006110925,-0.043260336,-0.038735468
OrientationDeg,1676593390010,120893640333874,165.0,3.0,-20.0
UncalGyro,1676593390013,120893644823375,0.54305923,-0.35094208,0.08155051,0.00053183397,-0.0008613125,-0.003378958
UncalAccel,1676593390018,120893649313793,0.6729814,5.852844,8.118847,0.006110925,-0.043260336,-0.038735468
UncalMag,1676593390018,120893649999767,-52.5454,-30.2072,-101.723595,-44.47528,5.575939,-61.08579
OrientationDeg,1676593390018,120893649313793,165.0,3.0,-21.0
UncalGyro,1676593390022,120893653805003,0.4222606,-0.7828238,-0.3115413,0.00053183397,-0.0008613125,-0.003378958
UncalAccel,1676593390028,120893658291942,2.1996021,5.392824,8.156534,0.006110925,-0.043260336,-0.038735468
OrientationDeg,1676593390027,120893658291942,165.0,3.0,-21.0
UncalMag,1676593390029,120893659999523,-51.728,-29.951,-99.844795,-44.47528,5.575939,-61.08579
UncalGyro,1676593390032,120893662783885,0.3817908,-1.2293663,-0.7093673,0.00053183397,-0.0008613125,-0.003378958
UncalAccel,1676593390036,120893667274181,2.9994032,4.779065,8.352746,0.006110925,-0.043260336,-0.038735468
OrientationDeg,1676593390036,120893667274181,166.0,2.0,-21.0
UncalMag,1676593390039,120893670002941,-54.0948,-30.914799,-102.0652,-44.47528,5.575939,-61.08579
UncalGyro,1676593390041,120893671763317,0.43020186,-1.651016,-1.0462594,0.00053183397,-0.0008613125,-0.003378958
UncalAccel,1676593390046,120893676250560,3.2763724,4.3651066,8.575278,0.006110925,-0.043260336,-0.038735468
OrientationDeg,1676593390045,120893676250560,166.0,1.0,-21.0
UncalMag,1676593390050,120893680001476,-53.3872,-31.536999,-103.0412,-44.47528,5.575939,-61.08579
UncalGyro,1676593390050,120893680743480,0.5316055,-1.9816469,-1.3374895,0.00053183397,-0.0008613125,-0.003378958
UncalAccel,1676593390055,120893685229015,3.0382864,4.165306,9.159725,0.006110925,-0.043260336,-0.038735468
OrientationDeg,1676593390054,120893685229015,167.0,1.0,-22.0
UncalGyro,1676593390058,120893689725170,0.6533204,-2.1636846,-1.5960382,0.00053183397,-0.0008613125,-0.003378958
UncalMag,1676593390059,120893690010265,-51.0326,-30.2804,-99.918,-44.47528,5.575939,-61.08579
UncalAccel,1676593390063,120893694215038,2.5950162,3.9673,9.795019,0.006110925,-0.043260336,-0.038735468
OrientationDeg,1676593390063,120893694215038,168.0,0.0,-22.0
UncalGyro,1676593390068,120893698700023,0.7504479,-2.152231,-1.8329011,0.00053183397,-0.0008613125,-0.003378958
UncalMag,1676593390068,120893699999279,-52.484398,-31.3906,-98.088,-44.47528,5.575939,-61.08579
UncalAccel,1676593390073,120893703191600,2.1026928,3.6346977,10.511071,0.006110925,-0.043260336,-0.038735468
OrientationDeg,1676593390072,120893703191600,169.0,0.0,-22.0
UncalGyro,1676593390077,120893707687572,0.7814494,-1.8295414,-2.0454822,0.00053183397,-0.0008613125,-0.003378958
UncalMag,1676593390080,120893710001964,-53.375,-31.9396,-99.381195,-44.47528,5.575939,-61.08579
UncalAccel,1676593390082,120893712170299,1.550549,3.5132618,11.208579,0.006110925,-0.043260336,-0.038735468
OrientationDeg,1676593390082,120893712170299,170.0,0.0,-23.0
UncalGyro,1676593390086,120893716661388,0.72784597,-1.1710287,-2.2385156,0.00053183397,-0.0008613125,-0.003378958
UncalMag,1676593390090,120893720000988,-52.411198,-32.2934,-98.5272,-44.47528,5.575939,-61.08579
UncalAccel,1676593390091,120893721144603,0.7788638,3.2015967,10.536197,0.006110925,-0.043260336,-0.038735468
OrientationDeg,1676593390091,120893721144603,171.0,0.0,-23.0
UncalGyro,1676593390094,120893725640575,0.6070473,-0.45753807,-2.3570235,0.00053183397,-0.0008613125,-0.003378958
UncalMag,1676593390100,120893730010998,-49.6784,-31.536999,-97.5756,-44.47528,5.575939,-61.08579
UncalAccel,1676593390099,120893730135814,-0.64845496,1.329213,8.155936,0.006110925,-0.043260336,-0.038735468
OrientationDeg,1676593390099,120893730135814,172.0,0.0,-23.0
UncalGyro,1676593390104,120893734618846,0.42256603,-0.014966198,-2.2740986,0.00053183397,-0.0008613125,-0.003378958
Status,0,29,0,6,2,1176450050,33.60,71.0,79.0,1,1,1,29.503609
Status,0,29,1,6,2,1575420030,41.43,71.0,79.0,1,1,1,37.232296
Status,0,29,2,3,17,1604249980,39.35,276.0,74.0,0,1,1,35.150864
Status,0,29,3,1,11,1575420030,45.45,151.0,69.0,0,1,1,41.245033
Status,0,29,4,1,11,1176450050,40.30,151.0,69.0,1,1,1,36.1989
Status,0,29,5,6,36,1575420030,43.08,64.0,68.0,1,1,1,38.87635
Status,0,29,6,6,36,1176450050,41.27,64.0,68.0,1,1,1,37.170403
Status,0,29,7,3,15,1602000000,38.21,329.0,65.0,1,1,1,34.01397
Status,0,29,8,1,12,1575420030,39.00,321.0,56.0,0,1,1,34.797295
Status,0,29,9,3,14,1598062460,44.77,144.0,56.0,1,1,1,40.574738
Status,0,29,10,1,6,1176450050,45.75,55.0,52.0,1,1,1,41.65123
Status,0,29,11,1,6,1575420030,43.91,55.0,52.0,1,1,1,39.70563
Status,0,29,12,6,34,1575420030,42.94,201.0,51.0,1,1,1,38.74281
Status,0,29,13,6,34,1176450050,38.28,201.0,51.0,1,1,1,34.180977
Status,0,29,14,1,24,1575420030,42.30,227.0,45.0,1,1,1,38.0998
Status,0,29,15,1,24,1176450050,38.98,227.0,45.0,1,1,1,34.88473
Status,0,29,16,3,24,1603124990,47.30,30.0,40.0,1,1,1,43.09741
Status,0,29,17,6,30,1176450050,35.79,314.0,39.0,1,1,1,31.69115
Status,0,29,18,6,30,1575420030,35.38,314.0,39.0,1,1,1,31.182255
Status,0,29,19,1,19,1575420030,44.60,55.0,32.0,1,1,1,40.396053
Status,0,29,20,6,25,1176450050,36.60,120.0,31.0,1,1,1,32.50359
Status,0,29,21,6,25,1575420030,41.60,120.0,31.0,1,1,1,37.40163
Status,0,29,22,3,18,1600312450,42.61,230.0,28.0,1,1,1,38.414238
Status,0,29,23,1,25,1176450050,35.36,310.0,27.0,1,1,1,31.255718
Status,0,29,24,1,25,1575420030,37.62,310.0,27.0,1,1,1,33.418907
Status,0,29,25,6,11,1575420030,39.95,41.0,20.0,1,1,1,35.754932
Status,0,29,26,6,11,1176450050,39.93,41.0,20.0,1,1,1,35.826477
Status,0,29,27,1,20,1575420030,46.32,148.0,19.0,1,1,1,42.117214
Status,0,29,28,3,16,1601437440,43.43,327.0,12.0,0,1,1,39.23255
UncalAccel,1676593390108,120893739118968,-1.3704891,1.0402796,6.2261243,0.006110925,-0.043260336,-0.038735468
UncalMag,1676593390109,120893740006847,-49.446598,-31.927399,-98.1856,-44.47528,5.575939,-61.08579
UncalGyro,1676593390112,120893743607372,0.16218472,0.08078693,-2.026698,0.00053183397,-0.0008613125,-0.003378958
OrientationDeg,1676593390109,120893739118968,174.0,0.0,-23.0
Fix,GPS,37.4312919143,-122.1550515445,-18.376051209757172,0.0,4.217591,86.473625,1676593389000,0.014948556,180.0,120893583198000,3.0
Fix,FLP,37.4312936000,-122.1550453000,-15.80000114440918,0.14919402,4.038,170.79866,1676593389888,,,120893519125682,4.777343
UncalAccel,1676593390117,120893748095592,-1.7246269,1.6073786,4.4117665,0.006110925,-0.043260336,-0.038735468
Raw,1676593389000,28539000000,,,-1360628578461174112,0.0,6.320174674713601,,,17,6,0.0,16431,433406929781660,17,39.99058532714844,436.2789603869737,0.15,25,12307.657959989387,0.001475151046179235,1575420030,,,,0,,1,,35.790584564208984,0.320142130558394,1.0,0.320142130558394,1.0,C,120893583198000
Raw,1676593389000,28539000000,,,-1360628578461174112,0.0,6.320174674713601,,,17,11,0.0,16431,433406931623524,11,45.44503402709961,-120.15783680099412,0.15,25,-3465.2718006170135,0.0007872527348808944,1575420030,,,,0,,1,,41.245033264160156,-0.20372681261465636,1.0,-0.20372681261465636,1.0,C,120893583198000
Raw,1676593389000,28539000000,,,-1360628578461174112,0.0,6.320174674713601,,,17,12,0.0,16431,433406930366314,25,35.057594299316406,-261.1137769634463,0.5628844172608138,17,-7434.51900258576,0.09760103459757542,1575420030,,,,1,,1,,30.857595443725586,-0.6984919076624261,1.0,-0.6984919076624261,1.0,C,120893583198000
Raw,1676593389000,28539000000,,,-1360628578461174112,0.0,6.320174674713601,,,17,19,0.0,16431,433406925761974,15,41.551841735839844,573.4064522906751,0.15,25,16107.970259191943,0.0012324621202424169,1575420030,,,,0,,1,,37.35184097290039,0.0,1.0,0.0,1.0,C,120893583198000
Raw,1676593389000,28539000000,,,-1360628578461174112,0.0,6.320174674713601,,,17,20,0.0,16431,433406920964736,12,46.31721496582031,-481.9452259029308,0.15,25,-13569.811477237032,0.0007505571120418608,1575420030,,,,0,,1,,42.11721420288086,0.0,1.0,0.0,1.0,C,120893583198000
Raw,1676593389000,28539000000,,,-1360628578461174112,0.0,6.320174674713601,,,17,24,0.0,16423,433406927413800,18,38.965484619140625,507.73511401163273,0.15,17,14335.2726768144,0.0968067731364516,1575420030,,,,0,,1,,34.76548385620117,-0.20372681261465636,1.0,-0.20372681261465636,1.0,C,120893583198000
Raw,1676593389000,28539000000,,,-1360628578461174112,0.0,6.320174674713601,,,17,25,0.0,16431,433406924536259,31,32.69738006591797,-485.2682654139048,0.6679719471612806,16,-13781.715611997077,340282346638528860000000000000000000000,1575420030,,,,0,,1,,28.49738121032715,-2.0372682255564105,1.0,-2.0372682255564105,1.0,C,120893583198000
Raw,1676593389000,28539000000,,,-1360628578461174112,0.0,6.320174674713601,,,17,6,0.0,81921,433406929782206,8,45.75122833251953,436.22269025125456,0.15,25,13643.991960054114,0.0010604881681501865,1176450050,,,,0,,1,,41.65122985839844,1.9208527336454408,7.671281903963041,1.9208527336454408,1.0,Q,120893583198000
Raw,1676593389000,28539000000,,,-1360628578461174112,0.0,6.320174674713601,,,17,11,0.0,81921,433406931624084,8,40.29889678955078,-120.16008624312462,0.15,25,-3849.540627523304,0.0018847065512090921,1176450050,,,,0,,1,,36.19889831542969,0.0,7.671281903963041,0.0,1.0,Q,120893583198000
Raw,1676593389000,28539000000,,,-1360628578461174112,0.0,6.320174674713601,,,17,24,0.0,81921,433406927414346,8,34.891414642333984,507.53699269186563,0.5653295672471339,25,15899.00441106035,0.003311628708615899,1176450050,,,,0,,1,,30.791414260864258,3.5215636101095664,7.671281903963041,3.5215636101095664,1.0,Q,120893583198000
Raw,1676593389000,28539000000,,,-1360628578461174112,0.0,6.320174674713601,,,17,25,0.0,81921,433406924536753,9,34.774959564208984,-485.1031359120518,0.5700487226968831,25,-15278.98342057987,0.0033563270699232817,1176450050,,,,0,,1,,30.67496109008789,1.0186341127782053,7.671281903963041,1.0186341127782053,1.0,Q,120893583198000
Raw,1676593389000,28539000000,,,-1360628578461174112,0.0,6.320174674713601,,,17,14,0.0,32995,12188933640442,33,44.77473831176758,514.5669765040866,0.15,17,14456.693956469036,0.09463708931853118,1598062460,,,,0,,3,,40.574737548828125,50.29141902923584,2.0000000474974513,50.29141902923584,2.0000000474974513,C,120893583198000
Raw,1676593389000,28539000000,,,-1360628578461174112,0.0,6.320174674713601,,,17,18,0.0,32995,12188927261069,33,42.61423873901367,-511.55752967557896,0.15,17,-14265.8748211363,0.09474045606218763,1600312450,,,,0,,3,,38.41423797607422,50.29141902923584,2.0000000474974513,50.29141902923584,2.0000000474974513,C,120893583198000
Raw,1676593389000,28539000000,,,-1360628578461174112,0.0,6.320174674713601,,,17,16,0.0,32995,12188922118010,33,41.655181884765625,-680.8024540712681,0.15,17,-18950.307707434087,0.09479914812633188,1601437440,,,,0,,3,,37.45518112182617,50.29141902923584,2.0000000474974513,50.29141902923584,2.0000000474974513,C,120893583198000
Raw,1676593389000,28539000000,,,-1360628578461174112,0.0,6.320174674713601,,,17,15,0.0,32995,12188934913883,42,37.51322555541992,-244.80685522782505,0.15,17,-6968.0476009289005,0.09549765451487541,1602000000,,,,0,,3,,33.31322479248047,50.29141902923584,2.0000000474974513,50.29141902923584,2.0000000474974513,C,120893583198000
Raw,1676593389000,28539000000,,,-1360628578461174112,0.0,6.320174674713601,,,17,24,0.0,32867,12188930347885,33,46.95322799682617,678.9301684046441,0.15,17,19779.90841482658,0.09418802815423324,1603124990,,,,0,,3,,42.75322723388672,50.29141902923584,2.0000000474974513,50.29141902923584,2.0000000474974513,C,120893583198000
Raw,1676593389000,28539000000,,,-1360628578461174112,0.0,6.320174674713601,,,17,17,0.0,32867,12188936244558,36,39.35086441040039,37.79749966778857,0.15,17,1008.5045747789967,0.09499631268951969,1604249980,,,,0,,3,,35.15086364746094,50.29141902923584,2.0000000474974513,50.29141902923584,2.0000000474974513,C,120893583198000
Raw,1676593389000,28539000000,,,-1360628578461174112,0.0,6.320174674713601,,,17,2,0.0,85026,433406922410724,16,40.57416915893555,108.50679164174204,0.15,25,3231.4206135246864,0.0013792954850941896,1575420030,,,,0,,6,,36.374168395996094,-6.024492904543876,1.5000000237487257,-6.024492904543876,1.5000000237487257,C,120893583198000
Raw,1676593389000,28539000000,,,-1360628578461174112,0.0,6.320174674713601,,,17,11,0.0,85026,433406911704160,23,36.12362289428711,595.2475810691008,0.15,25,16964.479190246013,0.0023024200927466154,1575420030,,,,0,,6,,31.923622131347656,-6.024492904543876,1.5000000237487257,-6.024492904543876,1.5000000237487257,C,120893583198000
Raw,1676593389000,28539000000,,,-1360628578461174112,0.0,6.320174674713601,,,17,25,0.0,85026,433406913544900,17,39.66318893432617,481.73371017775025,0.15,25,12978.502675219104,0.001531815156340599,1575420030,,,,0,,6,,35.46318817138672,-6.024492904543876,1.5000000237487257,-6.024492904543876,1.5000000237487257,C,120893583198000
Raw,1676593389000,28539000000,,,-1360628578461174112,0.0,6.320174674713601,,,17,30,0.0,85026,433406915010596,34,31.266746520996094,-306.1142757736868,0.7320314552437543,25,-8762.61640372212,0.003797099692746997,1575420030,,,,0,,6,,27.066747665405273,-6.024492904543876,1.5000000237487257,-6.024492904543876,1.5000000237487257,C,120893583198000
Raw,1676593389000,28539000000,,,-1360628578461174112,0.0,6.320174674713601,,,17,34,0.0,85026,433406918845810,13,42.94281005859375,-303.0066714703935,0.15,25,-8593.000681635782,0.0010500869248062372,1575420030,,,,0,,6,,38.7428092956543,-6.024492904543876,1.5000000237487257,-6.024492904543876,1.5000000237487257,C,120893583198000
Raw,1676593389000,28539000000,,,-1360628578461174112,0.0,6.320174674713601,,,17,36,0.0,85026,433406921483833,13,43.076351165771484,221.6572668610322,0.15,16,6577.888432725342,340282346638528860000000000000000000000,1575420030,,,,0,,6,,38.87635040283203,-6.024492904543876,1.5000000237487257,-6.024492904543876,1.5000000237487257,C,120893583198000
Raw,1676593389000,28539000000,,,-1360628578461174112,0.0,6.320174674713601,,,17,2,0.0,84003,433406922411280,17,30.319656372070312,108.52737744548182,0.7736139160859241,25,3152.7513220729293,0.005605695769190788,1176450050,,,,0,,6,,26.219655990600586,-3.808038309216499,8.171281927711767,-3.808038309216499,1.5000000237487257,Q,120893583198000
Raw,1676593389000,28539000000,,,-1360628578461174112,0.0,6.320174674713601,,,17,11,0.0,84003,433406911704695,8,39.926475524902344,595.2768919817104,0.15,25,18621.340715661827,0.001967273186892271,1176450050,,,,0,,6,,35.82647705078125,5.057780072093007,8.171281927711767,5.057780072093007,1.5000000237487257,Q,120893583198000
Raw,1676593389000,28539000000,,,-1360628578461174112,0.0,6.320174674713601,,,17,25,0.0,84003,433406913545420,8,33.54881286621094,481.6864378105531,0.6268075955171963,25,12493.920574286542,0.003865196369588375,1176450050,,,,0,,6,,29.448814392089844,-8.979765698313711,8.171281927711767,-8.979765698313711,1.5000000237487257,Q,120893583198000
Raw,1676593389000,28539000000,,,-1360628578461174112,0.0,6.320174674713601,,,17,30,0.0,84003,433406915011126,32,27.56574821472168,-306.37568821521677,0.8961229732206766,25,-9951.629919878087,0.007697060704231262,1176450050,,,,0,,6,,23.465747833251953,-8.425652049481869,8.171281927711767,-8.425652049481869,1.5000000237487257,Q,120893583198000
Raw,1676593389000,28539000000,,,-1360628578461174112,0.0,6.320174674713601,,,17,34,0.0,84003,433406918846355,9,35.375526428222656,-303.00765986163265,0.5456158283934445,25,-9265.147510012606,0.00313210254535079,1176450050,,,,0,,6,,31.275527954101562,-11.011515744030472,8.171281927711767,-11.011515744030472,1.5000000237487257,Q,120893583198000
Raw,1676593389000,28539000000,,,-1360628578461174112,0.0,6.320174674713601,,,17,36,0.0,84003,433406921484369,8,41.27040100097656,221.76261573414422,0.15,25,6699.7785570694805,0.0016852660337463021,1176450050,,,,0,,6,,37.17040252685547,-11.750333942472933,8.171281927711767,-11.750333942472933,1.5000000237487257,Q,120893583198000
UncalMag,1676593390118,120893749998790,-51.4352,-32.7326,-100.345,-44.47528,5.575939,-61.08579
OrientationDeg,1676593390117,120893748095592,175.0,0.0,-23.0
UncalGyro,1676593390121,120893752574718,-0.07238753,-0.25045475,-1.6765196,0.00053183397,-0.0008613125,-0.003378958
UncalAccel,1676593390126,120893757075634,-1.9561325,2.2558336,4.066004,0.006110925,-0.043260336,-0.038735468
UncalMag,1676593390130,120893760007580,-52.7772,-33.9404,-102.8948,-44.47528,5.575939,-61.08579
OrientationDeg,1676593390126,120893757075634,176.0,0.0,-23.0
UncalGyro,1676593390130,120893761567150,-0.22953261,-0.7666359,-1.3037392,0.00053183397,-0.0008613125,-0.003378958
UncalAccel,1676593390135,120893766057628,-1.9818554,3.2973096,5.0339007,0.006110925,-0.043260336,-0.038735468
OrientationDeg,1676593390136,120893766057628,176.0,0.0,-23.0
UncalMag,1676593390140,120893770004406,-52.1184,-32.8302,-100.3816,-44.47528,5.575939,-61.08579
UncalGyro,1676593390140,120893770545299,-0.30680707,-1.1833987,-1.0218248,0.00053183397,-0.0008613125,-0.003378958
UncalAccel,1676593390145,120893775033886,-1.5302101,5.112864,7.056434,0.006110925,-0.043260336,-0.038735468
OrientationDeg,1676593390145,120893775033886,176.0,0.0,-23.0
UncalGyro,1676593390149,120893779525829,-0.31108314,-1.2797627,-0.9466884,0.00053183397,-0.0008613125,-0.003378958
UncalMag,1676593390149,120893779999279,-51.8988,-32.720398,-101.7602,-44.47528,5.575939,-61.08579
UncalAccel,1676593390153,120893784013378,-1.4201403,5.3760743,8.421539,0.006110925,-0.043260336,-0.038735468
OrientationDeg,1676593390153,120893784013378,177.0,0.0,-23.0
UncalGyro,1676593390157,120893788504100,-0.20616703,-1.1317806,-0.95462966,0.00053183397,-0.0008613125,-0.003378958
UncalMag,1676593390160,120893790010753,-54.3754,-33.062,-101.9798,-44.47528,5.575939,-61.08579
UncalAccel,1676593390161,120893792992565,-2.742773,5.4179487,8.939586,0.006110925,-0.043260336,-0.038735468
OrientationDeg,1676593390162,120893792992565,177.0,0.0,-23.0
UncalGyro,1676593390167,120893797484325,-0.055741455,-0.8739954,-0.8174904,0.00053183397,-0.0008613125,-0.003378958
UncalMag,1676593390169,120893800010998,-53.106598,-32.5252,-103.407196,-44.47528,5.575939,-61.08579
UncalAccel,1676593390170,120893801972118,-6.6053867,5.042874,8.615358,0.006110925,-0.043260336,-0.038735468
OrientationDeg,1676593390171,120893801972118,177.0,0.0,-23.0
UncalGyro,1676593390175,120893806462902,0.112399206,-0.6534731,-0.2932153,0.00053183397,-0.0008613125,-0.003378958
UncalMag,1676593390180,120893810010753,-51.313198,-32.1592,-102.2726,-44.47528,5.575939,-61.08579
UncalAccel,1676593390179,120893810950694,-6.4612193,4.3274198,8.245069,0.006110925,-0.043260336,-0.038735468
OrientationDeg,1676593390179,120893810950694,177.0,0.0,-23.0
UncalGyro,1676593390184,120893815438426,0.22800545,-0.34238997,0.26068676,0.00053183397,-0.0008613125,-0.003378958
UncalAccel,1676593390189,120893819926952,-2.108675,2.876771,6.980462,0.006110925,-0.043260336,-0.038735468
UncalMag,1676593390189,120893819997570,-51.1912,-32.0128,-100.771996,-44.47528,5.575939,-61.08579
OrientationDeg,1676593390189,120893819926952,177.0,0.0,-23.0
UncalGyro,1676593390193,120893824421520,0.25793785,-0.14721853,0.49464813,0.00053183397,-0.0008613125,-0.003378958
UncalAccel,1676593390197,120893828911082,0.47976094,2.1224337,5.767899,0.006110925,-0.043260336,-0.038735468
UncalMag,1676593390199,120893830010998,-50.8374,-32.3544,-100.930595,-44.47528,5.575939,-61.08579
OrientationDeg,1676593390198,120893828911082,176.0,-1.0,-23.0
UncalGyro,1676593390203,120893833403026,0.24770586,-0.2003638,0.53786683,0.00053183397,-0.0008613125,-0.003378958
UncalAccel,1676593390207,120893837886608,1.0857433,2.1332014,5.6853466,0.006110925,-0.043260336,-0.038735468
OrientationDeg,1676593390206,120893837886608,176.0,-1.0,-23.0
UncalMag,1676593390210,120893840010998,-53.8386,-32.6106,-100.759796,-44.47528,5.575939,-61.08579
UncalGyro,1676593390211,120893842368358,0.25961772,-0.4100433,0.5581781,0.00053183397,-0.0008613125,-0.003378958
UncalAccel,1676593390215,120893846868847,0.6227321,2.400001,7.1473613,0.006110925,-0.043260336,-0.038735468
OrientationDeg,1676593390215,120893846868847,175.0,-1.0,-23.0
UncalMag,1676593390220,120893850010998,-55.1806,-33.5988,-101.5162,-44.47528,5.575939,-61.08579
UncalGyro,1676593390221,120893851360790,0.33322698,-0.39950588,0.63407815,0.00053183397,-0.0008613125,-0.003378958
UncalAccel,1676593390224,120893855851329,0.43848476,2.536392,9.892527,0.006110925,-0.043260336,-0.038735468
OrientationDeg,1676593390225,120893855851329,175.0,-2.0,-24.0
UncalMag,1676593390230,120893860006359,-50.8984,-32.024998,-99.393394,-44.47528,5.575939,-61.08579
UncalGyro,1676593390229,120893860336131,0.4540256,0.027183503,0.7121162,0.00053183397,-0.0008613125,-0.003378958
UncalAccel,1676593390233,120893864815929,0.84406817,2.6919255,9.113664,0.006110925,-0.043260336,-0.038735468
OrientationDeg,1676593390234,120893864815929,174.0,-2.0,-24.0
UncalGyro,1676593390239,120893869319774,0.5882632,0.4288274,0.73929965,0.00053183397,-0.0008613125,-0.003378958
UncalMag,1676593390240,120893870000255,-50.5934,-32.086,-99.1982,-44.47528,5.575939,-61.08579
UncalAccel,1676593390243,120893873807079,1.3680964,2.9473593,7.64447,0.006110925,-0.043260336,-0.038735468
OrientationDeg,1676593390242,120893873807079,174.0,-2.0,-24.0
UncalGyro,1676593390248,120893878300731,0.6985244,0.65133506,0.73807794,0.00053183397,-0.0008613125,-0.003378958
UncalMag,1676593390250,120893880010753,-49.8858,-32.2934,-97.990395,-44.47528,5.575939,-61.08579
UncalAccel,1676593390252,120893882786022,1.0468599,2.996412,6.1848483,0.006110925,-0.043260336,-0.038735468
OrientationDeg,1676593390252,120893882786022,173.0,-1.0,-25.0
UncalGyro,1676593390257,120893887277294,0.7498371,0.65286225,0.7102836,0.00053183397,-0.0008613125,-0.003378958
UncalMag,1676593390259,120893890010753,-49.226997,-31.5858,-97.660995,-44.47528,5.575939,-61.08579
UncalAccel,1676593390260,120893891765819,0.11066805,2.5268207,4.9202414,0.006110925,-0.043260336,-0.038735468
OrientationDeg,1676593390260,120893891765819,173.0,-1.0,-25.0
UncalGyro,1676593390265,120893896256603,0.6953174,0.5137377,0.7160868,0.00053183397,-0.0008613125,-0.003378958
UncalMag,1676593390270,120893900010753,-48.7756,-32.0372,-96.904594,-44.47528,5.575939,-61.08579
UncalAccel,1676593390270,120893900745555,-0.64247286,1.3369896,3.9864426,0.006110925,-0.043260336,-0.038735468
OrientationDeg,1676593390269,120893900745555,173.0,-1.0,-25.0
UncalGyro,1676593390275,120893905237011,0.5369505,0.30650163,0.8379544,0.00053183397,-0.0008613125,-0.003378958
UncalAccel,1676593390278,120893909724559,-0.8105687,-0.11066805,2.958127,0.006110925,-0.043260336,-0.038735468
UncalMag,1676593390278,120893909999035,-50.4348,-32.391,-98.758995,-44.47528,5.575939,-61.08579
OrientationDeg,1676593390278,120893909724559,172.0,-1.0,-25.0
UncalGyro,1676593390284,120893914215221,0.34009922,-0.0804815,1.1026118,0.00053183397,-0.0008613125,-0.003378958
UncalAccel,1676593390287,120893918703869,-0.116650105,-0.028115666,2.585445,0.006110925,-0.043260336,-0.038735468
OrientationDeg,1676593390287,120893918703869,171.0,-2.0,-25.0
UncalMag,1676593390290,120893920010998,-51.239998,-33.1718,-97.7098,-44.47528,5.575939,-61.08579
UncalGyro,1676593390292,120893923195995,0.15775596,-0.52656585,1.4013249,0.00053183397,-0.0008613125,-0.003378958
UncalAccel,1676593390296,120893927683300,0.66999036,0.72442704,2.8163524,0.006110925,-0.043260336,-0.038735468
OrientationDeg,1676593390296,120893927683300,170.0,-3.0,-25.0
UncalMag,1676593390300,120893930010753,-49.9468,-32.086,-97.4048,-44.47528,5.575939,-61.08579
UncalGyro,1676593390301,120893932174083,0.014966198,-1.0322095,1.6320792,0.00053183397,-0.0008613125,-0.003378958
UncalAccel,1676593390305,120893936659801,2.2289143,1.6169499,3.1669009,0.006110925,-0.043260336,-0.038735468
OrientationDeg,1676593390306,120893936659801,169.0,-4.0,-25.0
UncalMag,1676593390310,120893940010998,-50.7398,-32.1714,-96.2946,-44.47528,5.575939,-61.08579
UncalGyro,1676593390311,120893941142772,-0.08659015,-1.5373951,1.7061466,0.00053183397,-0.0008613125,-0.003378958
UncalAccel,1676593390314,120893945642040,2.934797,2.658426,4.685745,0.006110925,-0.043260336,-0.038735468
OrientationDeg,1676593390315,120893945642040,168.0,-5.0,-25.0
UncalMag,1676593390319,120893950010998,-52.0574,-32.1104,-95.330795,-44.47528,5.575939,-61.08579
UncalGyro,1676593390319,120893950129772,-0.12843442,-1.8687896,1.7030923,0.00053183397,-0.0008613125,-0.003378958
UncalAccel,1676593390323,120893954612254,3.2338998,3.0412776,6.4618177,0.006110925,-0.043260336,-0.038735468
OrientationDeg,1676593390323,120893954612254,167.0,-7.0,-25.0
UncalGyro,1676593390328,120893959112621,-0.1142318,-1.9251418,1.7056885,0.00053183397,-0.0008613125,-0.003378958
UncalMag,1676593390330,120893960010753,-54.778,-32.9766,-96.904594,-44.47528,5.575939,-61.08579
UncalAccel,1676593390333,120893963602245,3.5539398,2.9874392,8.140981,0.006110925,-0.043260336,-0.038735468
OrientationDeg,1676593390333,120893963602245,166.0,-8.0,-25.0
UncalGyro,1676593390337,120893968094493,-0.04734206,-1.687668,1.7528778,0.00053183397,-0.0008613125,-0.003378958
UncalMag,1676593390340,120893970007091,-54.0338,-32.0494,-96.5996,-44.47528,5.575939,-61.08579
UncalAccel,1676593390342,120893972580577,3.3194432,2.4089742,9.409177,0.006110925,-0.043260336,-0.038735468
OrientationDeg,1676593390341,120893972580577,165.0,-9.0,-25.0
UncalGyro,1676593390347,120893977071849,0.021685716,-1.2464706,1.8611537,0.00053183397,-0.0008613125,-0.003378958
UncalMag,1676593390350,120893980010998,-56.791,-32.635,-97.9294,-44.47528,5.575939,-61.08579
UncalAccel,1676593390350,120893981559459,3.3373895,1.588236,8.432905,0.006110925,-0.043260336,-0.038735468
OrientationDeg,1676593390351,120893981559459,164.0,-10.0,-25.0
UncalGyro,1676593390355,120893986049999,0.046578474,-0.9184359,1.9853121,0.00053183397,-0.0008613125,-0.003378958
UncalMag,1676593390360,120893990010753,-54.961,-31.5858,-95.8554,-44.47528,5.575939,-61.08579
UncalAccel,1676593390359,120893990538952,3.463611,0.82971126,6.823732,0.006110925,-0.043260336,-0.038735468
OrientationDeg,1676593390359,120893990538952,163.0,-11.0,-24.0
UncalGyro,1676593390365,120893995030773,-0.017104227,-0.77671516,2.0865629,0.00053183397,-0.0008613125,-0.003378958
UncalAccel,1676593390369,120893999518566,3.2470603,1.0654043,6.5808606,0.006110925,-0.043260336,-0.038735468
UncalMag,1676593390368,120893999999279,-57.9134,-31.6346,-96.270195,-44.47528,5.575939,-61.08579
OrientationDeg,1676593390368,120893999518566,162.0,-12.0,-24.0
UncalGyro,1676593390373,120894004008861,-0.20677789,-0.6247624,2.0948095,0.00053183397,-0.0008613125,-0.003378958
UncalAccel,1676593390378,120894008497326,3.2967114,1.8610178,6.4277196,0.006110925,-0.043260336,-0.038735468
OrientationDeg,1676593390377,120894008497326,161.0,-13.0,-24.0
UncalMag,1676593390380,120894010010753,-59.0724,-31.109999,-97.648796,-44.47528,5.575939,-61.08579
UncalGyro,1676593390381,120894012989635,-0.50701815,-0.5936083,1.9796616,0.00053183397,-0.0008613125,-0.003378958
UncalAccel,1676593390386,120894017477062,4.137789,2.0578275,6.337391,0.006110925,-0.043260336,-0.038735468
OrientationDeg,1676593390386,120894017477062,160.0,-14.0,-23.0
UncalMag,1676593390390,120894020010998,-61.280598,-31.658998,-97.4292,-44.47528,5.575939,-61.08579
UncalGyro,1676593390391,120894021968029,-0.8390234,-0.70356405,1.7873917,0.00053183397,-0.0008613125,-0.003378958
UncalAccel,1676593390396,120894026452281,5.0452666,1.6833507,7.2783685,0.006110925,-0.043260336,-0.038735468
OrientationDeg,1676593390396,120894026452281,159.0,-14.0,-22.0
UncalMag,1676593390399,120894030010998,-61.244,-31.1588,-96.880196,-44.47528,5.575939,-61.08579
UncalGyro,1676593390400,120894030932567,-1.0975721,-0.7848091,1.5888605,0.00053183397,-0.0008613125,-0.003378958
UncalAccel,1676593390404,120894035435619,5.8881383,0.930808,8.240881,0.006110925,-0.043260336,-0.038735468
OrientationDeg,1676593390404,120894035435619,159.0,-15.0,-21.0
UncalGyro,1676593390409,120894039926281,-1.2227995,-0.82940227,1.4442382,0.00053183397,-0.0008613125,-0.003378958
UncalMag,1676593390409,120894040011730,-61.1708,-30.012,-97.1242,-44.47528,5.575939,-61.08579
UncalAccel,1676593390414,120894044419139,6.337391,-0.069391854,8.437691,0.006110925,-0.043260336,-0.038735468
OrientationDeg,1676593390413,120894044419139,158.0,-16.0,-21.0
UncalGyro,1676593390417,120894048904186,-1.196685,-0.93844175,1.3782647,0.00053183397,-0.0008613125,-0.003378958
UncalMag,1676593390420,120894050010753,-63.5742,-30.317,-97.7586,-44.47528,5.575939,-61.08579
UncalAccel,1676593390423,120894053383617,6.5162544,-0.76570326,8.768498,0.006110925,-0.043260336,-0.038735468
OrientationDeg,1676593390422,120894053383617,157.0,-16.0,-20.0
UncalGyro,1676593390427,120894057885448,-1.0500773,-1.0352639,1.3868169,0.00053183397,-0.0008613125,-0.003378958
UncalMag,1676593390429,120894059999767,-63.4278,-29.4508,-97.6976,-44.47528,5.575939,-61.08579
UncalAccel,1676593390432,120894062371105,6.9361944,-0.97866446,9.336794,0.006110925,-0.043260336,-0.038735468
OrientationDeg,1676593390431,120894062371105,157.0,-17.0,-19.0
UncalGyro,1676593390435,120894066857005,-0.8501717,-1.0290025,1.4196508,0.00053183397,-0.0008613125,-0.003378958
UncalMag,1676593390440,120894070010509,-62.3542,-28.584599,-96.7582,-44.47528,5.575939,-61.08579
UncalAccel,1676593390440,120894071350475,7.413563,-0.84765744,9.458828,0.006110925,-0.043260336,-0.038735468
OrientationDeg,1676593390441,120894071350475,156.0,-18.0,-19.0
UncalGyro,1676593390445,120894075832286,-0.659429,-0.9607383,1.3846788,0.00053183397,-0.0008613125,-0.003378958
UncalMag,1676593390449,120894080010753,-64.7454,-28.6456,-97.4536,-44.47528,5.575939,-61.08579
UncalAccel,1676593390450,120894080333019,8.148159,-0.5306084,8.791828,0.006110925,-0.043260336,-0.038735468
OrientationDeg,1676593390449,120894080333019,156.0,-19.0,-18.0
UncalGyro,1676593390453,120894084813183,-0.5311473,-0.9914343,1.2286028,0.00053183397,-0.0008613125,-0.003378958
UncalAccel,1676593390458,120894089315135,8.740383,-0.5204389,7.679166,0.006110925,-0.043260336,-0.038735468
UncalMag,1676593390459,120894089999523,-64.4282,-28.267399,-96.7094,-44.47528,5.575939,-61.08579
OrientationDeg,1676593390458,120894089315135,155.0,-19.0,-18.0
UncalGyro,1676593390463,120894093802623,-0.5155703,-1.201572,1.0380127,0.00053183397,-0.0008613125,-0.003378958
UncalAccel,1676593390468,120894098294017,8.762517,-0.94755775,7.3100734,0.006110925,-0.043260336,-0.038735468
OrientationDeg,1676593390468,120894098294017,155.0,-20.0,-17.0
UncalMag,1676593390470,120894100010265,-65.2578,-27.938,-96.2336,-44.47528,5.575939,-61.08579
UncalGyro,1676593390472,120894102782116,-0.63178736,-1.3930782,0.8924741,0.00053183397,-0.0008613125,-0.003378958
UncalAccel,1676593390477,120894107270763,8.062616,-1.4650056,9.32483,0.006110925,-0.043260336,-0.038735468
OrientationDeg,1676593390477,120894107270763,154.0,-21.0,-17.0
UncalMag,1676593390480,120894110010998,-65.8678,-27.254799,-97.185196,-44.47528,5.575939,-61.08579
UncalGyro,1676593390481,120894111761669,-0.768163,-1.2673926,0.8355109,0.00053183397,-0.0008613125,-0.003378958
UncalAccel,1676593390486,120894116250499,7.272386,-2.667399,11.98864,0.006110925,-0.043260336,-0.038735468
OrientationDeg,1676593390485,120894116250499,154.0,-22.0,-16.0
UncalMag,1676593390490,120894120010998,-68.3688,-27.8526,-97.8928,-44.47528,5.575939,-61.08579
UncalGyro,1676593390489,120894120742199,-0.8565858,-0.97402465,0.9334021,0.00053183397,-0.0008613125,-0.003378958
UncalAccel,1676593390494,120894125229625,8.045268,-3.7657046,11.23849,0.006110925,-0.043260336,-0.038735468
OrientationDeg,1676593390495,120894125229625,154.0,-22.0,-15.0
UncalGyro,1676593390499,120894129720165,-0.93294394,-0.72692966,1.1038336,0.00053183397,-0.0008613125,-0.003378958
UncalMag,1676593390498,120894129999523,-67.770996,-27.3646,-97.417,-44.47528,5.575939,-61.08579
UncalAccel,1676593390503,120894134208934,7.856833,-4.2442694,10.968101,0.006110925,-0.043260336,-0.038735468
OrientationDeg,1676593390503,120894134208934,153.0,-23.0,-15.0
UncalGyro,1676593390507,120894138700878,-0.9204212,-0.6713409,1.2776246,0.00053183397,-0.0008613125,-0.003378958
UncalMag,1676593390510,120894140010753,-67.465996,-25.9982,-97.7586,-44.47528,5.575939,-61.08579
UncalAccel,1676593390513,120894143188488,7.518847,-4.63071,10.331012,0.006110925,-0.043260336,-0.038735468
OrientationDeg,1676593390513,120894143188488,153.0,-23.0,-14.0
UncalGyro,1676593390516,120894147676890,-0.838718,-0.79534656,1.4607315,0.00053183397,-0.0008613125,-0.003378958
UncalMag,1676593390520,120894150010998,-68.7836,-26.291,-97.5878,-44.47528,5.575939,-61.08579
UncalAccel,1676593390521,120894152158641,6.9858456,-4.896313,9.664611,0.006110925,-0.043260336,-0.038735468
OrientationDeg,1676593390522,120894152158641,152.0,-24.0,-13.0
UncalGyro,1676593390525,120894156659557,-0.70631295,-1.0393872,1.6505579,0.00053183397,-0.0008613125,-0.003378958
UncalMag,1676593390529,120894160001232,-70.7112,-26.1202,-97.038795,-44.47528,5.575939,-61.08579
UncalAccel,1676593390531,120894161146923,6.643074,-4.640281,9.083155,0.006110925,-0.043260336,-0.038735468
OrientationDeg,1676593390530,120894161146923,152.0,-25.0,-12.0
UncalGyro,1676593390534,120894165640148,-0.54351735,-1.403921,1.7896825,0.00053183397,-0.0008613125,-0.003378958
UncalMag,1676593390540,120894170010753,-69.8938,-24.5464,-96.5264,-44.47528,5.575939,-61.08579
UncalAccel,1676593390540,120894170123180,6.541977,-4.4578285,8.578269,0.006110925,-0.043260336,-0.038735468
OrientationDeg,1676593390539,120894170123180,151.0,-26.0,-12.0
UncalGyro,1676593390544,120894174605480,-0.38255435,-1.8579466,1.8637499,0.00053183397,-0.0008613125,-0.003378958
UncalAccel,1676593390549,120894179105846,5.8564334,-6.079564,7.847262,0.006110925,-0.043260336,-0.038735468
UncalMag,1676593390548,120894179999035,-71.7116,-24.9368,-95.9286,-44.47528,5.575939,-61.08579
OrientationDeg,1676593390548,120894179105846,150.0,-27.0,-11.0
UncalGyro,1676593390552,120894183593395,-0.20311269,-2.424066,2.0815234,0.00053183397,-0.0008613125,-0.003378958
UncalAccel,1676593390557,120894188076365,5.8713884,-7.2550383,6.906883,0.006110925,-0.043260336,-0.038735468
OrientationDeg,1676593390557,120894188076365,149.0,-29.0,-10.0
UncalMag,1676593390559,120894190010998,-72.7486,-24.0096,-95.8554,-44.47528,5.575939,-61.08579
UncalGyro,1676593390561,120894192576365,-0.04337143,-3.1155655,2.4478898,0.00053183397,-0.0008613125,-0.003378958
UncalAccel,1676593390566,120894197062755,6.6801624,-5.5860443,6.8428745,0.006110925,-0.043260336,-0.038735468
OrientationDeg,1676593390566,120894197062755,148.0,-31.0,-10.0
UncalMag,1676593390569,120894200010753,-74.944595,-23.558199,-95.965195,-44.47528,5.575939,-61.08579
UncalGyro,1676593390570,120894201558422,0.06780604,-3.7210855,2.7310257,0.00053183397,-0.0008613125,-0.003378958
UncalAccel,1676593390575,120894206044201,7.1503525,-4.063611,7.6109705,0.006110925,-0.043260336,-0.038735468
OrientationDeg,1676593390576,120894206044201,147.0,-33.0,-9.0
UncalMag,1676593390579,120894210010753,-76.6892,-22.935999,-94.696396,-44.47528,5.575939,-61.08579
UncalGyro,1676593390580,120894210536327,0.18188512,-4.0350704,2.8098273,0.00053183397,-0.0008613125,-0.003378958
UncalAccel,1676593390585,120894215020397,8.09133,-3.153142,9.58804,0.006110925,-0.043260336,-0.038735468
OrientationDeg,1676593390585,120894215020397,146.0,-35.0,-8.0
UncalGyro,1676593390589,120894219502147,0.33017266,-3.9139664,2.739578,0.00053183397,-0.0008613125,-0.003378958
UncalMag,1676593390589,120894219999279,-78.1776,-22.265,-93.391,-44.47528,5.575939,-61.08579
UncalAccel,1676593390593,120894224002880,8.715259,-2.9880373,10.902298,0.006110925,-0.043260336,-0.038735468
OrientationDeg,1676593390594,120894224002880,145.0,-38.0,-7.0
UncalGyro,1676593390597,120894228494579,0.45906523,-3.4952183,2.637716,0.00053183397,-0.0008613125,-0.003378958
UncalMag,1676593390600,120894230010753,-80.6664,-22.1796,-93.4886,-44.47528,5.575939,-61.08579
UncalAccel,1676593390601,120894232985118,8.300702,-4.328616,10.69831,0.006110925,-0.043260336,-0.038735468
OrientationDeg,1676593390602,120894232985118,143.0,-39.0,-7.0
UncalGyro,1676593390607,120894237471873,0.45707992,-3.0147727,2.621681,0.00053183397,-0.0008613125,-0.003378958
UncalMag,1676593390610,120894240010998,-81.2886,-21.4354,-89.5968,-44.47528,5.575939,-61.08579
UncalAccel,1676593390611,120894241957470,8.413164,-5.2498527,9.711869,0.006110925,-0.043260336,-0.038735468
OrientationDeg,1676593390610,120894241957470,142.0,-41.0,-6.0
UncalGyro,1676593390616,120894246452221,0.3203988,-2.5993843,2.682004,0.00053183397,-0.0008613125,-0.003378958
UncalMag,1676593390620,120894250010998,-82.105995,-20.2398,-88.340195,-44.47528,5.575939,-61.08579
UncalAccel,1676593390619,120894250940380,8.643474,-5.2905307,8.38804,0.006110925,-0.043260336,-0.038735468
OrientationDeg,1676593390620,120894250940380,141.0,-42.0,-5.0
UncalGyro,1676593390625,120894255432506,0.10430524,-2.2605069,2.733011,0.00053183397,-0.0008613125,-0.003378958
UncalAccel,1676593390628,120894259917552,8.547761,-5.040481,7.878967,0.006110925,-0.043260336,-0.038735468
UncalMag,1676593390629,120894259999035,-83.448,-19.6176,-88.816,-44.47528,5.575939,-61.08579
OrientationDeg,1676593390628,120894259917552,140.0,-44.0,-4.0
UncalGyro,1676593390633,120894264400951,-0.14569137,-1.9758437,2.7531698,0.00053183397,-0.0008613125,-0.003378958
UncalAccel,1676593390637,120894268899547,8.571689,-4.7246284,7.4422765,0.006110925,-0.043260336,-0.038735468
OrientationDeg,1676593390637,120894268899547,140.0,-45.0,-3.0
UncalMag,1676593390640,120894270010998,-85.1194,-19.093,-86.864,-44.47528,5.575939,-61.08579
UncalGyro,1676593390643,120894273390148,-0.35934147,-1.8052595,2.73576,0.00053183397,-0.0008613125,-0.003378958
UncalAccel,1676593390647,120894277881846,8.633304,-4.2646084,7.216155,0.006110925,-0.043260336,-0.038735468
OrientationDeg,1676593390647,120894277881846,139.0,-46.0,-2.0
UncalMag,1676593390650,120894280010509,-85.7904,-18.0072,-86.9494,-44.47528,5.575939,-61.08579
UncalGyro,1676593390651,120894282367626,-0.52855116,-1.7153096,2.6823094,0.00053183397,-0.0008613125,-0.003378958
UncalAccel,1676593390655,120894286846691,8.135597,-4.007978,6.9673014,0.006110925,-0.043260336,-0.038735468
OrientationDeg,1676593390656,120894286846691,138.0,-46.0,-1.0
UncalMag,1676593390660,120894290010998,-86.3882,-16.8482,-85.839195,-44.47528,5.575939,-61.08579
UncalGyro,1676593390661,120894291349010,-0.66752297,-1.6998852,2.642145,0.00053183397,-0.0008613125,-0.003378958
UncalAccel,1676593390665,120894295837658,7.773084,-4.106682,5.892924,0.006110925,-0.043260336,-0.038735468
OrientationDeg,1676593390664,120894295837658,138.0,-47.0,0.0
UncalMag,1676593390670,120894300010753,-87.2788,-15.420799,-86.2784,-44.47528,5.575939,-61.08579
UncalGyro,1676593390669,120894300329540,-0.817185,-1.8524488,2.6429086,0.00053183397,-0.0008613125,-0.003378958
UncalAccel,1676593390674,120894304805370,7.9184484,-4.4339004,4.914858,0.006110925,-0.043260336,-0.038735468
OrientationDeg,1676593390674,120894304805370,138.0,-48.0,1.0
UncalGyro,1676593390679,120894309307811,-0.99112886,-2.1273382,2.6804767,0.00053183397,-0.0008613125,-0.003378958
UncalMag,1676593390679,120894309999035,-87.7912,-14.7132,-85.046196,-44.47528,5.575939,-61.08579
UncalAccel,1676593390682,120894313796093,7.9854474,-4.8083773,5.2899327,0.006110925,-0.043260336,-0.038735468
OrientationDeg,1676593390683,120894313796093,137.0,-50.0,3.0
UncalGyro,1676593390688,120894318290233,-1.1498011,-2.378862,2.7495046,0.00053183397,-0.0008613125,-0.003378958
UncalMag,1676593390690,120894320010998,-88.5476,-13.1272,-83.753,-44.47528,5.575939,-61.08579
UncalAccel,1676593390691,120894322775829,8.389236,-5.175077,5.9904313,0.006110925,-0.043260336,-0.038735468
OrientationDeg,1676593390692,120894322775829,137.0,-51.0,4.0
UncalGyro,1676593390696,120894327266552,-1.2765557,-2.5410466,2.8403707,0.00053183397,-0.0008613125,-0.003378958
UncalMag,1676593390700,120894330010998,-89.877396,-12.0658,-83.8872,-44.47528,5.575939,-61.08579
UncalAccel,1676593390701,120894331755321,8.709874,-5.6464634,7.0043902,0.006110925,-0.043260336,-0.038735468
OrientationDeg,1676593390700,120894331755321,137.0,-52.0,6.0
UncalGyro,1676593390705,120894336247020,-1.3930782,-2.5497515,2.9526172,0.00053183397,-0.0008613125,-0.003378958
UncalMag,1676593390710,120894340010998,-91.5366,-11.663199,-82.557396,-44.47528,5.575939,-61.08579
UncalAccel,1676593390710,120894340734569,8.72124,-5.837889,7.3082786,0.006110925,-0.043260336,-0.038735468
OrientationDeg,1676593390710,120894340734569,137.0,-53.0,7.0
UncalGyro,1676593390714,120894345225353,-1.5503759,-2.4596488,3.063031,0.00053183397,-0.0008613125,-0.003378958
UncalAccel,1676593390719,120894349714122,9.127422,-5.553143,6.5778694,0.006110925,-0.043260336,-0.038735468
UncalMag,1676593390719,120894349999035,-90.9144,-10.004,-79.5318,-44.47528,5.575939,-61.08579
OrientationDeg,1676593390719,120894349714122,136.0,-55.0,9.0
UncalGyro,1676593390724,120894354203075,-1.7476854,-2.3993258,3.1161764,0.00053183397,-0.0008613125,-0.003378958
UncalAccel,1676593390728,120894358681591,10.419546,-5.3449674,5.8510494,0.006110925,-0.043260336,-0.038735468
UncalMag,1676593390730,120894360010509,-90.8412,-7.5639997,-78.9706,-44.47528,5.575939,-61.08579
OrientationDeg,1676593390727,120894358681591,136.0,-56.0,11.0
UncalGyro,1676593390732,120894363184032,-1.9393444,-2.4492643,3.061351,0.00053183397,-0.0008613125,-0.003378958
UncalAccel,1676593390736,120894367672741,11.143973,-5.2055855,6.0454664,0.006110925,-0.043260336,-0.038735468
OrientationDeg,1676593390736,120894367672741,137.0,-57.0,13.0
UncalMag,1676593390739,120894370010753,-92.0002,-7.2102,-77.0796,-44.47528,5.575939,-61.08579
UncalGyro,1676593390741,120894372167430,-2.0517437,-2.5825856,2.990338,0.00053183397,-0.0008613125,-0.003378958
UncalAccel,1676593390745,120894376652050,9.945767,-5.577071,6.867401,0.006110925,-0.043260336,-0.038735468
UncalMag,1676593390749,120894380010998,-92.841995,-4.9776,-75.408195,-44.47528,5.575939,-61.08579
UncalGyro,1676593390750,120894381142650,-2.1003075,-2.6198483,2.9843822,0.00053183397,-0.0008613125,-0.003378958
OrientationDeg,1676593390745,120894376652050,137.0,-58.0,15.0
UncalAccel,1676593390754,120894385630810,10.289138,-5.9671016,7.1102724,0.006110925,-0.043260336,-0.038735468
OrientationDeg,1676593390754,120894385630810,137.0,-60.0,17.0
UncalMag,1676593390759,120894390010753,-92.964,-3.5014,-73.1634,-44.47528,5.575939,-61.08579
UncalGyro,1676593390760,120894390119335,-2.2032382,-2.552653,2.9862146,0.00053183397,-0.0008613125,-0.003378958
UncalAccel,1676593390764,120894394599071,10.452448,-6.5485573,7.021738,0.006110925,-0.043260336,-0.038735468
OrientationDeg,1676593390763,120894394599071,137.0,-61.0,19.0
UncalGyro,1676593390768,120894399101574,-2.4080307,-2.3915374,3.026532,0.00053183397,-0.0008613125,-0.003378958
UncalMag,1676593390770,120894400010753,-94.391396,-1.9642,-75.9206,-44.47528,5.575939,-61.08579
UncalAccel,1676593390773,120894403590221,10.294521,-7.1898336,7.118049,0.006110925,-0.043260336,-0.038735468
OrientationDeg,1676593390773,120894403590221,138.0,-63.0,21.0
UncalGyro,1676593390778,120894408084666,-2.6687176,-2.2244658,3.1291573,0.00053183397,-0.0008613125,-0.003378958
UncalMag,1676593390779,120894410010753,-94.9404,-0.91499996,-72.5046,-44.47528,5.575939,-61.08579
UncalAccel,1676593390782,120894412569530,10.506885,-7.670193,7.783852,0.006110925,-0.043260336,-0.038735468
OrientationDeg,1676593390781,120894412569530,139.0,-64.0,23.0
UncalGyro,1676593390786,120894417060253,-2.8620565,-2.122604,3.261715,0.00053183397,-0.0008613125,-0.003378958
UncalMag,1676593390790,120894420010753,-93.0982,1.5616,-70.76,-44.47528,5.575939,-61.08579
UncalAccel,1676593390790,120894421548839,11.226525,-8.029117,9.224331,0.006110925,-0.043260336,-0.038735468
OrientationDeg,1676593390791,120894421548839,140.0,-65.0,25.0
UncalGyro,1676593390795,120894426037182,-2.9130635,-2.1073325,3.4051156,0.00053183397,-0.0008613125,-0.003378958
UncalMag,1676593390799,120894430011242,-93.4276,3.6722,-67.527,-44.47528,5.575939,-61.08579
UncalAccel,1676593390800,120894430514171,11.6440735,-8.231908,11.136196,0.006110925,-0.043260336,-0.038735468
OrientationDeg,1676593390799,120894430514171,140.0,-67.0,27.0
UncalGyro,1676593390805,120894435019298,-2.7418687,-2.0482311,3.5726454,0.00053183397,-0.0008613125,-0.003378958
UncalAccel,1676593390808,120894439507763,12.346367,-7.9627156,12.217752,0.006110925,-0.043260336,-0.038735468
UncalMag,1676593390808,120894439999523,-93.317795,6.1731997,-64.599,-44.47528,5.575939,-61.08579
OrientationDeg,1676593390808,120894439507763,141.0,-68.0,30.0
UncalGyro,1676593390814,120894444003002,-2.3570235,-1.9888245,3.6980255,0.00053183397,-0.0008613125,-0.003378958
UncalAccel,1676593390817,120894448482555,13.170694,-7.3920274,12.267404,0.006110925,-0.043260336,-0.038735468
OrientationDeg,1676593390818,120894448482555,141.0,-69.0,32.0
UncalMag,1676593390820,120894450010998,-93.317795,6.1731997,-64.599,-44.47528,5.575939,-61.08579
UncalGyro,1676593390821,120894452960094,-1.8643607,-2.020895,3.7517817,0.00053183397,-0.0008613125,-0.003378958
UncalAccel,1676593390826,120894457466014,13.684553,-7.0642104,11.976077,0.006110925,-0.043260336,-0.038735468
UncalMag,1676593390829,120894460001232,-93.4154,9.8454,-65.0138,-44.47528,5.575939,-61.08579
OrientationDeg,1676593390826,120894457466014,141.0,-70.0,34.0
UncalGyro,1676593390830,120894461957225,-1.3466524,-2.1235204,3.781714,0.00053183397,-0.0008613125,-0.003378958
UncalAccel,1676593390835,120894466450145,13.967504,-6.975078,11.729616,0.006110925,-0.043260336,-0.038735468
OrientationDeg,1676593390836,120894466450145,141.0,-71.0,36.0
UncalMag,1676593390840,120894470010753,-92.8054,11.8096,-63.135,-44.47528,5.575939,-61.08579
UncalGyro,1676593390839,120894470935497,-0.8258898,-2.2290473,3.8176024,0.00053183397,-0.0008613125,-0.003378958
UncalAccel,1676593390845,120894475421337,14.368301,-6.843473,11.898909,0.006110925,-0.043260336,-0.038735468
OrientationDeg,1676593390845,120894475421337,141.0,-72.0,38.0
UncalGyro,1676593390849,120894479916942,-0.29611692,-2.2756257,3.8389826,0.00053183397,-0.0008613125,-0.003378958
UncalMag,1676593390850,120894480000988,-94.4768,12.8344,-61.292797,-44.47528,5.575939,-61.08579
UncalAccel,1676593390854,120894484404552,14.98565,-6.573682,11.774482,0.006110925,-0.043260336,-0.038735468
OrientationDeg,1676593390853,120894484404552,140.0,-73.0,40.0
UncalGyro,1676593390857,120894488896434,0.23732115,-2.2999077,3.8380663,0.00053183397,-0.0008613125,-0.003378958
UncalMag,1676593390859,120894490010509,-93.1226,14.932799,-60.121597,-44.47528,5.575939,-61.08579
UncalAccel,1676593390862,120894493380870,15.323636,-5.837291,11.09851,0.006110925,-0.043260336,-0.038735468
OrientationDeg,1676593390862,120894493380870,139.0,-73.0,41.0
UncalGyro,1676593390867,120894497864208,0.75441855,-2.3212879,3.7965274,0.00053183397,-0.0008613125,-0.003378958
UncalMag,1676593390870,120894500010998,-92.4638,16.9336,-59.2188,-44.47528,5.575939,-61.08579
UncalAccel,1676593390872,120894502363170,15.428322,-5.00399,10.555339,0.006110925,-0.043260336,-0.038735468
OrientationDeg,1676593390871,120894502363170,138.0,-73.0,43.0
UncalGyro,1676593390875,120894506854015,1.1922562,-2.2226331,3.7132971,0.00053183397,-0.0008613125,-0.003378958
UncalMag,1676593390880,120894510010753,-90.9022,18.4342,-57.7548,-44.47528,5.575939,-61.08579
UncalAccel,1676593390881,120894511345592,15.453446,-4.222734,9.477372,0.006110925,-0.043260336,-0.038735468
OrientationDeg,1676593390881,120894511345592,136.0,-73.0,45.0
UncalGyro,1676593390884,120894515834484,1.4782939,-2.0602958,3.5963163,0.00053183397,-0.0008613125,-0.003378958
UncalMag,1676593390890,120894520010753,-89.975,19.9348,-57.9622,-44.47528,5.575939,-61.08579
UncalAccel,1676593390890,120894520319347,15.489339,-3.8117664,7.692925,0.006110925,-0.043260336,-0.038735468
OrientationDeg,1676593390889,120894520319347,134.0,-73.0,46.0
UncalGyro,1676593390894,120894524801220,1.5836681,-1.9022343,3.467424,0.00053183397,-0.0008613125,-0.003378958
UncalAccel,1676593390899,120894529301158,15.398412,-3.4713874,6.317052,0.006110925,-0.043260336,-0.038735468
UncalMag,1676593390898,120894529999279,-90.463,21.1426,-56.620197,-44.47528,5.575939,-61.08579
OrientationDeg,1676593390899,120894529301158,132.0,-72.0,47.0
UncalGyro,1676593390902,120894533791881,1.5268577,-1.6856827,3.2951598,0.00053183397,-0.0008613125,-0.003378958
UncalAccel,1676593390908,120894538283519,15.203397,-3.2446675,5.6739807,0.006110925,-0.043260336,-0.038735468
UncalMag,1676593390909,120894539999279,-88.9746,23.057999,-56.3518,-44.47528,5.575939,-61.08579
OrientationDeg,1676593390908,120894538283519,130.0,-72.0,49.0
UncalGyro,1676593390911,120894542771190,1.3694072,-1.3628404,3.14,0.00053183397,-0.0008613125,-0.003378958
UncalAccel,1676593390916,120894547260509,14.315062,-3.2685957,5.040481,0.006110925,-0.043260336,-0.038735468
OrientationDeg,1676593390916,120894547260509,128.0,-71.0,50.0
UncalMag,1676593390920,120894550010998,-87.8156,24.9002,-55.827198,-44.47528,5.575939,-61.08579
UncalGyro,1676593390921,120894551751903,1.1255192,-0.98456204,3.0589077,0.00053183397,-0.0008613125,-0.003378958
UncalAccel,1676593390926,120894556239513,13.5021,-3.0053852,4.022933,0.006110925,-0.043260336,-0.038735468
OrientationDeg,1676593390925,120894556239513,127.0,-70.0,51.0
UncalMag,1676593390930,120894560003185,-89.267395,24.9124,-55.8638,-44.47528,5.575939,-61.08579
UncalGyro,1676593390930,120894560730053,0.8313876,-0.6595817,3.0283644,0.00053183397,-0.0008613125,-0.003378958
UncalAccel,1676593390934,120894565218456,13.156936,-3.2769706,2.952743,0.006110925,-0.043260336,-0.038735468
OrientationDeg,1676593390934,120894565218456,125.0,-69.0,53.0
UncalGyro,1676593390938,120894569710643,0.54382277,-0.44348818,3.03936,0.00053183397,-0.0008613125,-0.003378958
UncalMag,1676593390939,120894570002941,-90.9998,24.4488,-62.366398,-44.47528,5.575939,-61.08579
UncalAccel,1676593390943,120894574198192,12.876975,-3.5491543,2.2875385,0.006110925,-0.043260336,-0.038735468
OrientationDeg,1676593390943,120894574198192,124.0,-68.0,54.0
UncalGyro,1676593390948,120894578688976,0.29336804,-0.3203988,3.062573,0.00053183397,-0.0008613125,-0.003378958
UncalMag,1676593390950,120894580010509,-90.3288,25.583399,-61.793,-44.47528,5.575939,-61.08579
UncalAccel,1676593390952,120894583174449,13.130016,-2.888735,2.2588246,0.006110925,-0.043260336,-0.038735468
OrientationDeg,1676593390952,120894583174449,123.0,-67.0,55.0
UncalGyro,1676593390957,120894587657421,0.116675265,-0.22968534,3.017827,0.00053183397,-0.0008613125,-0.003378958
UncalMag,1676593390959,120894590010753,-85.4732,28.779799,-55.6686,-44.47528,5.575939,-61.08579
UncalAccel,1676593390961,120894592156933,13.61217,-1.8508483,2.7236304,0.006110925,-0.043260336,-0.038735468
OrientationDeg,1676593390962,120894592156933,122.0,-67.0,57.0
UncalGyro,1676593390966,120894596647716,0.028863383,-0.14553864,2.8350255,0.00053183397,-0.0008613125,-0.003378958
UncalMag,1676593390970,120894600010753,-85.339,30.1462,-56.2664,-44.47528,5.575939,-61.08579
UncalAccel,1676593390970,120894601139171,14.628521,-0.98883396,2.9712875,0.006110925,-0.043260336,-0.038735468
OrientationDeg,1676593390970,120894601139171,121.0,-66.0,58.0
UncalGyro,1676593390975,120894605627147,0.05207626,-0.11560625,2.484389,0.00053183397,-0.0008613125,-0.003378958
UncalMag,1676593390980,120894610010753,-83.7896,30.8538,-56.0346,-44.47528,5.575939,-61.08579
UncalAccel,1676593390979,120894610112743,16.160526,-0.26919255,3.6107693,0.006110925,-0.043260336,-0.038735468
OrientationDeg,1676593390980,120894610112743,120.0,-65.0,59.0
UncalGyro,1676593390983,120894614591747,0.19532417,-0.04505131,1.9746219,0.00053183397,-0.0008613125,-0.003378958
UncalAccel,1676593390988,120894619083751,17.173288,1.2837493,4.633701,0.006110925,-0.043260336,-0.038735468
UncalMag,1676593390989,120894619998790,-84.9242,31.7566,-57.9256,-44.47528,5.575939,-61.08579
OrientationDeg,1676593390988,120894619083751,119.0,-64.0,59.0
UncalGyro,1676593390992,120894623587108,0.4120286,0.11636983,1.2883148,0.00053183397,-0.0008613125,-0.003378958
UncalAccel,1676593390998,120894628077403,16.237097,1.835295,3.9553359,0.006110925,-0.043260336,-0.038735468
OrientationDeg,1676593390997,120894628077403,118.0,-63.0,60.0
UncalMag,1676593391000,120894630010509,-83.3138,32.4032,-55.937,-44.47528,5.575939,-61.08579
UncalGyro,1676593391002,120894632568309,0.5911648,0.226631,0.6525568,0.00053183397,-0.0008613125,-0.003378958
UncalAccel,1676593391007,120894637053783,13.673187,0.18604197,2.1625135,0.006110925,-0.043260336,-0.038735468
OrientationDeg,1676593391007,120894637053783,118.0,-63.0,59.0
UncalMag,1676593391010,120894640010998,-83.936,32.086,-56.5592,-44.47528,5.575939,-61.08579
UncalGyro,1676593391010,120894641545360,0.6235407,0.24572055,0.27198774,0.00053183397,-0.0008613125,-0.003378958
UncalAccel,1676593391016,120894646033092,10.982458,-2.0087745,0.24227329,0.006110925,-0.043260336,-0.038735468
OrientationDeg,1676593391016,120894646033092,117.0,-62.0,59.0
UncalMag,1676593391019,120894650010753,-84.2166,32.2202,-56.449398,-44.47528,5.575939,-61.08579
UncalGyro,1676593391019,120894650523876,0.5519168,0.15592335,0.13439035,0.00053183397,-0.0008613125,-0.003378958
UncalAccel,1676593391024,120894655012706,9.211769,-3.5234313,-0.698106,0.006110925,-0.043260336,-0.038735468
OrientationDeg,1676593391025,120894655012706,117.0,-61.0,59.0
UncalGyro,1676593391028,120894659504284,0.48487428,-0.01160644,0.14752395,0.00053183397,-0.0008613125,-0.003378958
UncalMag,1676593391028,120894659999279,-81.4472,33.123,-55.9492,-44.47528,5.575939,-61.08579
UncalAccel,1676593391033,120894663991710,8.150552,-4.2071805,-0.12981063,0.006110925,-0.043260336,-0.038735468
OrientationDeg,1676593391032,120894663991710,116.0,-61.0,59.0
UncalGyro,1676593391037,120894668482860,0.5459608,-0.20097467,0.22739458,0.00053183397,-0.0008613125,-0.003378958
UncalMag,1676593391038,120894669999279,-83.7164,32.5618,-57.156998,-44.47528,5.575939,-61.08579
UncalAccel,1676593391041,120894672971141,7.810173,-4.4685965,0.8255238,0.006110925,-0.043260336,-0.038735468
OrientationDeg,1676593391041,120894672971141,115.0,-61.0,59.0
UncalGyro,1676593391047,120894677462169,0.7982482,-0.44623706,0.2855795,0.00053183397,-0.0008613125,-0.003378958
UncalMag,1676593391050,120894680010753,-83.5578,32.9766,-54.9366,-44.47528,5.575939,-61.08579
UncalAccel,1676593391050,120894681950023,7.5403824,-4.941179,1.5696917,0.006110925,-0.043260336,-0.038735468
