# 
# Header Description:
# 
# Version: v3.0.5.6 Platform: 13 Manufacturer: Google Model: Pixel 6
# 
# Raw,utcTimeMillis,TimeNanos,LeapSecond,TimeUncertaintyNanos,FullBiasNanos,BiasNanos,BiasUncertaintyNanos,DriftNanosPerSecond,DriftUncertaintyNanosPerSecond,HardwareClockDiscontinuityCount,Svid,TimeOffsetNanos,State,ReceivedSvTimeNanos,ReceivedSvTimeUncertaintyNanos,Cn0DbHz,PseudorangeRateMetersPerSecond,PseudorangeRateUncertaintyMetersPerSecond,AccumulatedDeltaRangeState,AccumulatedDeltaRangeMeters,AccumulatedDeltaRangeUncertaintyMeters,CarrierFrequencyHz,CarrierCycles,CarrierPhase,CarrierPhaseUncertainty,MultipathIndicator,SnrInDb,ConstellationType,AgcDb,BasebandCn0DbHz,FullInterSignalBiasNanos,FullInterSignalBiasUncertaintyNanos,SatelliteInterSignalBiasNanos,SatelliteInterSignalBiasUncertaintyNanos,CodeType,ChipsetElapsedRealtimeNanos
# 
# UncalAccel,utcTimeMillis,elapsedRealtimeNanos,UncalAccelXMps2,UncalAccelYMps2,UncalAccelZMps2,BiasXMps2,BiasYMps2,BiasZMps2
# 
# Accel,utcTimeMillis,elapsedRealtimeNanos,AccelXMps2,AccelYMps2,AccelZMps2
# 
# UncalGyro,utcTimeMillis,elapsedRealtimeNanos,UncalGyroXRadPerSec,UncalGyroYRadPerSec,UncalGyroZRadPerSec,DriftXRadPerSec,DriftYRadPerSec,DriftZRadPerSec
# 
# Gyro,utcTimeMillis,elapsedRealtimeNanos,GyroXRadPerSec,GyroYRadPerSec,GyroZRadPerSec
# 
# UncalMag,utcTimeMillis,elapsedRealtimeNanos,UncalMagXMicroT,UncalMagYMicroT,UncalMagZMicroT,BiasXMicroT,BiasYMicroT,BiasZMicroT
# 
# Mag,utcTimeMillis,elapsedRealtimeNanos,MagXMicroT,MagYMicroT,MagZMicroT
# 
# OrientationDeg,utcTimeMillis,elapsedRealtimeNanos,yawDeg,rollDeg,pitchDeg
# 
# Fix,Provider,LatitudeDegrees,LongitudeDegrees,AltitudeMeters,SpeedMps,AccuracyMeters,BearingDegrees,UnixTimeMillis,SpeedAccuracyMps,BearingAccuracyDegrees,elapsedRealtimeNanos,VerticalAccuracyMeters
# 
# Nav,Svid,Type,Status,MessageId,Sub-messageId,Data(Bytes)
# 
# Status,UnixTimeMillis,SignalCount,SignalIndex,ConstellationType,Svid,CarrierFrequencyHz,Cn0DbHz,AzimuthDegrees,ElevationDegrees,UsedInFix,HasAlmanacData,HasEphemerisData,BasebandCn0DbHz
# 
UncalGyro,1676594135488,121639119391246,-0.024281893,0.14370605,1.212262,0.0005148937,-0.00085961807,-0.00317833
UncalGyro,1676594135497,121639128372752,0.13240504,0.09437868,1.3243558,0.0005148937,-0.00085961807,-0.00317833
UncalAccel,1676594135492,121639123881175,0.029910283,-0.13160525,11.817553,0.006110925,-0.043260336,-0.038735468
UncalAccel,1676594135502,121639132860972,0.7495517,0.2536392,13.400405,0.006110925,-0.043260336,-0.038735468
UncalMag,1676594135491,121639121916271,-46.506397,20.069,-110.0196,-45.491467,0.31409264,-60.09035
UncalMag,1676594135501,121639131917980,-47.0554,19.8494,-111.507996,-45.491467,0.31409264,-60.09035
OrientationDeg,1676594135492,121639123881175,0.0,1.0,-12.0
OrientationDeg,1676594135501,121639132860972,0.0,1.0,-12.0
UncalGyro,1676594135506,121639137354991,0.32375857,0.35414913,1.2843442,0.0005148937,-0.00085961807,-0.00317833
Fix,FLP,37.4312931000,-122.1550456000,-15.80000114440918,0.29464507,5.574,4.4801664,1676594134726,,,121638356117992,3.0062697
UncalGyro,1676594135515,121639146335948,0.5375614,0.73975784,1.1365148,0.0005148937,-0.00085961807,-0.00317833
UncalAccel,1676594135510,121639141843334,1.3172488,0.35593235,14.361123,0.006110925,-0.043260336,-0.038735468
UncalAccel,1676594135520,121639150823192,1.8640088,0.6448657,14.193625,0.006110925,-0.043260336,-0.038735468
UncalMag,1676594135511,121639141912365,-47.397,19.6542,-112.313194,-45.491467,0.31409264,-60.09035
UncalMag,1676594135521,121639151916027,-45.7866,20.0812,-112.2156,-45.491467,0.31409264,-60.09035
OrientationDeg,1676594135510,121639141843334,359.0,2.0,-12.0
OrientationDeg,1676594135519,121639150823192,359.0,2.0,-12.0
UncalGyro,1676594135524,121639155314830,0.7797695,1.0167851,0.9140071,0.0005148937,-0.00085961807,-0.00317833
UncalAccel,1676594135529,121639159807384,2.335993,1.2173486,13.116856,0.006110925,-0.043260336,-0.038735468
OrientationDeg,1676594135529,121639159807384,358.0,2.0,-13.0
UncalMag,1676594135530,121639161918712,-44.6764,19.5444,-112.0326,-45.491467,0.31409264,-60.09035
UncalGyro,1676594135533,121639164310497,1.0697777,1.0789407,0.6603453,0.0005148937,-0.00085961807,-0.00317833
UncalAccel,1676594135537,121639168782787,2.1978076,0.9391829,11.694921,0.006110925,-0.043260336,-0.038735468
OrientationDeg,1676594135537,121639168782787,358.0,3.0,-13.0
UncalMag,1676594135541,121639171917248,-44.53,19.166199,-111.044395,-45.491467,0.31409264,-60.09035
UncalGyro,1676594135542,121639173273693,1.4272866,0.95905846,0.47311515,0.0005148937,-0.00085961807,-0.00317833
UncalAccel,1676594135547,121639177758433,1.7210377,0.846461,11.534601,0.006110925,-0.043260336,-0.038735468
OrientationDeg,1676594135546,121639177758433,358.0,3.0,-14.0
UncalMag,1676594135550,121639181920421,-44.408,17.873,-112.6792,-45.491467,0.31409264,-60.09035
UncalGyro,1676594135551,121639182253307,1.845882,0.915687,0.33948836,0.0005148937,-0.00085961807,-0.00317833
UncalAccel,1676594135555,121639186744579,1.2634103,1.0695918,11.962916,0.006110925,-0.043260336,-0.038735468
OrientationDeg,1676594135556,121639186744579,358.0,4.0,-15.0
UncalGyro,1676594135561,121639191244091,2.312125,0.9660834,0.23518312,0.0005148937,-0.00085961807,-0.00317833
UncalMag,1676594135561,121639191916515,-41.9314,18.0804,-111.4592,-45.491467,0.31409264,-60.09035
UncalAccel,1676594135564,121639195730113,1.0217353,1.2047862,10.856834,0.006110925,-0.043260336,-0.038735468
OrientationDeg,1676594135565,121639195730113,358.0,4.0,-17.0
UncalGyro,1676594135569,121639200219188,2.6451993,0.73624533,0.12461651,0.0005148937,-0.00085961807,-0.00317833
UncalMag,1676594135571,121639201916515,-43.8834,15.86,-112.2034,-45.491467,0.31409264,-60.09035
UncalAccel,1676594135574,121639204710155,0.7722835,1.9573289,5.588437,0.006110925,-0.043260336,-0.038735468
OrientationDeg,1676594135573,121639204710155,358.0,4.0,-18.0
UncalGyro,1676594135578,121639209195750,2.3625214,-0.4344779,-0.10170906,0.0005148937,-0.00085961807,-0.00317833
UncalMag,1676594135580,121639211911876,-44.5178,14.9572,-115.9488,-45.491467,0.31409264,-60.09035
OrientationDeg,1676594135583,121639213690685,358.0,4.0,-19.0
UncalAccel,1676594135583,121639213690685,1.1551352,2.2073789,1.8604196,0.006110925,-0.043260336,-0.038735468
UncalGyro,1676594135587,121639218175304,1.6722436,-2.0728185,-0.43035457,0.0005148937,-0.00085961807,-0.00317833
UncalMag,1676594135591,121639221916759,-44.8838,14.2984,-115.351,-45.491467,0.31409264,-60.09035
UncalAccel,1676594135592,121639222669323,1.9645073,1.4799608,4.7288156,0.006110925,-0.043260336,-0.038735468
OrientationDeg,1676594135591,121639222669323,358.0,2.0,-20.0
UncalGyro,1676594135596,121639227151927,1.2959507,-3.1370986,-0.63804877,0.0005148937,-0.00085961807,-0.00317833
UncalAccel,1676594135600,121639231648266,1.5714862,1.905285,7.8173513,0.006110925,-0.043260336,-0.038735468
UncalMag,1676594135600,121639231911876,-45.640198,13.6152,-116.034195,-45.491467,0.31409264,-60.09035
OrientationDeg,1676594135601,121639231648266,359.0,1.0,-20.0
UncalGyro,1676594135606,121639236137829,1.2660183,-3.4840698,-0.77732605,0.0005148937,-0.00085961807,-0.00317833
UncalAccel,1676594135609,121639240622142,1.6097715,2.5142584,8.635697,0.006110925,-0.043260336,-0.038735468
OrientationDeg,1676594135610,121639240622142,359.0,0.0,-21.0
UncalMag,1676594135610,121639241916515,-45.6524,13.6152,-116.4734,-45.491467,0.31409264,-60.09035
UncalGyro,1676594135615,121639245116038,1.3497068,-3.5236235,-0.93951076,0.0005148937,-0.00085961807,-0.00317833
UncalAccel,1676594135618,121639249609691,2.03031,2.6554348,7.661818,0.006110925,-0.043260336,-0.038735468
OrientationDeg,1676594135618,121639249609691,0.0,-2.0,-22.0
UncalMag,1676594135621,121639251917980,-55.1684,9.2598,-119.7308,-45.491467,0.31409264,-60.09035
UncalGyro,1676594135624,121639254093578,1.4123205,-3.575547,-1.0760391,0.0005148937,-0.00085961807,-0.00317833
UncalAccel,1676594135628,121639258582409,2.015953,2.833102,7.9818583,0.006110925,-0.043260336,-0.038735468
OrientationDeg,1676594135627,121639258582409,0.0,-3.0,-23.0
UncalMag,1676594135631,121639261923107,-49.4832,11.5168,-109.177795,-45.491467,0.31409264,-60.09035
UncalGyro,1676594135632,121639263071055,1.423316,-3.5534031,-1.1917981,0.0005148937,-0.00085961807,-0.00317833
UncalAccel,1676594135637,121639267560008,2.2067807,3.0622149,8.331808,0.006110925,-0.043260336,-0.038735468
OrientationDeg,1676594135636,121639267560008,1.0,-5.0,-23.0
UncalMag,1676594135641,121639271916515,-49.775997,11.8462,-111.1664,-45.491467,0.31409264,-60.09035
UncalGyro,1676594135642,121639272046703,1.2571607,-3.1096096,-1.3345878,0.0005148937,-0.00085961807,-0.00317833
UncalAccel,1676594135646,121639276540844,2.5806592,4.05404,12.270394,0.006110925,-0.043260336,-0.038735468
OrientationDeg,1676594135645,121639276540844,2.0,-6.0,-24.0
UncalGyro,1676594135651,121639281033092,0.9647089,-1.9106338,-1.5622878,0.0005148937,-0.00085961807,-0.00317833
UncalMag,1676594135650,121639281916271,-54.229,9.5648,-111.447,-45.491467,0.31409264,-60.09035
UncalAccel,1676594135654,121639285525829,2.4311078,2.8558338,10.828719,0.006110925,-0.043260336,-0.038735468
OrientationDeg,1676594135654,121639285525829,3.0,-6.0,-24.0
UncalGyro,1676594135660,121639290018505,0.8344419,-0.84329945,-1.7548631,0.0005148937,-0.00085961807,-0.00317833
UncalMag,1676594135661,121639291917492,-54.973198,9.516,-113.2526,-45.491467,0.31409264,-60.09035
UncalAccel,1676594135664,121639294500682,2.3365912,2.7068806,9.4839525,0.006110925,-0.043260336,-0.038735468
OrientationDeg,1676594135663,121639294500682,4.0,-6.0,-25.0
UncalGyro,1676594135667,121639298992260,0.65484756,0.046578474,-1.8703166,0.0005148937,-0.00085961807,-0.00317833
UncalMag,1676594135670,121639301920665,-54.594997,9.0402,-111.971596,-45.491467,0.31409264,-60.09035
UncalAccel,1676594135673,121639303481151,2.25703,2.649453,8.072187,0.006110925,-0.043260336,-0.038735468
OrientationDeg,1676594135672,121639303481151,5.0,-5.0,-25.0
UncalGyro,1676594135677,121639307975414,0.42760566,0.7357872,-1.9062049,0.0005148937,-0.00085961807,-0.00317833
UncalMag,1676594135680,121639311915294,-53.740997,8.6498,-111.3372,-45.491467,0.31409264,-60.09035
UncalAccel,1676594135681,121639312464794,2.1954148,2.8408787,7.367501,0.006110925,-0.043260336,-0.038735468
OrientationDeg,1676594135681,121639312464794,6.0,-4.0,-25.0
UncalGyro,1676594135686,121639316952159,0.11575896,1.2594514,-1.8576412,0.0005148937,-0.00085961807,-0.00317833
UncalAccel,1676594135690,121639321443004,2.1248264,2.8408787,6.195018,0.006110925,-0.043260336,-0.038735468
OrientationDeg,1676594135690,121639321443004,7.0,-3.0,-25.0
UncalMag,1676594135690,121639321915783,-53.655598,8.6254,-110.9834,-45.491467,0.31409264,-60.09035
UncalGyro,1676594135695,121639325938304,-0.25305092,1.5851953,-1.7345519,0.0005148937,-0.00085961807,-0.00317833
UncalAccel,1676594135700,121639330427135,1.8233309,2.804388,5.407181,0.006110925,-0.043260336,-0.038735468
OrientationDeg,1676594135699,121639330427135,8.0,-2.0,-25.0
UncalMag,1676594135700,121639331916271,-50.8374,9.1622,-109.970795,-45.491467,0.31409264,-60.09035
UncalGyro,1676594135703,121639334912304,-0.63194007,1.7412714,-1.5302174,0.0005148937,-0.00085961807,-0.00317833
UncalAccel,1676594135709,121639339399791,-1.0534402,2.519044,4.511069,0.006110925,-0.043260336,-0.038735468
OrientationDeg,1676594135708,121639339399791,8.0,0.0,-25.0
UncalMag,1676594135711,121639341917492,-51.8866,9.406199,-110.287994,-45.491467,0.31409264,-60.09035
UncalGyro,1676594135713,121639343892466,-0.929126,1.4950926,-1.0439687,0.0005148937,-0.00085961807,-0.00317833
UncalAccel,1676594135717,121639348383434,-6.0664034,3.1914272,5.0685964,0.006110925,-0.043260336,-0.038735468
OrientationDeg,1676594135718,121639348383434,9.0,0.0,-24.0
UncalMag,1676594135721,121639351923839,-50.1664,10.125999,-109.9098,-45.491467,0.31409264,-60.09035
UncalGyro,1676594135722,121639352872142,-1.1383474,1.1375839,-0.20448714,0.0005148937,-0.00085961807,-0.00317833
UncalAccel,1676594135727,121639357361217,-5.5920267,4.133601,6.128617,0.006110925,-0.043260336,-0.038735468
OrientationDeg,1676594135727,121639357361217,9.0,0.0,-24.0
UncalGyro,1676594135731,121639361857189,-1.3611605,0.9798279,0.52732944,0.0005148937,-0.00085961807,-0.00317833
UncalMag,1676594135731,121639361916027,-53.253,9.8454,-111.7032,-45.491467,0.31409264,-60.09035
UncalAccel,1676594135736,121639366359813,-2.0386848,4.246662,5.8450675,0.006110925,-0.043260336,-0.038735468
OrientationDeg,1676594135735,121639366359813,8.0,0.0,-23.0
UncalGyro,1676594135739,121639370845103,-1.5454891,0.8266534,0.84314674,0.0005148937,-0.00085961807,-0.00317833
UncalMag,1676594135741,121639371927501,-50.0932,11.7242,-111.7642,-45.491467,0.31409264,-60.09035
UncalAccel,1676594135745,121639375333995,0.47676992,3.5318062,6.1005015,0.006110925,-0.043260336,-0.038735468
OrientationDeg,1676594135744,121639375333995,8.0,0.0,-22.0
UncalGyro,1676594135748,121639379822948,-1.5975653,0.5887214,0.7866417,0.0005148937,-0.00085961807,-0.00317833
UncalMag,1676594135751,121639381927501,-50.9106,11.5534,-110.739395,-45.491467,0.31409264,-60.09035
UncalAccel,1676594135753,121639384310924,1.5607185,2.7008986,7.3495545,0.006110925,-0.043260336,-0.038735468
OrientationDeg,1676594135754,121639384310924,7.0,0.0,-21.0
UncalGyro,1676594135758,121639388798961,-1.5273159,0.3622431,0.5859725,0.0005148937,-0.00085961807,-0.00317833
UncalMag,1676594135761,121639391927746,-49.2026,13.054,-109.678,-45.491467,0.31409264,-60.09035
UncalAccel,1676594135762,121639393278453,1.6444674,2.0440688,8.595617,0.006110925,-0.043260336,-0.038735468
OrientationDeg,1676594135763,121639393278453,7.0,0.0,-21.0
UncalGyro,1676594135767,121639397781993,-1.3756685,0.20815234,0.44425175,0.0005148937,-0.00085961807,-0.00317833
UncalMag,1676594135770,121639401927746,-49.3368,13.4444,-110.227,-45.491467,0.31409264,-60.09035
UncalAccel,1676594135771,121639402268077,1.3734802,1.5284154,9.587442,0.006110925,-0.043260336,-0.038735468
OrientationDeg,1676594135772,121639402268077,7.0,0.0,-20.0
UncalGyro,1676594135776,121639406753184,-1.1675162,0.13652839,0.45478916,0.0005148937,-0.00085961807,-0.00317833
UncalAccel,1676594135781,121639411250926,1.0331012,1.3866407,9.847662,0.006110925,-0.043260336,-0.038735468
UncalMag,1676594135780,121639411915783,-47.8728,14.2252,-108.946,-45.491467,0.31409264,-60.09035
OrientationDeg,1676594135780,121639411250926,7.0,0.0,-19.0
UncalGyro,1676594135785,121639415742626,-0.91156363,0.042913284,0.5981898,0.0005148937,-0.00085961807,-0.00317833
UncalAccel,1676594135790,121639420233531,0.82672024,1.7425731,9.610174,0.006110925,-0.043260336,-0.038735468
OrientationDeg,1676594135789,121639420233531,6.0,0.0,-19.0
UncalMag,1676594135790,121639421927501,-48.6292,14.542399,-110.1782,-45.491467,0.31409264,-60.09035
UncalGyro,1676594135794,121639424721324,-0.6084218,-0.12492194,0.77411896,0.0005148937,-0.00085961807,-0.00317833
UncalAccel,1676594135798,121639429209911,0.6987042,2.4580271,9.613165,0.006110925,-0.043260336,-0.038735468
OrientationDeg,1676594135799,121639429209911,6.0,0.0,-19.0
UncalMag,1676594135801,121639431927501,-48.0924,14.6156,-107.6894,-45.491467,0.31409264,-60.09035
UncalGyro,1676594135803,121639433701244,-0.30818152,-0.26939157,0.8773552,0.0005148937,-0.00085961807,-0.00317833
UncalAccel,1676594135808,121639438189952,0.32123643,3.054438,9.7196455,0.006110925,-0.043260336,-0.038735468
OrientationDeg,1676594135808,121639438189952,5.0,0.0,-19.0
UncalMag,1676594135811,121639441927501,-48.592598,14.9816,-109.189995,-45.491467,0.31409264,-60.09035
UncalGyro,1676594135811,121639442681407,-0.07498371,-0.28038713,0.8579602,0.0005148937,-0.00085961807,-0.00317833
UncalAccel,1676594135817,121639447170665,-0.025124637,3.1573296,9.565907,0.006110925,-0.043260336,-0.038735468
OrientationDeg,1676594135816,121639447170665,5.0,0.0,-19.0
UncalGyro,1676594135821,121639451663341,0.0627664,-0.1591304,0.7583892,0.0005148937,-0.00085961807,-0.00317833
UncalMag,1676594135820,121639451921154,-48.922,14.7132,-108.9948,-45.491467,0.31409264,-60.09035
UncalAccel,1676594135825,121639456149730,-0.026919255,2.437688,8.876176,0.006110925,-0.043260336,-0.038735468
OrientationDeg,1676594135826,121639456149730,4.0,0.0,-19.0
UncalGyro,1676594135830,121639460640575,0.12018774,-0.028863383,0.7153232,0.0005148937,-0.00085961807,-0.00317833
UncalMag,1676594135831,121639461927501,-50.849598,13.7372,-110.349,-45.491467,0.31409264,-60.09035
UncalAccel,1676594135835,121639465129284,0.047856454,1.5547365,7.7850485,0.006110925,-0.043260336,-0.038735468
OrientationDeg,1676594135834,121639465129284,4.0,0.0,-19.0
UncalGyro,1676594135839,121639469620861,0.10430524,0.02076942,0.8162687,0.0005148937,-0.00085961807,-0.00317833
UncalMag,1676594135841,121639471927257,-49.385597,14.2252,-110.3002,-45.491467,0.31409264,-60.09035
UncalAccel,1676594135843,121639474109874,0.0017946169,1.3244274,7.164111,0.006110925,-0.043260336,-0.038735468
OrientationDeg,1676594135843,121639474109874,3.0,0.0,-19.0
UncalGyro,1676594135848,121639478598338,0.046731193,0.009010263,0.98639464,0.0005148937,-0.00085961807,-0.00317833
UncalMag,1676594135851,121639481927990,-49.4222,13.9446,-108.8484,-45.491467,0.31409264,-60.09035
UncalAccel,1676594135853,121639483081065,0.2632105,1.7306089,6.986444,0.006110925,-0.043260336,-0.038735468
OrientationDeg,1676594135853,121639483081065,3.0,0.0,-19.0
UncalGyro,1676594135856,121639487581676,-0.011759156,-0.04046982,1.116509,0.0005148937,-0.00085961807,-0.00317833
UncalMag,1676594135860,121639491927746,-48.9342,13.8348,-107.8358,-45.491467,0.31409264,-60.09035
UncalAccel,1676594135861,121639492066661,0.61734825,2.2031915,7.452446,0.006110925,-0.043260336,-0.038735468
OrientationDeg,1676594135862,121639492066661,2.0,-1.0,-19.0
UncalGyro,1676594135866,121639496551952,-0.03680463,-0.064446285,1.1598804,0.0005148937,-0.00085961807,-0.00317833
UncalAccel,1676594135871,121639501045054,1.3256238,2.4681966,8.252846,0.006110925,-0.043260336,-0.038735468
UncalMag,1676594135871,121639501916027,-48.6536,14.444799,-108.2262,-45.491467,0.31409264,-60.09035
OrientationDeg,1676594135870,121639501045054,2.0,-1.0,-19.0
UncalGyro,1676594135874,121639505524608,-0.029168816,0.0025961774,1.104139,0.0005148937,-0.00085961807,-0.00317833
UncalAccel,1676594135880,121639510031627,2.067997,2.545365,8.557332,0.006110925,-0.043260336,-0.038735468
OrientationDeg,1676594135880,121639510031627,1.0,-1.0,-19.0
UncalMag,1676594135880,121639511932384,-46.8602,14.518,-108.4336,-45.491467,0.31409264,-60.09035
UncalGyro,1676594135884,121639514520030,-0.020463986,0.13469578,1.001819,0.0005148937,-0.00085961807,-0.00317833
UncalAccel,1676594135889,121639519013682,2.1385853,2.295315,8.379665,0.006110925,-0.043260336,-0.038735468
OrientationDeg,1676594135888,121639519013682,1.0,-1.0,-19.0
UncalMag,1676594135891,121639521927746,-48.1656,14.212999,-108.0432,-45.491467,0.31409264,-60.09035
UncalGyro,1676594135893,121639523497569,-0.03436117,0.24480425,0.91919947,0.0005148937,-0.00085961807,-0.00317833
UncalAccel,1676594135896,121639527970470,1.5451652,1.838286,8.164909,0.006110925,-0.043260336,-0.038735468
OrientationDeg,1676594135897,121639527970470,0.0,-1.0,-19.0
UncalMag,1676594135901,121639531927746,-47.1774,14.5546,-106.5792,-45.491467,0.31409264,-60.09035
UncalGyro,1676594135901,121639532479869,-0.040317107,0.28008172,0.89827734,0.0005148937,-0.00085961807,-0.00317833
UncalAccel,1676594135906,121639536968212,0.6729814,1.7766708,8.065607,0.006110925,-0.043260336,-0.038735468
OrientationDeg,1676594135905,121639536968212,0.0,-1.0,-19.0
UncalGyro,1676594135911,121639541464549,-0.014049901,0.20540343,0.93019503,0.0005148937,-0.00085961807,-0.00317833
UncalMag,1676594135910,121639541916027,-50.068798,14.3838,-110.3978,-45.491467,0.31409264,-60.09035
UncalAccel,1676594135914,121639545948680,0.11066805,1.7270198,7.9627156,0.006110925,-0.043260336,-0.038735468
OrientationDeg,1676594135914,121639545948680,359.0,-1.0,-19.0
UncalGyro,1676594135919,121639550439647,-0.04718934,0.098807454,0.957684,0.0005148937,-0.00085961807,-0.00317833
UncalMag,1676594135921,121639551927501,-46.9822,14.4692,-108.9948,-45.491467,0.31409264,-60.09035
UncalAccel,1676594135923,121639554928661,0.1680958,1.4536397,8.366505,0.006110925,-0.043260336,-0.038735468
OrientationDeg,1676594135923,121639554928661,358.0,-1.0,-18.0
UncalGyro,1676594135928,121639559420604,-0.13591751,0.06001751,0.98349303,0.0005148937,-0.00085961807,-0.00317833
UncalMag,1676594135931,121639561927501,-46.7504,15.006,-109.922,-45.491467,0.31409264,-60.09035
UncalAccel,1676594135933,121639563908397,0.55034924,1.5044873,9.321838,0.006110925,-0.043260336,-0.038735468
OrientationDeg,1676594135932,121639563908397,358.0,-1.0,-18.0
UncalGyro,1676594135938,121639568396495,-0.19410244,0.10140363,1.016938,0.0005148937,-0.00085961807,-0.00317833
UncalMag,1676594135941,121639571927501,-47.5312,14.2618,-110.715,-45.491467,0.31409264,-60.09035
UncalAccel,1676594135942,121639572876415,1.1593226,1.7605193,10.83171,0.006110925,-0.043260336,-0.038735468
OrientationDeg,1676594135941,121639572876415,357.0,-2.0,-18.0
UncalGyro,1676594135947,121639577379344,-0.16920967,0.25152376,1.0328205,0.0005148937,-0.00085961807,-0.00317833
UncalAccel,1676594135950,121639581868053,1.4596218,1.1216356,12.783655,0.006110925,-0.043260336,-0.038735468
UncalMag,1676594135950,121639581917492,-47.2506,14.6278,-110.9346,-45.491467,0.31409264,-60.09035
OrientationDeg,1676594135951,121639581868053,357.0,-2.0,-18.0
UncalGyro,1676594135955,121639586361705,-0.053450707,0.6026186,1.0758864,0.0005148937,-0.00085961807,-0.00317833
UncalAccel,1676594135959,121639590848277,0.8847462,0.47377887,14.350355,0.006110925,-0.043260336,-0.038735468
UncalMag,1676594135961,121639591917248,-47.2994,14.8962,-114.3628,-45.491467,0.31409264,-60.09035
OrientationDeg,1676594135960,121639590848277,356.0,-1.0,-18.0
UncalGyro,1676594135965,121639595340770,0.09712757,1.1097895,1.159575,0.0005148937,-0.00085961807,-0.00317833
UncalAccel,1676594135968,121639599824962,0.62093747,0.84406817,14.18884,0.006110925,-0.043260336,-0.038735468
OrientationDeg,1676594135969,121639599824962,356.0,-1.0,-18.0
UncalMag,1676594135970,121639601914318,-45.689,15.0426,-111.825195,-45.491467,0.31409264,-60.09035
UncalGyro,1676594135973,121639604307018,0.2134974,1.5354098,1.2466233,0.0005148937,-0.00085961807,-0.00317833
UncalAccel,1676594135977,121639608806835,0.43609193,1.262214,12.736995,0.006110925,-0.043260336,-0.038735468
OrientationDeg,1676594135978,121639608806835,355.0,0.0,-18.0
UncalMag,1676594135981,121639611916027,-47.031,14.1398,-115.2046,-45.491467,0.31409264,-60.09035
UncalGyro,1676594135983,121639613298473,0.24190263,1.7499762,1.2689198,0.0005148937,-0.00085961807,-0.00317833
UncalAccel,1676594135987,121639617790232,0.5988039,1.8071793,11.496316,0.006110925,-0.043260336,-0.038735468
OrientationDeg,1676594135986,121639617790232,354.0,0.0,-18.0
UncalMag,1676594135991,121639621927257,-44.1518,15.3354,-114.2042,-45.491467,0.31409264,-60.09035
UncalGyro,1676594135992,121639622275706,0.19639318,1.7713565,1.2383766,0.0005148937,-0.00085961807,-0.00317833
UncalAccel,1676594135995,121639626756114,0.9062816,2.4765713,11.053644,0.006110925,-0.043260336,-0.038735468
OrientationDeg,1676594135995,121639626756114,353.0,0.0,-18.0
UncalGyro,1676594136001,121639631259532,0.117438845,1.6505579,1.1537718,0.0005148937,-0.00085961807,-0.00317833
UncalMag,1676594136001,121639631932873,-45.3718,14.0056,-113.033,-45.491467,0.31409264,-60.09035
UncalAccel,1676594136004,121639635747264,1.0336994,2.681756,11.626725,0.006110925,-0.043260336,-0.038735468
OrientationDeg,1676594136005,121639635747264,353.0,1.0,-18.0
UncalGyro,1676594136010,121639640241100,0.004581489,1.4892895,1.0051788,0.0005148937,-0.00085961807,-0.00317833
UncalMag,1676594136011,121639641927501,-42.0046,15.3476,-113.240395,-45.491467,0.31409264,-60.09035
UncalAccel,1676594136014,121639644726696,1.2735798,2.6715865,13.248461,0.006110925,-0.043260336,-0.038735468
OrientationDeg,1676594136014,121639644726696,352.0,1.0,-18.0
UncalGyro,1676594136019,121639649217968,-0.10399981,1.4072808,0.85139346,0.0005148937,-0.00085961807,-0.00317833
UncalMag,1676594136021,121639651927501,-43.0294,14.1276,-113.9846,-45.491467,0.31409264,-60.09035
UncalAccel,1676594136023,121639653706981,0.9487542,2.7266214,14.419747,0.006110925,-0.043260336,-0.038735468
OrientationDeg,1676594136022,121639653706981,352.0,2.0,-18.0
UncalGyro,1676594136027,121639658198009,-0.17821993,1.3646729,0.7518224,0.0005148937,-0.00085961807,-0.00317833
UncalMag,1676594136030,121639661927501,-40.0282,14.9084,-110.7028,-45.491467,0.31409264,-60.09035
UncalAccel,1676594136031,121639662687572,0.8153543,2.3778675,14.831911,0.006110925,-0.043260336,-0.038735468
OrientationDeg,1676594136032,121639662687572,352.0,2.0,-18.0
UncalGyro,1676594136036,121639667180065,-0.24480425,1.31672,0.7099781,0.0005148937,-0.00085961807,-0.00317833
UncalAccel,1676594136040,121639671666576,0.82731843,1.9369899,15.58266,0.006110925,-0.043260336,-0.038735468
UncalMag,1676594136040,121639671917736,-40.2112,14.7132,-111.4592,-45.491467,0.31409264,-60.09035
OrientationDeg,1676594136040,121639671666576,351.0,3.0,-18.0
UncalGyro,1676594136045,121639676158092,-0.26068676,1.3005321,0.7128797,0.0005148937,-0.00085961807,-0.00317833
UncalAccel,1676594136049,121639680645823,0.90388876,1.8652053,16.378273,0.006110925,-0.043260336,-0.038735468
OrientationDeg,1676594136049,121639680645823,351.0,4.0,-18.0
UncalMag,1676594136051,121639681927257,-41.5654,14.2252,-112.776794,-45.491467,0.31409264,-60.09035
UncalGyro,1676594136055,121639685137462,-0.18432859,1.2921327,0.7368562,0.0005148937,-0.00085961807,-0.00317833
OrientationDeg,1676594136059,121639689625682,350.0,4.0,-18.0
UncalAccel,1676594136058,121639689625682,0.8428718,1.6977077,16.93939,0.006110925,-0.043260336,-0.038735468
UncalMag,1676594136061,121639691927746,-41.2482,14.310599,-113.4722,-45.491467,0.31409264,-60.09035
UncalGyro,1676594136063,121639694114940,-0.017104227,1.3353515,0.75808376,0.0005148937,-0.00085961807,-0.00317833
UncalAccel,1676594136068,121639698606456,1.0007981,1.332204,17.267206,0.006110925,-0.043260336,-0.038735468
OrientationDeg,1676594136068,121639698606456,350.0,5.0,-18.0
Raw,1676594135000,55687000000,,,-1360629297313388960,0.0,7.651642728589099,291.0,1.0,19,6,0.0,16431,434152929042024,12,44.2274284362793,506.4156798722652,0.15,16,27982.123902648877,340282346638528860000000000000000000000,1575420030,,,,0,,1,,40.027427673339844,0.320142130558394,1.0,0.320142130558394,1.0,C,121639595539000
Raw,1676594135000,55687000000,,,-1360629297313388960,0.0,7.651642728589099,291.0,1.0,19,11,0.0,16431,434152932249004,22,36.88998031616211,-32.968164689253626,0.15,16,-1971.5137533314382,340282346638528860000000000000000000000,1575420030,,,,0,,1,,32.689979553222656,-0.20372681261465636,1.0,-0.20372681261465636,1.0,C,121639595539000
Raw,1676594135000,55687000000,,,-1360629297313388960,0.0,7.651642728589099,291.0,1.0,19,12,0.0,16431,434152931392816,16,40.88048553466797,-212.95255634142165,0.15,16,-11884.062160457535,340282346638528860000000000000000000000,1575420030,,,,0,,1,,36.680484771728516,-0.6984919076624261,1.0,-0.6984919076624261,1.0,C,121639595539000
Raw,1676594135000,55687000000,,,-1360629297313388960,0.0,7.651642728589099,291.0,1.0,19,19,0.0,16431,434152924752417,14,44.69754409790039,587.1887842242822,0.15,16,32460.49374742332,340282346638528860000000000000000000000,1575420030,,,,0,,1,,40.49754333496094,0.0,1.0,0.0,1.0,C,121639595539000
Raw,1676594135000,55687000000,,,-1360629297313388960,0.0,7.651642728589099,291.0,1.0,19,20,0.0,16431,434152922582716,25,35.334957122802734,-466.9328581134155,0.54901159267737,16,-25940.253116979722,340282346638528860000000000000000000000,1575420030,,,,0,,1,,31.134958267211914,0.0,1.0,0.0,1.0,C,121639595539000
Raw,1676594135000,55687000000,,,-1360629297313388960,0.0,7.651642728589099,291.0,1.0,19,24,0.0,16431,434152926509542,9,49.603328704833984,566.9269001512976,0.15,16,31402.79670230652,340282346638528860000000000000000000000,1575420030,,,,0,,1,,45.40332794189453,-0.20372681261465636,1.0,-0.20372681261465636,1.0,C,121639595539000
Raw,1676594135000,55687000000,,,-1360629297313388960,0.0,7.651642728589099,291.0,1.0,19,25,0.0,16431,434152926152427,24,35.46965408325195,-463.3500421188246,0.5435967091136595,16,-25738.856169451068,340282346638528860000000000000000000000,1575420030,,,,0,,1,,31.2696533203125,-2.0372682255564105,1.0,-2.0372682255564105,1.0,C,121639595539000
Raw,1676594135000,55687000000,,,-1360629297313388960,0.0,7.651642728589099,291.0,1.0,19,29,0.0,16431,434152918143103,16,40.64335250854492,-419.28422059626564,0.15,16,-23262.773678167356,340282346638528860000000000000000000000,1575420030,,,,0,,1,,36.44335174560547,-0.6984919076624261,1.0,-0.6984919076624261,1.0,C,121639595539000
Raw,1676594135000,55687000000,,,-1360629297313388960,0.0,7.651642728589099,291.0,1.0,19,6,0.0,81921,434152929042566,48,25.509164810180664,506.0468395277753,0.9875315890764709,16,29525.9429573337,340282346638528860000000000000000000000,1176450050,,,,0,,1,,21.409164428710938,1.9208527336454408,2.96171077722997,1.9208527336454408,1.0,Q,121639595539000
Raw,1676594135000,55687000000,,,-1360629297313388960,0.0,7.651642728589099,291.0,1.0,19,11,0.0,81921,434152932249555,16,34.14419937133789,-32.65334077804536,0.5998006436550618,16,-2083.938555201163,340282346638528860000000000000000000000,1176450050,,,,0,,1,,30.044200897216797,0.0,2.96171077722997,0.0,1.0,Q,121639595539000
Raw,1676594135000,55687000000,,,-1360629297313388960,0.0,7.651642728589099,291.0,1.0,19,24,0.0,81921,434152926510083,8,47.74219512939453,566.917084403819,0.15,16,33119.38725481351,340282346638528860000000000000000000000,1176450050,,,,0,,1,,43.64219665527344,3.5215636101095664,2.96171077722997,3.5215636101095664,1.0,Q,121639595539000
Raw,1676594135000,55687000000,,,-1360629297313388960,0.0,7.651642728589099,291.0,1.0,19,25,0.0,81921,434152926152972,7,38.85280227661133,-462.8692068222008,0.15,16,-27151.91734936454,340282346638528860000000000000000000000,1176450050,,,,0,,1,,34.752803802490234,1.0186341127782053,2.96171077722997,1.0186341127782053,1.0,Q,121639595539000
Raw,1676594135000,55687000000,,,-1360629297313388960,0.0,7.651642728589099,291.0,1.0,19,14,0.0,32995,12934932682557,37,39.08750534057617,603.4138739817922,0.15,16,33861.26699118021,340282346638528860000000000000000000000,1598062460,,,,0,,3,,34.88750457763672,50.29141902923584,2.0000000474974513,50.29141902923584,2.0000000474974513,C,121639595539000
Raw,1676594135000,55687000000,,,-1360629297313388960,0.0,7.651642728589099,291.0,1.0,19,18,0.0,32867,12934928893649,33,43.86064529418945,-449.74381423807085,0.15,16,-24962.238495171765,340282346638528860000000000000000000000,1600312450,,,,0,,3,,39.66064453125,50.29141902923584,2.0000000474974513,50.29141902923584,2.0000000474974513,C,121639595539000
Raw,1676594135000,55687000000,,,-1360629297313388960,0.0,7.651642728589099,291.0,1.0,19,16,0.0,32867,12934924232901,33,47.65867233276367,-666.5005010055143,0.15,16,-36497.63755737597,340282346638528860000000000000000000000,1601437440,,,,0,,3,,43.45867156982422,50.29141902923584,2.0000000474974513,50.29141902923584,2.0000000474974513,C,121639595539000
Raw,1676594135000,55687000000,,,-1360629297313388960,0.0,7.651642728589099,291.0,1.0,19,15,0.0,32867,12934935842029,33,40.66162872314453,-148.9379492327248,0.15,16,-8444.608703456179,340282346638528860000000000000000000000,1602000000,,,,0,,3,,36.46162796020508,50.29141902923584,2.0000000474974513,50.29141902923584,2.0000000474974513,C,121639595539000
Raw,1676594135000,55687000000,,,-1360629297313388960,0.0,7.651642728589099,291.0,1.0,19,24,0.0,32995,12934929050977,33,42.08602523803711,710.43599121433,0.15,16,39822.63702076086,340282346638528860000000000000000000000,1603124990,,,,0,,3,,37.886024475097656,50.29141902923584,2.0000000474974513,50.29141902923584,2.0000000474974513,C,121639595539000
Raw,1676594135000,55687000000,,,-1360629297313388960,0.0,7.651642728589099,291.0,1.0,19,17,0.0,32867,12934936473221,33,40.48665237426758,127.18053548813333,0.15,16,6893.1527450267595,340282346638528860000000000000000000000,1604249980,,,,0,,3,,36.286651611328125,50.29141902923584,2.0000000474974513,50.29141902923584,2.0000000474974513,C,121639595539000
Raw,1676594135000,55687000000,,,-1360629297313388960,0.0,7.651642728589099,291.0,1.0,19,2,0.0,85026,434152922524972,24,35.52642059326172,149.3377705301939,0.5403914271526638,16,8344.648795926545,340282346638528860000000000000000000000,1575420030,,,,0,,6,,31.326419830322266,-6.024492904543876,1.5000000237487257,-6.024492904543876,1.5000000237487257,C,121639595539000
Raw,1676594135000,55687000000,,,-1360629297313388960,0.0,7.651642728589099,291.0,1.0,19,11,0.0,85026,434152910637073,23,36.26519775390625,611.0221689162922,0.15,16,33869.900031708836,340282346638528860000000000000000000000,1575420030,,,,0,,6,,32.0651969909668,-6.024492904543876,1.5000000237487257,-6.024492904543876,1.5000000237487257,C,121639595539000
Raw,1676594135000,55687000000,,,-1360629297313388960,0.0,7.651642728589099,291.0,1.0,19,25,0.0,85026,434152912745877,21,37.250762939453125,510.04464351298793,0.15,16,28283.443566673042,340282346638528860000000000000000000000,1575420030,,,,0,,6,,33.05076217651367,-6.024492904543876,1.5000000237487257,-6.024492904543876,1.5000000237487257,C,121639595539000
Raw,1676594135000,55687000000,,,-1360629297313388960,0.0,7.651642728589099,291.0,1.0,19,30,0.0,85026,434152916189304,11,44.6237907409668,-290.6688222091361,0.15,16,-16094.670974605086,340282346638528860000000000000000000000,1575420030,,,,0,,6,,40.423789978027344,-6.024492904543876,1.5000000237487257,-6.024492904543876,1.5000000237487257,C,121639595539000
Raw,1676594135000,55687000000,,,-1360629297313388960,0.0,7.651642728589099,291.0,1.0,19,34,0.0,85026,434152919975057,12,44.12998580932617,-254.28430024294903,0.15,16,-14656.802674284472,340282346638528860000000000000000000000,1575420030,,,,0,,6,,39.92998504638672,-6.024492904543876,1.5000000237487257,-6.024492904543876,1.5000000237487257,C,121639595539000
Raw,1676594135000,55687000000,,,-1360629297313388960,0.0,7.651642728589099,291.0,1.0,19,36,0.0,85026,434152921297321,16,40.693214416503906,277.06428140998025,0.15,16,15457.38643541434,340282346638528860000000000000000000000,1575420030,,,,0,,6,,36.49321365356445,-6.024492904543876,1.5000000237487257,-6.024492904543876,1.5000000237487257,C,121639595539000
Raw,1676594135000,55687000000,,,-1360629297313388960,0.0,7.651642728589099,291.0,1.0,19,2,0.0,84003,434152922525523,27,29.870031356811523,149.51837346730827,0.7938536364439397,16,8415.627867705382,340282346638528860000000000000000000000,1176450050,,,,0,,6,,25.770030975341797,-4.362151958048344,3.4617108009786954,-4.362151958048344,1.5000000237487257,Q,121639595539000
Raw,1676594135000,55687000000,,,-1360629297313388960,0.0,7.651642728589099,291.0,1.0,19,11,0.0,84003,434152910637614,18,31.37159538269043,611.0716566431634,0.7241916914359332,16,36363.302860019685,340282346638528860000000000000000000000,1176450050,,,,0,,6,,27.271595001220703,4.134257324039933,3.4617108009786954,4.134257324039933,1.5000000237487257,Q,121639595539000
Raw,1676594135000,55687000000,,,-1360629297313388960,0.0,7.651642728589099,291.0,1.0,19,25,0.0,84003,434152912746367,33,27.35295295715332,510.00043856687785,0.9052847635647145,16,32384.60508448123,340282346638528860000000000000000000000,1176450050,,,,0,,6,,23.252952575683594,-8.795061148703097,3.4617108009786954,-8.795061148703097,1.5000000237487257,Q,121639595539000
Raw,1676594135000,55687000000,,,-1360629297313388960,0.0,7.651642728589099,291.0,1.0,19,30,0.0,84003,434152916189845,11,39.60389709472656,-290.5051923353701,0.15,16,-15784.453249164351,340282346638528860000000000000000000000,1176450050,,,,0,,6,,35.50389862060547,-8.425652049481869,3.4617108009786954,-8.425652049481869,1.5000000237487257,Q,121639595539000
Raw,1676594135000,55687000000,,,-1360629297313388960,0.0,7.651642728589099,291.0,1.0,19,34,0.0,84003,434152919975596,9,40.8617057800293,-254.6660237560045,0.15,16,-14892.376449550604,340282346638528860000000000000000000000,1176450050,,,,0,,6,,36.7617073059082,-10.0879929959774,3.4617108009786954,-10.0879929959774,1.5000000237487257,Q,121639595539000
Raw,1676594135000,55687000000,,,-1360629297313388960,0.0,7.651642728589099,291.0,1.0,19,36,0.0,84003,434152921297857,13,37.7794303894043,277.17484489894025,0.15,16,15849.560516856422,340282346638528860000000000000000000000,1176450050,,,,0,,6,,33.6794319152832,-11.011515744030472,3.4617108009786954,-11.011515744030472,1.5000000237487257,Q,121639595539000
UncalMag,1676594136071,121639701927746,-41.0896,13.8104,-113.3136,-45.491467,0.31409264,-60.09035
UncalGyro,1676594136073,121639703098339,0.24190263,1.4430164,0.8026769,0.0005148937,-0.00085961807,-0.00317833
UncalAccel,1676594136077,121639707586742,1.0977074,1.4943178,16.224533,0.006110925,-0.043260336,-0.038735468
UncalMag,1676594136081,121639711913585,-39.8574,14.3228,-113.228195,-45.491467,0.31409264,-60.09035
UncalGyro,1676594136082,121639712074168,0.548557,1.4657712,0.84574294,0.0005148937,-0.00085961807,-0.00317833
OrientationDeg,1676594136077,121639707586742,350.0,5.0,-18.0
Status,0,30,0,6,2,1176450050,35.40,95.0,78.0,1,1,1,31.303537
Status,0,30,1,6,2,1575420030,38.49,95.0,78.0,1,1,1,34.290787
Status,0,30,2,3,17,1604249980,42.06,304.0,74.0,1,1,1,37.864258
Status,0,30,3,1,11,1575420030,40.27,137.0,74.0,1,1,1,36.07016
Status,0,30,4,1,11,1176450050,39.93,137.0,74.0,1,1,1,35.828186
Status,0,30,5,3,15,1602000000,40.66,324.0,72.0,1,1,1,36.461628
Status,0,30,6,6,36,1575420030,41.88,55.0,65.0,1,1,1,37.67745
Status,0,30,7,6,36,1176450050,37.78,55.0,65.0,1,1,1,33.679432
Status,0,30,8,1,12,1575420030,41.68,325.0,61.0,1,1,1,37.478123
Status,0,30,9,6,34,1176450050,40.86,204.0,56.0,1,1,1,36.761707
Status,0,30,10,6,34,1575420030,44.45,204.0,56.0,1,1,1,40.254543
Status,0,30,11,3,14,1598062460,41.37,150.0,50.0,1,1,1,37.17208
Status,0,30,12,1,6,1176450050,35.57,50.0,47.0,1,1,1,31.467052
Status,0,30,13,1,6,1575420030,44.23,50.0,47.0,1,1,1,40.027428
Status,0,30,14,6,30,1575420030,44.62,315.0,43.0,1,1,1,40.42379
Status,0,30,15,6,30,1176450050,39.60,315.0,43.0,1,1,1,35.5039
Status,0,30,16,1,24,1575420030,49.60,221.0,41.0,1,1,1,45.403328
Status,0,30,17,1,24,1176450050,48.62,221.0,41.0,1,1,1,44.52076
Status,0,30,18,3,24,1603124990,43.36,32.0,34.0,1,1,1,39.163544
Status,0,30,19,3,18,1600312450,45.97,235.0,33.0,1,1,1,41.767246
Status,0,30,20,1,25,1575420030,38.45,312.0,32.0,1,1,1,34.249023
Status,0,30,21,1,25,1176450050,39.19,312.0,32.0,1,1,1,35.08741
Status,0,30,22,1,19,1575420030,45.54,58.0,28.0,1,1,1,41.341652
Status,0,30,23,6,25,1575420030,40.98,124.0,28.0,1,1,1,36.776665
Status,0,30,24,6,25,1176450050,34.84,124.0,28.0,1,1,1,30.744556
Status,0,30,25,1,20,1575420030,38.67,144.0,24.0,1,1,1,34.46715
Status,0,30,26,3,16,1601437440,47.97,328.0,18.0,1,1,1,43.771893
Status,0,30,27,6,11,1176450050,31.37,40.0,16.0,1,1,1,27.271595
Status,0,30,28,6,11,1575420030,36.27,40.0,16.0,1,1,1,32.065197
Status,0,30,29,1,29,1575420030,42.85,262.0,12.0,1,1,1,38.652668
Fix,GPS,37.4312868235,-122.1550430574,-8.994977261750416,0.0,4.5867887,26.125895,1676594135000,0.099111535,162.81155,121639595539000,3.0
UncalAccel,1676594136085,121639716553783,0.59641105,1.707279,13.759927,0.006110925,-0.043260336,-0.038735468
OrientationDeg,1676594136086,121639716553783,349.0,6.0,-19.0
Fix,FLP,37.4312952000,-122.1550418000,-15.80000114440918,0.15710877,5.872,4.646188,1676594135803,,,121639433701244,3.090596
UncalGyro,1676594136090,121639721056530,0.77854776,1.3187053,0.91247994,0.0005148937,-0.00085961807,-0.00317833
UncalMag,1676594136091,121639721933117,-39.3816,13.4566,-112.1668,-45.491467,0.31409264,-60.09035
UncalAccel,1676594136095,121639725545543,0.2739782,1.6797615,11.475379,0.006110925,-0.043260336,-0.038735468
OrientationDeg,1676594136094,121639725545543,349.0,6.0,-19.0
UncalGyro,1676594136099,121639730039501,0.93966347,1.03786,0.9995282,0.0005148937,-0.00085961807,-0.00317833
UncalMag,1676594136101,121639731927501,-39.772,12.4318,-112.789,-45.491467,0.31409264,-60.09035
UncalAccel,1676594136104,121639734523326,0.6478567,2.1463618,9.825528,0.006110925,-0.043260336,-0.038735468
OrientationDeg,1676594136104,121639734523326,348.0,6.0,-20.0
UncalGyro,1676594136108,121639739007335,1.1004738,0.656222,1.0461067,0.0005148937,-0.00085961807,-0.00317833
UncalMag,1676594136111,121639741927501,-35.7216,12.4928,-111.1298,-45.491467,0.31409264,-60.09035
UncalAccel,1676594136113,121639743505626,1.2526426,3.1686954,8.608778,0.006110925,-0.043260336,-0.038735468
OrientationDeg,1676594136112,121639743505626,348.0,6.0,-20.0
UncalGyro,1676594136117,121639747996593,1.2875512,0.20265454,0.99265605,0.0005148937,-0.00085961807,-0.00317833
UncalMag,1676594136121,121639751927501,-38.246998,10.845799,-113.1306,-45.491467,0.31409264,-60.09035
UncalAccel,1676594136122,121639752487926,1.6755741,3.539583,7.4787674,0.006110925,-0.043260336,-0.038735468
OrientationDeg,1676594136122,121639752487926,347.0,6.0,-21.0
UncalGyro,1676594136126,121639756976573,1.4489723,-0.27840182,0.88499105,0.0005148937,-0.00085961807,-0.00317833
UncalAccel,1676594136131,121639761465526,1.9082761,3.4707892,6.645467,0.006110925,-0.043260336,-0.038735468
UncalMag,1676594136131,121639761915783,-38.6252,9.8698,-112.142395,-45.491467,0.31409264,-60.09035
OrientationDeg,1676594136130,121639761465526,347.0,6.0,-22.0
UncalGyro,1676594136135,121639765956249,1.5367843,-0.7165449,0.78954333,0.0005148937,-0.00085961807,-0.00317833
UncalAccel,1676594136140,121639770445506,2.0225334,3.426522,5.6781683,0.006110925,-0.043260336,-0.038735468
OrientationDeg,1676594136139,121639770445506,347.0,5.0,-23.0
UncalMag,1676594136140,121639771927746,-36.4414,10.845799,-112.6792,-45.491467,0.31409264,-60.09035
UncalGyro,1676594136143,121639774937145,1.5010486,-1.1074986,0.7031059,0.0005148937,-0.00085961807,-0.00317833
UncalAccel,1676594136149,121639779424999,2.4293132,3.394817,4.331009,0.006110925,-0.043260336,-0.038735468
OrientationDeg,1676594136148,121639779424999,347.0,4.0,-24.0
UncalMag,1676594136151,121639781927501,-38.6984,9.174399,-113.7406,-45.491467,0.31409264,-60.09035
UncalGyro,1676594136152,121639783915966,1.34314,-1.5210545,0.5907067,0.0005148937,-0.00085961807,-0.00317833
UncalAccel,1676594136158,121639788404674,2.4311078,2.7708886,2.9982069,0.006110925,-0.043260336,-0.038735468
OrientationDeg,1676594136158,121639788404674,346.0,3.0,-24.0
UncalMag,1676594136161,121639791927501,-39.881798,7.8079996,-113.1916,-45.491467,0.31409264,-60.09035
UncalGyro,1676594136162,121639792895702,1.1026118,-1.9872974,0.54367006,0.0005148937,-0.00085961807,-0.00317833
UncalAccel,1676594136166,121639797384716,2.2737796,1.6971095,2.3150558,0.006110925,-0.043260336,-0.038735468
OrientationDeg,1676594136166,121639797384716,346.0,2.0,-25.0
UncalGyro,1676594136170,121639801875682,0.7976373,-2.4210117,0.6235407,0.0005148937,-0.00085961807,-0.00317833
UncalMag,1676594136170,121639801915783,-40.5406,7.9178,-114.460396,-45.491467,0.31409264,-60.09035
UncalAccel,1676594136175,121639806365306,2.1014965,0.37507495,2.2935205,0.006110925,-0.043260336,-0.038735468
OrientationDeg,1676594136175,121639806365306,345.0,0.0,-25.0
UncalGyro,1676594136180,121639810857860,0.44409904,-2.7305677,0.8324566,0.0005148937,-0.00085961807,-0.00317833
UncalMag,1676594136180,121639811927501,-41.370197,7.5884,-116.1074,-45.491467,0.31409264,-60.09035
UncalAccel,1676594136185,121639815344493,2.263012,-0.9637093,2.3395824,0.006110925,-0.043260336,-0.038735468
OrientationDeg,1676594136184,121639815344493,345.0,-1.0,-25.0
UncalGyro,1676594136188,121639819835582,0.09315695,-2.9558241,1.135293,0.0005148937,-0.00085961807,-0.00317833
UncalMag,1676594136190,121639821916027,-44.5178,7.198,-114.436,-45.491467,0.31409264,-60.09035
UncalAccel,1676594136193,121639824323558,2.3856442,-1.558924,2.6853452,0.006110925,-0.043260336,-0.038735468
OrientationDeg,1676594136194,121639824323558,344.0,-3.0,-25.0
UncalGyro,1676594136198,121639828815135,-0.18081611,-3.1597004,1.5717562,0.0005148937,-0.00085961807,-0.00317833
UncalMag,1676594136201,121639831927501,-44.5788,7.7714,-113.057396,-45.491467,0.31409264,-60.09035
UncalAccel,1676594136202,121639833301158,2.9222345,-1.8544376,2.6099713,0.006110925,-0.043260336,-0.038735468
OrientationDeg,1676594136203,121639833301158,343.0,-5.0,-25.0
UncalGyro,1676594136207,121639837783397,-0.36682457,-3.3730452,2.0952678,0.0005148937,-0.00085961807,-0.00317833
UncalMag,1676594136211,121639841927501,-43.5052,8.9426,-110.6784,-45.491467,0.31409264,-60.09035
UncalAccel,1676594136211,121639842281260,3.760919,-1.4566308,3.2925239,0.006110925,-0.043260336,-0.038735468
OrientationDeg,1676594136211,121639842281260,342.0,-7.0,-24.0
UncalGyro,1676594136216,121639846764354,-0.41279218,-3.4946074,2.456289,0.0005148937,-0.00085961807,-0.00317833
UncalAccel,1676594136220,121639851266796,4.64746,-1.2077773,3.674179,0.006110925,-0.043260336,-0.038735468
UncalMag,1676594136221,121639851916027,-45.6768,8.7352,-112.6914,-45.491467,0.31409264,-60.09035
OrientationDeg,1676594136221,121639851266796,340.0,-10.0,-24.0
UncalGyro,1676594136225,121639855754833,-0.39767328,-3.5114062,2.6132815,0.0005148937,-0.00085961807,-0.00317833
UncalAccel,1676594136230,121639860245250,5.5704913,-2.3072793,1.4853446,0.006110925,-0.043260336,-0.038735468
OrientationDeg,1676594136230,121639860245250,339.0,-12.0,-23.0
UncalMag,1676594136231,121639861927501,-47.4214,9.4794,-110.1538,-45.491467,0.31409264,-60.09035
UncalGyro,1676594136233,121639864730663,-0.39492437,-3.7061195,2.7253752,0.0005148937,-0.00085961807,-0.00317833
UncalAccel,1676594136238,121639869223644,5.8893347,-1.5804594,1.6953149,0.006110925,-0.043260336,-0.038735468
OrientationDeg,1676594136239,121639869223644,337.0,-15.0,-23.0
UncalMag,1676594136240,121639871927501,-50.02,9.1012,-113.1062,-45.491467,0.31409264,-60.09035
UncalGyro,1676594136242,121639873714855,-0.408058,-3.83883,2.7560713,0.0005148937,-0.00085961807,-0.00317833
UncalAccel,1676594136248,121639878205089,5.9730835,-0.4103691,2.9503503,0.006110925,-0.043260336,-0.038735468
OrientationDeg,1676594136247,121639878205089,336.0,-17.0,-22.0
UncalMag,1676594136251,121639881927257,-49.7516,9.3818,-111.1542,-45.491467,0.31409264,-60.09035
UncalGyro,1676594136252,121639882696544,-0.49480084,-3.7717874,2.6871963,0.0005148937,-0.00085961807,-0.00317833
UncalAccel,1676594136256,121639887183483,5.608178,-0.28773692,3.673581,0.006110925,-0.043260336,-0.038735468
OrientationDeg,1676594136257,121639887183483,335.0,-20.0,-21.0
UncalGyro,1676594136260,121639891674205,-0.6585127,-3.6173913,2.6106853,0.0005148937,-0.00085961807,-0.00317833
UncalMag,1676594136260,121639891915783,-51.483997,9.638,-110.2392,-45.491467,0.31409264,-60.09035
UncalAccel,1676594136265,121639896162548,5.1266227,-0.9415757,4.564309,0.006110925,-0.043260336,-0.038735468
OrientationDeg,1676594136266,121639896162548,333.0,-22.0,-20.0
UncalGyro,1676594136270,121639900650829,-0.8544478,-3.300352,2.6520715,0.0005148937,-0.00085961807,-0.00317833
UncalMag,1676594136271,121639901927501,-51.9232,9.991799,-108.153,-45.491467,0.31409264,-60.09035
UncalAccel,1676594136275,121639905129589,4.546363,-1.689931,6.125626,0.006110925,-0.043260336,-0.038735468
OrientationDeg,1676594136275,121639905129589,332.0,-24.0,-19.0
UncalGyro,1676594136278,121639909634044,-1.0193814,-2.7559185,2.8669434,0.0005148937,-0.00085961807,-0.00317833
UncalMag,1676594136280,121639911922130,-54.277798,10.3944,-109.812195,-45.491467,0.31409264,-60.09035
UncalAccel,1676594136283,121639914123180,4.025326,-2.1278176,6.6735826,0.006110925,-0.043260336,-0.038735468
OrientationDeg,1676594136284,121639914123180,331.0,-26.0,-18.0
UncalGyro,1676594136288,121639918618053,-1.1337659,-2.1681135,3.2233832,0.0005148937,-0.00085961807,-0.00317833
UncalMag,1676594136291,121639921927501,-53.0578,11.7364,-107.640594,-45.491467,0.31409264,-60.09035
UncalAccel,1676594136293,121639923100719,3.8925242,-2.3479571,6.166902,0.006110925,-0.043260336,-0.038735468
OrientationDeg,1676594136292,121639923100719,330.0,-27.0,-17.0
UncalGyro,1676594136296,121639927585704,-1.20371,-1.7142406,3.5811975,0.0005148937,-0.00085961807,-0.00317833
UncalMag,1676594136300,121639931927501,-55.217197,12.0414,-109.5438,-45.491467,0.31409264,-60.09035
UncalAccel,1676594136302,121639932079845,4.065406,-2.6225336,5.5704913,0.006110925,-0.043260336,-0.038735468
OrientationDeg,1676594136301,121639932079845,328.0,-28.0,-15.0
UncalGyro,1676594136306,121639936562023,-1.2519683,-1.4217888,3.8837285,0.0005148937,-0.00085961807,-0.00317833
UncalAccel,1676594136310,121639941064708,4.313661,-2.926422,4.9788656,0.006110925,-0.043260336,-0.038735468
UncalMag,1676594136311,121639941915783,-54.668198,13.883599,-109.9342,-45.491467,0.31409264,-60.09035
OrientationDeg,1676594136311,121639941064708,327.0,-29.0,-13.0
UncalGyro,1676594136314,121639945550426,-1.2852604,-1.2675453,4.1447206,0.0005148937,-0.00085961807,-0.00317833
UncalAccel,1676594136319,121639950034191,4.752744,-3.1645079,4.45065,0.006110925,-0.043260336,-0.038735468
OrientationDeg,1676594136320,121639950034191,325.0,-31.0,-12.0
UncalMag,1676594136320,121639951927257,-57.864597,13.6518,-109.165596,-45.491467,0.31409264,-60.09035
UncalGyro,1676594136324,121639954535594,-1.3035865,-1.2475395,4.353026,0.0005148937,-0.00085961807,-0.00317833
UncalAccel,1676594136328,121639959022472,5.1990056,-3.1716864,3.8524444,0.006110925,-0.043260336,-0.038735468
OrientationDeg,1676594136328,121639959022472,323.0,-32.0,-10.0
UncalMag,1676594136331,121639961927501,-57.2546,15.1524,-109.019196,-45.491467,0.31409264,-60.09035
UncalGyro,1676594136333,121639963516307,-1.3057245,-1.3422236,4.4785585,0.0005148937,-0.00085961807,-0.00317833
UncalAccel,1676594136337,121639967999278,5.6392846,-3.126821,3.577868,0.006110925,-0.043260336,-0.038735468
OrientationDeg,1676594136337,121639967999278,322.0,-33.0,-8.0
UncalMag,1676594136341,121639971927501,-55.9614,16.2138,-106.445,-45.491467,0.31409264,-60.09035
UncalGyro,1676594136341,121639972483776,-1.3116804,-1.483028,4.5168905,0.0005148937,-0.00085961807,-0.00317833
UncalAccel,1676594136345,121639976981823,5.988637,-3.109473,3.3846476,0.006110925,-0.043260336,-0.038735468
OrientationDeg,1676594136345,121639976981823,320.0,-34.0,-6.0
UncalGyro,1676594136351,121639981472789,-1.3429873,-1.6339118,4.473519,0.0005148937,-0.00085961807,-0.00317833
UncalMag,1676594136351,121639981916027,-53.1432,18.3732,-105.469,-45.491467,0.31409264,-60.09035
UncalAccel,1676594136354,121639985964183,6.248258,-3.21715,2.760719,0.006110925,-0.043260336,-0.038735468
OrientationDeg,1676594136355,121639985964183,319.0,-35.0,-4.0
UncalGyro,1676594136360,121639990453868,-1.4118623,-1.8823812,4.348597,0.0005148937,-0.00085961807,-0.00317833
UncalMag,1676594136360,121639991927746,-55.827198,17.763199,-106.4328,-45.491467,0.31409264,-60.09035
UncalAccel,1676594136363,121639994941905,6.5497537,-3.3918262,2.318047,0.006110925,-0.043260336,-0.038735468
OrientationDeg,1676594136363,121639994941905,317.0,-36.0,-2.0
UncalGyro,1676594136368,121639999432872,-1.5042557,-2.2319489,4.157549,0.0005148937,-0.00085961807,-0.00317833
UncalMag,1676594136370,121640001927746,-55.4246,19.9592,-105.6398,-45.491467,0.31409264,-60.09035
UncalAccel,1676594136373,121640003921337,7.1395845,-3.3565319,2.6117659,0.006110925,-0.043260336,-0.038735468
OrientationDeg,1676594136372,121640003921337,316.0,-37.0,0.0
UncalGyro,1676594136377,121640008412548,-1.5847372,-2.567161,3.9203804,0.0005148937,-0.00085961807,-0.00317833
UncalMag,1676594136380,121640011915783,-56.7056,20.483799,-105.8594,-45.491467,0.31409264,-60.09035
UncalAccel,1676594136381,121640012901561,7.5846496,-3.2775688,3.3433714,0.006110925,-0.043260336,-0.038735468
OrientationDeg,1676594136382,121640012901561,315.0,-39.0,1.0
UncalGyro,1676594136386,121640017392528,-1.6314683,-2.7861564,3.6622899,0.0005148937,-0.00085961807,-0.00317833
UncalAccel,1676594136390,121640021881847,7.7994056,-3.3792639,4.0965123,0.006110925,-0.043260336,-0.038735468
UncalMag,1676594136391,121640021913097,-57.8768,21.4842,-105.7252,-45.491467,0.31409264,-60.09035
OrientationDeg,1676594136390,121640021881847,314.0,-40.0,2.0
UncalGyro,1676594136395,121640026374401,-1.6546812,-2.8699977,3.4009922,0.0005148937,-0.00085961807,-0.00317833
UncalAccel,1676594136400,121640030860973,8.00459,-3.6197424,4.57747,0.006110925,-0.043260336,-0.038735468
OrientationDeg,1676594136399,121640030860973,314.0,-42.0,4.0
UncalMag,1676594136401,121640031916515,-58.6576,22.5822,-106.6036,-45.491467,0.31409264,-60.09035
UncalGyro,1676594136404,121640035351879,-1.6681203,-2.867096,3.1584787,0.0005148937,-0.00085961807,-0.00317833
UncalAccel,1676594136408,121640039839976,8.172686,-3.7884364,5.044668,0.006110925,-0.043260336,-0.038735468
OrientationDeg,1676594136409,121640039839976,313.0,-43.0,6.0
UncalMag,1676594136411,121640041927746,-61.1586,22.8262,-104.4686,-45.491467,0.31409264,-60.09035
UncalGyro,1676594136413,121640044329051,-1.6901114,-2.7931814,2.9469666,0.0005148937,-0.00085961807,-0.00317833
UncalAccel,1676594136417,121640048806163,8.246863,-3.769892,5.554938,0.006110925,-0.043260336,-0.038735468
OrientationDeg,1676594136417,121640048806163,313.0,-44.0,8.0
UncalMag,1676594136421,121640051927746,-59.9386,24.6806,-102.5166,-45.491467,0.31409264,-60.09035
UncalGyro,1676594136422,121640053300365,-1.7402023,-2.6568058,2.7887526,0.0005148937,-0.00085961807,-0.00317833
UncalAccel,1676594136427,121640057801036,8.263613,-3.7890346,5.945566,0.006110925,-0.043260336,-0.038735468
OrientationDeg,1676594136427,121640057801036,312.0,-46.0,9.0
UncalMag,1676594136431,121640061927746,-59.950798,25.0832,-100.5646,-45.491467,0.31409264,-60.09035
UncalGyro,1676594136432,121640062292919,-1.8387043,-2.4885123,2.7017043,0.0005148937,-0.00085961807,-0.00317833
UncalAccel,1676594136435,121640066771617,8.125427,-4.3968115,6.013163,0.006110925,-0.043260336,-0.038735468
OrientationDeg,1676594136436,121640066771617,312.0,-47.0,11.0
UncalGyro,1676594136440,121640071271434,-1.9937115,-2.3318253,2.701857,0.0005148937,-0.00085961807,-0.00317833
UncalMag,1676594136440,121640071915783,-60.9878,26.5106,-100.6012,-45.491467,0.31409264,-60.09035
UncalAccel,1676594136445,121640075760143,7.881958,-5.3018966,5.63091,0.006110925,-0.043260336,-0.038735468
OrientationDeg,1676594136445,121640075760143,312.0,-48.0,13.0
UncalGyro,1676594136449,121640080254405,-2.2105687,-2.30342,2.7559185,0.0005148937,-0.00085961807,-0.00317833
UncalMag,1676594136451,121640081927501,-60.8048,27.694,-100.4914,-45.491467,0.31409264,-60.09035
UncalAccel,1676594136454,121640084740489,7.7617183,-5.7230334,5.1996036,0.006110925,-0.043260336,-0.038735468
OrientationDeg,1676594136454,121640084740489,312.0,-49.0,15.0
UncalGyro,1676594136459,121640089229198,-2.462245,-2.5043948,2.7782152,0.0005148937,-0.00085961807,-0.00317833
UncalMag,1676594136461,121640091927746,-61.7198,28.2796,-98.148994,-45.491467,0.31409264,-60.09035
UncalAccel,1676594136462,121640093711925,7.8753777,-5.8677993,5.099105,0.006110925,-0.043260336,-0.038735468
OrientationDeg,1676594136462,121640093711925,312.0,-51.0,17.0
UncalGyro,1676594136468,121640098213329,-2.638938,-2.9778154,2.7369816,0.0005148937,-0.00085961807,-0.00317833
UncalMag,1676594136471,121640101927501,-61.9516,30.097399,-97.7464,-45.491467,0.31409264,-60.09035
UncalAccel,1676594136471,121640102700145,8.510074,-5.9958153,5.749355,0.006110925,-0.043260336,-0.038735468
OrientationDeg,1676594136471,121640102700145,312.0,-53.0,19.0
UncalGyro,1676594136476,121640107193309,-2.5515842,-3.5833356,2.701246,0.0005148937,-0.00085961807,-0.00317833
UncalAccel,1676594136480,121640111676952,9.374481,-5.6739807,8.809774,0.006110925,-0.043260336,-0.038735468
UncalMag,1676594136480,121640111914562,-62.9398,31.2442,-98.2466,-45.491467,0.31409264,-60.09035
OrientationDeg,1676594136481,121640111676952,312.0,-55.0,20.0
UncalGyro,1676594136486,121640116161327,-2.2797492,-3.846313,2.651766,0.0005148937,-0.00085961807,-0.00317833
UncalAccel,1676594136490,121640120659801,10.141979,-5.5627146,10.958529,0.006110925,-0.043260336,-0.038735468
OrientationDeg,1676594136489,121640120659801,313.0,-57.0,22.0
UncalMag,1676594136491,121640121927746,-63.44,33.0742,-98.576,-45.491467,0.31409264,-60.09035
UncalGyro,1676594136494,121640125150585,-1.9775236,-3.791488,2.5764768,0.0005148937,-0.00085961807,-0.00317833
UncalAccel,1676594136499,121640129642283,10.646266,-6.533602,12.51865,0.006110925,-0.043260336,-0.038735468
OrientationDeg,1676594136498,121640129642283,313.0,-58.0,24.0
UncalMag,1676594136501,121640131927501,-64.8552,33.4646,-97.0632,-45.491467,0.31409264,-60.09035
UncalGyro,1676594136503,121640134131664,-1.7806722,-3.4636059,2.5167649,0.0005148937,-0.00085961807,-0.00317833
UncalAccel,1676594136507,121640138619030,10.405787,-7.9944205,12.68196,0.006110925,-0.043260336,-0.038735468
OrientationDeg,1676594136508,121640138619030,313.0,-60.0,25.0
UncalMag,1676594136510,121640141927746,-65.3554,34.5748,-93.2202,-45.491467,0.31409264,-60.09035
UncalGyro,1676594136512,121640143107188,-1.6942347,-3.1085405,2.5465446,0.0005148937,-0.00085961807,-0.00317833
UncalAccel,1676594136517,121640147587475,9.549755,-8.986844,11.696117,0.006110925,-0.043260336,-0.038735468
OrientationDeg,1676594136517,121640147587475,313.0,-62.0,27.0
UncalMag,1676594136521,121640151927501,-64.3916,35.1604,-92.354,-45.491467,0.31409264,-60.09035
UncalGyro,1676594136521,121640152091503,-1.6009251,-2.9005408,2.7291932,0.0005148937,-0.00085961807,-0.00317833
UncalAccel,1676594136525,121640156584789,8.536395,-9.608977,11.306685,0.006110925,-0.043260336,-0.038735468
OrientationDeg,1676594136526,121640156584789,313.0,-63.0,29.0
UncalGyro,1676594136530,121640161073130,-1.464244,-2.7482827,3.0712776,0.0005148937,-0.00085961807,-0.00317833
UncalMag,1676594136530,121640161927746,-63.6596,36.9172,-89.6456,-45.491467,0.31409264,-60.09035
UncalAccel,1676594136535,121640165559703,8.003393,-9.735797,10.884352,0.006110925,-0.043260336,-0.038735468
OrientationDeg,1676594136535,121640165559703,313.0,-64.0,31.0
UncalGyro,1676594136539,121640170051097,-1.2695307,-2.627484,3.444211,0.0005148937,-0.00085961807,-0.00317833
UncalMag,1676594136541,121640171927501,-64.2208,37.551598,-89.1698,-45.491467,0.31409264,-60.09035
UncalAccel,1676594136544,121640174538951,7.9561353,-9.55813,10.14138,0.006110925,-0.043260336,-0.038735468
OrientationDeg,1676594136543,121640174538951,312.0,-66.0,32.0
UncalGyro,1676594136549,121640179029735,-1.0236574,-2.5983152,3.7278051,0.0005148937,-0.00085961807,-0.00317833
UncalMag,1676594136551,121640181927501,-64.111,38.1982,-88.0962,-45.491467,0.31409264,-60.09035
UncalAccel,1676594136552,121640183518139,8.09133,-9.406186,9.132806,0.006110925,-0.043260336,-0.038735468
OrientationDeg,1676594136553,121640183518139,312.0,-67.0,34.0
UncalGyro,1676594136558,121640188009716,-0.70264775,-2.7004826,3.9240456,0.0005148937,-0.00085961807,-0.00317833
UncalMag,1676594136561,121640191927746,-64.2818,40.2356,-87.9376,-45.491467,0.31409264,-60.09035
UncalAccel,1676594136562,121640192498790,8.282756,-9.306884,8.123632,0.006110925,-0.043260336,-0.038735468
OrientationDeg,1676594136562,121640192498790,311.0,-68.0,36.0
UncalGyro,1676594136566,121640196989696,-0.30207285,-2.9428434,4.0665298,0.0005148937,-0.00085961807,-0.00317833
UncalAccel,1676594136571,121640201478771,8.413164,-9.571889,7.393822,0.006110925,-0.043260336,-0.038735468
OrientationDeg,1676594136570,121640201478771,310.0,-69.0,38.0
UncalMag,1676594136570,121640201915783,-61.6588,41.3824,-87.108,-45.491467,0.31409264,-60.09035
UncalGyro,1676594136574,121640205970653,0.15317446,-3.2701144,4.2174134,0.0005148937,-0.00085961807,-0.00317833
UncalAccel,1676594136579,121640210458385,8.119446,-10.375877,6.739983,0.006110925,-0.043260336,-0.038735468
OrientationDeg,1676594136580,121640210458385,309.0,-69.0,40.0
UncalMag,1676594136581,121640211927501,-61.3782,41.6264,-88.389,-45.491467,0.31409264,-60.09035
UncalGyro,1676594136583,121640214949169,0.6302602,-3.6404514,4.4350343,0.0005148937,-0.00085961807,-0.00317833
