# 
# Header Description:
# 
# Version: v3.0.5.6 Platform: 13 Manufacturer: Google Model: Pixel 6
# 
# Raw,utcTimeMillis,TimeNanos,LeapSecond,TimeUncertaintyNanos,FullBiasNanos,BiasNanos,BiasUncertaintyNanos,DriftNanosPerSecond,DriftUncertaintyNanosPerSecond,HardwareClockDiscontinuityCount,Svid,TimeOffsetNanos,State,ReceivedSvTimeNanos,ReceivedSvTimeUncertaintyNanos,Cn0DbHz,PseudorangeRateMetersPerSecond,PseudorangeRateUncertaintyMetersPerSecond,AccumulatedDeltaRangeState,AccumulatedDeltaRangeMeters,AccumulatedDeltaRangeUncertaintyMeters,CarrierFrequencyHz,CarrierCycles,CarrierPhase,CarrierPhaseUncertainty,MultipathIndicator,SnrInDb,ConstellationType,AgcDb,BasebandCn0DbHz,FullInterSignalBiasNanos,FullInterSignalBiasUncertaintyNanos,SatelliteInterSignalBiasNanos,SatelliteInterSignalBiasUncertaintyNanos,CodeType,ChipsetElapsedRealtimeNanos
# 
# UncalAccel,utcTimeMillis,elapsedRealtimeNanos,UncalAccelXMps2,UncalAccelYMps2,UncalAccelZMps2,BiasXMps2,BiasYMps2,BiasZMps2
# 
# Accel,utcTimeMillis,elapsedRealtimeNanos,AccelXMps2,AccelYMps2,AccelZMps2
# 
# UncalGyro,utcTimeMillis,elapsedRealtimeNanos,UncalGyroXRadPerSec,UncalGyroYRadPerSec,UncalGyroZRadPerSec,DriftXRadPerSec,DriftYRadPerSec,DriftZRadPerSec
# 
# Gyro,utcTimeMillis,elapsedRealtimeNanos,GyroXRadPerSec,GyroYRadPerSec,GyroZRadPerSec
# 
# UncalMag,utcTimeMillis,elapsedRealtimeNanos,UncalMagXMicroT,UncalMagYMicroT,UncalMagZMicroT,BiasXMicroT,BiasYMicroT,BiasZMicroT
# 
# Mag,utcTimeMillis,elapsedRealtimeNanos,MagXMicroT,MagYMicroT,MagZMicroT
# 
# OrientationDeg,utcTimeMillis,elapsedRealtimeNanos,yawDeg,rollDeg,pitchDeg
# 
# Fix,Provider,LatitudeDegrees,LongitudeDegrees,AltitudeMeters,SpeedMps,AccuracyMeters,BearingDegrees,UnixTimeMillis,SpeedAccuracyMps,BearingAccuracyDegrees,elapsedRealtimeNanos,VerticalAccuracyMeters
# 
# Nav,Svid,Type,Status,MessageId,Sub-messageId,Data(Bytes)
# 
# Status,UnixTimeMillis,SignalCount,SignalIndex,ConstellationType,Svid,CarrierFrequencyHz,Cn0DbHz,AzimuthDegrees,ElevationDegrees,UsedInFix,HasAlmanacData,HasEphemerisData,BasebandCn0DbHz
# 
UncalAccel,1676593845815,121349446025034,0.9912268,2.268396,9.856036,0.006110925,-0.043260336,-0.038735468
UncalMag,1676593845818,121349449999035,-53.350597,-21.301199,-97.3194,-47.771046,2.9698257,-64.15999
Fix,FLP,37.4312841000,-122.1549860000,-16.5,0.85003364,4.228,111.99294,1676593845047,,,121348678257701,2.788182
UncalGyro,1676593845820,121349450499950,-0.39461896,-0.98440933,-1.1204796,0.00046986964,-0.0010083838,-0.0032422226
UncalGyro,1676593845828,121349459482738,-0.3005457,-0.98700553,-1.1688906,0.00046986964,-0.0010083838,-0.0032422226
UncalAccel,1676593845823,121349454990367,0.94277215,0.782453,10.672587,0.006110925,-0.043260336,-0.038735468
UncalAccel,1676593845832,121349463971385,0.40558344,1.0737791,12.6879425,0.006110925,-0.043260336,-0.038735468
OrientationDeg,1676593845824,121349454990367,163.0,0.0,-9.0
UncalMag,1676593845829,121349459999035,-54.350998,-21.594,-97.722,-47.771046,2.9698257,-64.15999
UncalGyro,1676593845838,121349468462169,-0.112704635,-0.6973027,-1.2220359,0.00046986964,-0.0010083838,-0.0032422226
UncalMag,1676593845839,121349470004162,-56.5226,-22.545599,-99.0274,-47.771046,2.9698257,-64.15999
UncalAccel,1676593845841,121349472949413,-0.093918286,1.0869397,13.524234,0.006110925,-0.043260336,-0.038735468
OrientationDeg,1676593845842,121349472949413,163.0,0.0,-9.0
UncalGyro,1676593845847,121349477441478,0.19776763,-0.34406984,-1.2289082,0.00046986964,-0.0010083838,-0.0032422226
UncalMag,1676593845849,121349480000988,-53.655598,-21.032799,-99.2958,-47.771046,2.9698257,-64.15999
UncalAccel,1676593845850,121349481930248,-0.76689965,0.23748764,13.364512,0.006110925,-0.043260336,-0.038735468
UncalGyro,1676593845855,121349486423229,0.64553183,-0.12110403,-1.093296,0.00046986964,-0.0010083838,-0.0032422226
OrientationDeg,1676593845850,121349481930248,164.0,0.0,-9.0
UncalMag,1676593845860,121349490000011,-51.8012,-21.227999,-95.647995,-47.771046,2.9698257,-64.15999
UncalAccel,1676593845859,121349490909129,-1.1964114,-0.51266223,13.239488,0.006110925,-0.043260336,-0.038735468
OrientationDeg,1676593845859,121349490909129,164.0,0.0,-10.0
UncalGyro,1676593845864,121349495406871,1.2034045,0.01786781,-0.8257371,0.00046986964,-0.0010083838,-0.0032422226
UncalAccel,1676593845868,121349499907237,-0.92243314,-0.8500503,13.23889,0.006110925,-0.043260336,-0.038735468
UncalMag,1676593845869,121349500013195,-52.960197,-21.886799,-96.7582,-47.771046,2.9698257,-64.15999
OrientationDeg,1676593845869,121349499907237,165.0,0.0,-10.0
UncalGyro,1676593845873,121349504380809,1.8263344,0.13775012,-0.5726862,0.00046986964,-0.0010083838,-0.0032422226
UncalAccel,1676593845878,121349508871104,0.40378883,-0.9589237,12.868002,0.006110925,-0.043260336,-0.038735468
UncalMag,1676593845879,121349509999035,-50.9228,-22.2284,-95.3064,-47.771046,2.9698257,-64.15999
OrientationDeg,1676593845878,121349508871104,165.0,0.0,-12.0
UncalGyro,1676593845882,121349513359508,2.5019512,0.1301143,-0.4625777,0.00046986964,-0.0010083838,-0.0032422226
UncalAccel,1676593845886,121349517849803,0.40797627,-0.32662028,12.056237,0.006110925,-0.043260336,-0.038735468
OrientationDeg,1676593845887,121349517849803,165.0,1.0,-13.0
UncalMag,1676593845890,121349520005382,-53.045597,-24.3512,-95.3674,-47.771046,2.9698257,-64.15999
UncalGyro,1676593845891,121349522343761,3.1479414,-0.16065755,-0.41172317,0.00046986964,-0.0010083838,-0.0032422226
UncalAccel,1676593845895,121349526829296,0.253041,1.7521443,4.150351,0.006110925,-0.043260336,-0.038735468
OrientationDeg,1676593845895,121349526829296,166.0,0.0,-15.0
UncalMag,1676593845899,121349530004894,-53.4848,-25.4736,-94.4768,-47.771046,2.9698257,-64.15999
UncalGyro,1676593845900,121349531322948,2.8405235,-2.1794145,-0.43401974,0.00046986964,-0.0010083838,-0.0032422226
UncalAccel,1676593845905,121349535808483,0.25842485,2.9599216,2.9078777,0.006110925,-0.043260336,-0.038735468
OrientationDeg,1676593845904,121349535808483,166.0,-1.0,-16.0
UncalMag,1676593845910,121349540001232,-52.7528,-25.254,-92.5004,-47.771046,2.9698257,-64.15999
UncalGyro,1676593845909,121349540302867,2.4097106,-4.072486,-0.4978552,0.00046986964,-0.0010083838,-0.0032422226
UncalAccel,1676593845913,121349544787364,2.5561328,2.0141585,10.195817,0.006110925,-0.043260336,-0.038735468
OrientationDeg,1676593845913,121349544787364,166.0,-3.0,-17.0
UncalGyro,1676593845919,121349549284922,2.5297456,-4.5135307,-0.70570207,0.00046986964,-0.0010083838,-0.0032422226
UncalMag,1676593845919,121349549999035,-54.6072,-26.8766,-94.0132,-47.771046,2.9698257,-64.15999
UncalAccel,1676593845922,121349553771800,4.101298,2.7732813,12.1459675,0.006110925,-0.043260336,-0.038735468
OrientationDeg,1676593845922,121349553771800,166.0,-5.0,-19.0
UncalGyro,1676593845928,121349558261119,2.6827674,-4.190841,-0.9987647,0.00046986964,-0.0010083838,-0.0032422226
UncalMag,1676593845930,121349560000255,-55.0952,-27.681799,-94.9282,-47.771046,2.9698257,-64.15999
UncalAccel,1676593845932,121349562747264,4.701298,3.6801612,11.710474,0.006110925,-0.043260336,-0.038735468
OrientationDeg,1676593845931,121349562747264,167.0,-7.0,-20.0
UncalGyro,1676593845936,121349567237925,2.6836836,-3.610061,-1.2939653,0.00046986964,-0.0010083838,-0.0032422226
UncalMag,1676593845940,121349570000499,-58.9016,-30.2804,-98.332,-47.771046,2.9698257,-64.15999
UncalAccel,1676593845940,121349571728710,4.3836513,3.8069808,11.59502,0.006110925,-0.043260336,-0.038735468
OrientationDeg,1676593845940,121349571728710,167.0,-8.0,-22.0
UncalGyro,1676593845945,121349576219005,2.620001,-2.8643472,-1.5294539,0.00046986964,-0.0010083838,-0.0032422226
UncalMag,1676593845949,121349580000255,-55.766197,-29.157999,-92.8176,-47.771046,2.9698257,-64.15999
UncalAccel,1676593845950,121349580706493,3.4199417,3.9080775,10.914861,0.006110925,-0.043260336,-0.038735468
OrientationDeg,1676593845949,121349580706493,168.0,-9.0,-23.0
UncalGyro,1676593845955,121349585197948,2.5034785,-2.1862867,-1.6804903,0.00046986964,-0.0010083838,-0.0032422226
UncalAccel,1676593845959,121349589689037,2.7625136,4.35733,8.688339,0.006110925,-0.043260336,-0.038735468
UncalMag,1676593845958,121349589995617,-59.3042,-31.4882,-93.939995,-47.771046,2.9698257,-64.15999
OrientationDeg,1676593845958,121349589689037,169.0,-10.0,-24.0
UncalGyro,1676593845963,121349594191173,2.292119,-1.8527542,-1.756543,0.00046986964,-0.0010083838,-0.0032422226
UncalAccel,1676593845968,121349598680004,1.5762719,4.316054,7.524829,0.006110925,-0.043260336,-0.038735468
OrientationDeg,1676593845967,121349598680004,170.0,-11.0,-26.0
UncalMag,1676593845969,121349600010509,-56.5958,-31.231998,-93.208,-47.771046,2.9698257,-64.15999
UncalGyro,1676593845972,121349603172008,1.9827158,-1.7246253,-1.751656,0.00046986964,-0.0010083838,-0.0032422226
UncalAccel,1676593845976,121349607657176,0.51086766,3.900301,7.3698936,0.006110925,-0.043260336,-0.038735468
OrientationDeg,1676593845977,121349607657176,170.0,-11.0,-27.0
UncalMag,1676593845980,121349610010998,-58.2794,-32.878998,-92.841995,-47.771046,2.9698257,-64.15999
UncalGyro,1676593845981,121349612149059,1.5541939,-1.5265522,-1.6804903,0.00046986964,-0.0010083838,-0.0032422226
UncalAccel,1676593845985,121349616636241,-0.8757731,3.2614172,8.142178,0.006110925,-0.043260336,-0.038735468
OrientationDeg,1676593845985,121349616636241,171.0,-12.0,-27.0
UncalMag,1676593845990,121349620010998,-56.0346,-32.5008,-92.5736,-47.771046,2.9698257,-64.15999
UncalGyro,1676593845990,121349621127330,1.0630583,-0.82726425,-1.4100296,0.00046986964,-0.0010083838,-0.0032422226
UncalAccel,1676593845995,121349625615978,-6.285945,3.3128629,8.1942215,0.006110925,-0.043260336,-0.038735468
OrientationDeg,1676593845995,121349625615978,172.0,-11.0,-28.0
UncalMag,1676593846000,121349630002453,-55.5832,-33.0742,-90.3776,-47.771046,2.9698257,-64.15999
UncalGyro,1676593845999,121349630102611,0.52412236,0.14752395,-0.59742624,0.00046986964,-0.0010083838,-0.0032422226
UncalAccel,1676593846004,121349634578624,-8.706883,3.3367913,7.0965137,0.006110925,-0.043260336,-0.038735468
OrientationDeg,1676593846004,121349634578624,172.0,-11.0,-28.0
UncalGyro,1676593846009,121349639088268,-0.041996986,0.7469355,0.30925053,0.00046986964,-0.0010083838,-0.0032422226
UncalMag,1676593846010,121349640010753,-56.3274,-33.574398,-90.353195,-47.771046,2.9698257,-64.15999
UncalAccel,1676593846013,121349643575817,-3.772285,2.1649063,5.1254263,0.006110925,-0.043260336,-0.038735468
OrientationDeg,1676593846013,121349643575817,171.0,-11.0,-28.0
UncalGyro,1676593846018,121349648070994,-0.64766985,0.9014844,0.7788532,0.00046986964,-0.0010083838,-0.0032422226
UncalMag,1676593846020,121349650010998,-56.0834,-32.8424,-90.670395,-47.771046,2.9698257,-64.15999
UncalAccel,1676593846022,121349652554698,0.3397808,1.4261223,5.345566,0.006110925,-0.043260336,-0.038735468
OrientationDeg,1676593846021,121349652554698,171.0,-10.0,-27.0
UncalGyro,1676593846027,121349657044384,-1.1044444,1.0196868,0.9984592,0.00046986964,-0.0010083838,-0.0032422226
UncalMag,1676593846030,121349660010753,-55.4246,-31.8298,-91.268196,-47.771046,2.9698257,-64.15999
UncalAccel,1676593846030,121349661535655,2.6081767,1.2837493,7.16112,0.006110925,-0.043260336,-0.038735468
OrientationDeg,1676593846031,121349661535655,170.0,-10.0,-26.0
UncalGyro,1676593846035,121349666026500,-1.2967142,1.196685,1.08902,0.00046986964,-0.0010083838,-0.0032422226
UncalMag,1676593846040,121349670010753,-53.6922,-30.292599,-91.8294,-47.771046,2.9698257,-64.15999
UncalAccel,1676593846040,121349670515819,4.338187,1.8394824,8.153543,0.006110925,-0.043260336,-0.038735468
OrientationDeg,1676593846039,121349670515819,170.0,-10.0,-26.0
UncalGyro,1676593846045,121349675004039,-1.2359331,1.1901182,1.048092,0.00046986964,-0.0010083838,-0.0032422226
UncalAccel,1676593846049,121349679483226,5.4705906,3.2715867,8.813962,0.006110925,-0.043260336,-0.038735468
UncalMag,1676593846049,121349680000255,-55.375797,-30.7074,-89.9994,-47.771046,2.9698257,-64.15999
OrientationDeg,1676593846048,121349679483226,169.0,-9.0,-25.0
UncalGyro,1676593846053,121349683985729,-0.9784534,0.95447695,0.90576047,0.00046986964,-0.0010083838,-0.0032422226
UncalAccel,1676593846058,121349688474315,6.1734824,4.4135613,9.171091,0.006110925,-0.043260336,-0.038735468
UncalMag,1676593846059,121349690010998,-58.2306,-32.024998,-94.854996,-47.771046,2.9698257,-64.15999
OrientationDeg,1676593846057,121349688474315,169.0,-9.0,-25.0
UncalGyro,1676593846062,121349692968578,-0.5864306,0.5551238,0.70280045,0.00046986964,-0.0010083838,-0.0032422226
Raw,1676593845000,484539000000,,,-1360628578461040335,0.0,6.654602522190544,293.0,1.0,17,6,0.0,16431,433862929085527,12,46.28611755371094,479.98357603530394,0.15,16,221229.3964802989,340282346638528860000000000000000000000,1575420030,,,,1,,1,,42.086116790771484,0.320142130558394,1.0,0.320142130558394,1.0,C,121349590673000
Raw,1676593845000,484539000000,,,-1360628578461040335,0.0,6.654602522190544,293.0,1.0,17,11,0.0,16431,433862931767139,12,44.015377044677734,-66.87919923667548,0.15,16,-46330.92817426778,340282346638528860000000000000000000000,1575420030,,,,0,,1,,39.81537628173828,-0.20372681261465636,1.0,-0.20372681261465636,1.0,C,121349590673000
Raw,1676593845000,484539000000,,,-1360628578461040335,0.0,6.654602522190544,293.0,1.0,17,12,0.0,16431,433862930743398,25,34.9914436340332,-232.9004728249182,0.5659270753130494,16,-120298.09991858907,340282346638528860000000000000000000000,1575420030,,,,0,,1,,30.79144287109375,-0.6984919076624261,1.0,-0.6984919076624261,1.0,C,121349590673000
Raw,1676593845000,484539000000,,,-1360628578461040335,0.0,6.654602522190544,293.0,1.0,17,19,0.0,16431,433862924884257,13,45.3494987487793,581.9479930496827,0.15,16,279476.8053691721,340282346638528860000000000000000000000,1575420030,,,,0,,1,,41.149497985839844,0.0,1.0,0.0,1.0,C,121349590673000
Raw,1676593845000,484539000000,,,-1360628578461040335,0.0,6.654602522190544,293.0,1.0,17,20,0.0,16430,433862921693747,1000000000,28.466445922851562,-475.4614475389444,299792458,16,-231824.43502936984,340282346638528860000000000000000000000,1575420030,,,,0,,1,,24.26644515991211,0.0,1.0,0.0,1.0,C,121349590673000
Raw,1676593845000,484539000000,,,-1360628578461040335,0.0,6.654602522190544,293.0,1.0,17,24,0.0,16431,433862926613881,12,43.69084167480469,545.0191742528264,0.15,16,254373.2805535196,340282346638528860000000000000000000000,1575420030,,,,0,,1,,39.490840911865234,-0.20372681261465636,1.0,-0.20372681261465636,1.0,C,121349590673000
Raw,1676593845000,484539000000,,,-1360628578461040335,0.0,6.654602522190544,293.0,1.0,17,25,0.0,16431,433862925266134,26,34.57617950439453,-472.5623256222011,0.5836157371137922,16,-232307.70191806534,340282346638528860000000000000000000000,1575420030,,,,0,,1,,30.37618064880371,-2.0372682255564105,1.0,-2.0372682255564105,1.0,C,121349590673000
Raw,1676593845000,484539000000,,,-1360628578461040335,0.0,6.654602522190544,293.0,1.0,17,29,0.0,16423,433862917300644,19,38.78982925415039,-425.35021620819543,0.15,16,-133377.75071708226,340282346638528860000000000000000000000,1575420030,,,,0,,1,,34.58982849121094,-0.6984919076624261,1.0,-0.6984919076624261,1.0,C,121349590673000
Raw,1676593845000,484539000000,,,-1360628578461040335,0.0,6.654602522190544,293.0,1.0,17,6,0.0,16384,433862929086034,1000000000,28.85268211364746,479.72751453944807,299792458,16,222530.7738689387,340282346638528860000000000000000000000,1176450050,,,,0,,1,,24.752681732177734,1.9208527336454408,1.4059112566003271,1.9208527336454408,1.0,Q,121349590673000
Raw,1676593845000,484539000000,,,-1360628578461040335,0.0,6.654602522190544,293.0,1.0,17,11,0.0,81921,433862931767692,6,40.22357177734375,-67.08695311071733,0.15,16,-46712.17928242036,340282346638528860000000000000000000000,1176450050,,,,0,,1,,36.123573303222656,0.0,1.4059112566003271,0.0,1.0,Q,121349590673000
Raw,1676593845000,484539000000,,,-1360628578461040335,0.0,6.654602522190544,293.0,1.0,17,24,0.0,81921,433862926614438,10,36.59034729003906,545.2520255957902,0.15,16,255925.0877389792,340282346638528860000000000000000000000,1176450050,,,,0,,1,,32.49034881591797,3.5215636101095664,1.4059112566003271,3.5215636101095664,1.0,Q,121349590673000
Raw,1676593845000,484539000000,,,-1360628578461040335,0.0,6.654602522190544,293.0,1.0,17,25,0.0,81921,433862925266665,56,25.385683059692383,-472.46617901235027,0.9924051806573391,16,-233883.78655521665,340282346638528860000000000000000000000,1176450050,,,,0,,1,,21.285682678222656,1.0186341127782053,1.4059112566003271,1.0186341127782053,1.0,Q,121349590673000
Raw,1676593845000,484539000000,,,-1360628578461040335,0.0,6.654602522190544,293.0,1.0,17,14,0.0,32995,12644932816630,33,43.37552261352539,569.9116371988262,0.15,16,261615.99013836385,340282346638528860000000000000000000000,1598062460,,,,0,,3,,39.17552185058594,50.29141902923584,2.0000000474974513,50.29141902923584,2.0000000474974513,C,121349590673000
Raw,1676593845000,484539000000,,,-1360628578461040335,0.0,6.654602522190544,293.0,1.0,17,18,0.0,32995,12644928012483,42,37.577796936035156,-474.84247604603365,0.15,16,-239281.00753877932,340282346638528860000000000000000000000,1600312450,,,,0,,3,,33.3777961730957,50.29141902923584,2.0000000474974513,50.29141902923584,2.0000000474974513,C,121349590673000
Raw,1676593845000,484539000000,,,-1360628578461040335,0.0,6.654602522190544,293.0,1.0,17,16,0.0,32995,12644923150139,73,30.682323455810547,-673.9897800018366,0.7583376531609365,16,-328125.8871276851,340282346638528860000000000000000000000,1601437440,,,,0,,3,,26.482322692871094,50.29141902923584,2.0000000474974513,50.29141902923584,2.0000000474974513,C,121349590673000
Raw,1676593845000,484539000000,,,-1360628578461040335,0.0,6.654602522190544,293.0,1.0,17,15,0.0,32995,12644935244723,46,36.25623321533203,-188.16494807291429,0.15,16,-105919.79635754338,340282346638528860000000000000000000000,1602000000,,,,0,,3,,32.05623245239258,50.29141902923584,2.0000000474974513,50.29141902923584,2.0000000474974513,C,121349590673000
Raw,1676593845000,484539000000,,,-1360628578461040335,0.0,6.654602522190544,293.0,1.0,17,24,0.0,32995,12644929299506,33,49.831302642822266,699.4856387581162,0.15,16,334119.7698470796,340282346638528860000000000000000000000,1603124990,,,,0,,3,,45.63130187988281,50.29141902923584,2.0000000474974513,50.29141902923584,2.0000000474974513,C,121349590673000
Raw,1676593845000,484539000000,,,-1360628578461040335,0.0,6.654602522190544,293.0,1.0,17,17,0.0,32995,12644936145467,35,39.58522415161133,92.5812696358393,0.15,16,30760.43109713111,340282346638528860000000000000000000000,1604249980,,,,0,,3,,35.385223388671875,50.29141902923584,2.0000000474974513,50.29141902923584,2.0000000474974513,C,121349590673000
Raw,1676593845000,484539000000,,,-1360628578461040335,0.0,6.654602522190544,293.0,1.0,17,2,0.0,85026,433862922228238,34,31.477787017822266,133.69074479715317,0.7224004320168467,16,58163.0036615632,340282346638528860000000000000000000000,1575420030,,,,1,,6,,27.277788162231445,-6.024492904543876,1.5000000237487257,-6.024492904543876,1.5000000237487257,C,121349590673000
Raw,1676593845000,484539000000,,,-1360628578461040335,0.0,6.654602522190544,293.0,1.0,17,11,0.0,85026,433862910791803,15,41.65033721923828,605.4397351975081,0.15,16,290682.9439380442,340282346638528860000000000000000000000,1575420030,,,,0,,6,,37.45033645629883,-6.024492904543876,1.5000000237487257,-6.024492904543876,1.5000000237487257,C,121349590673000
Raw,1676593845000,484539000000,,,-1360628578461040335,0.0,6.654602522190544,293.0,1.0,17,25,0.0,85026,433862912800170,29,33.4796028137207,497.9672523844779,0.6328438515231181,16,236530.44006280793,340282346638528860000000000000000000000,1575420030,,,,0,,6,,29.27960205078125,-6.024492904543876,1.5000000237487257,-6.024492904543876,1.5000000237487257,C,121349590673000
Raw,1676593845000,484539000000,,,-1360628578461040335,0.0,6.654602522190544,293.0,1.0,17,30,0.0,85026,433862915471122,51,28.46131134033203,-298.86388071513284,299.7937864589012,16,-146552.78706396773,340282346638528860000000000000000000000,1575420030,,,,0,,6,,24.26131248474121,-6.024492904543876,1.5000000237487257,-6.024492904543876,1.5000000237487257,C,121349590673000
Raw,1676593845000,484539000000,,,-1360628578461040335,0.0,6.654602522190544,293.0,1.0,17,34,0.0,85026,433862919285848,17,39.78559875488281,-273.8149622524651,0.15,16,-140271.28960390968,340282346638528860000000000000000000000,1575420030,,,,0,,6,,35.58559799194336,-6.024492904543876,1.5000000237487257,-6.024492904543876,1.5000000237487257,C,121349590673000
Raw,1676593845000,484539000000,,,-1360628578461040335,0.0,6.654602522190544,293.0,1.0,17,36,0.0,85026,433862921121456,23,36.40876388549805,255.9648209679475,0.15,16,115455.41463748479,340282346638528860000000000000000000000,1575420030,,,,1,,6,,32.208763122558594,-6.024492904543876,1.5000000237487257,-6.024492904543876,1.5000000237487257,C,121349590673000
Raw,1676593845000,484539000000,,,-1360628578461040335,0.0,6.654602522190544,293.0,1.0,17,2,0.0,84003,433862922228776,7,33.51618576049805,133.27068704112367,0.629836740407959,16,58069.40645269669,340282346638528860000000000000000000000,1176450050,,,,0,,6,,29.416187286376953,-3.808038309216499,1.9059112803490528,-3.808038309216499,1.5000000237487257,Q,121349590673000
Raw,1676593845000,484539000000,,,-1360628578461040335,0.0,6.654602522190544,293.0,1.0,17,11,0.0,84003,433862910792348,10,39.27747344970703,605.4428026185951,0.15,16,292301.23246030364,340282346638528860000000000000000000000,1176450050,,,,0,,6,,35.17747497558594,5.057780072093007,1.9059112803490528,5.057780072093007,1.5000000237487257,Q,121349590673000
Raw,1676593845000,484539000000,,,-1360628578461040335,0.0,6.654602522190544,293.0,1.0,17,25,0.0,84003,433862912800698,12,31.522945404052734,499.0131748102499,0.7177746704860457,16,235885.7140863397,340282346638528860000000000000000000000,1176450050,,,,0,,6,,27.422945022583008,-8.979765698313711,1.9059112803490528,-8.979765698313711,1.5000000237487257,Q,121349590673000
Raw,1676593845000,484539000000,,,-1360628578461040335,0.0,6.654602522190544,293.0,1.0,17,30,0.0,84003,433862915471641,31,29.08824348449707,-297.6686771297909,0.8277408510820208,16,-147850.47785028678,340282346638528860000000000000000000000,1176450050,,,,0,,6,,24.988243103027344,-8.425652049481869,1.9059112803490528,-8.425652049481869,1.5000000237487257,Q,121349590673000
Raw,1676593845000,484539000000,,,-1360628578461040335,0.0,6.654602522190544,293.0,1.0,17,34,0.0,84003,433862919286362,8,39.380435943603516,-273.8169049524869,0.15,16,-140977.87972687182,340282346638528860000000000000000000000,1176450050,,,,0,,6,,35.28043746948242,-11.011515744030472,1.9059112803490528,-11.011515744030472,1.5000000237487257,Q,121349590673000
Raw,1676593845000,484539000000,,,-1360628578461040335,0.0,6.654602522190544,293.0,1.0,17,36,0.0,84003,433862921122004,7,39.517417907714844,255.8603582387051,0.15,16,115492.98787826336,340282346638528860000000000000000000000,1176450050,,,,0,,6,,35.41741943359375,-11.750333942472933,1.9059112803490528,-11.750333942472933,1.5000000237487257,Q,121349590673000
UncalAccel,1676593846066,121349697454235,6.5677,4.627121,9.850653,0.006110925,-0.043260336,-0.038735468
OrientationDeg,1676593846066,121349697454235,169.0,-9.0,-24.0
Status,0,30,0,6,2,1176450050,38.19,87.0,79.0,1,1,1,34.094368
Status,0,30,1,6,2,1575420030,38.44,87.0,79.0,1,1,1,34.236107
Status,0,30,2,3,17,1604249980,41.08,293.0,74.0,1,1,1,36.88131
Status,0,30,3,1,11,1575420030,44.29,143.0,72.0,1,1,1,40.093533
Status,0,30,4,1,11,1176450050,42.11,143.0,72.0,1,1,1,38.011517
Status,0,30,5,3,15,1602000000,41.98,327.0,70.0,1,1,1,37.78252
Status,0,30,6,6,36,1575420030,38.70,58.0,66.0,1,1,1,34.500137
Status,0,30,7,6,36,1176450050,40.54,58.0,66.0,1,1,1,36.440987
Status,0,30,8,1,12,1575420030,42.12,323.0,59.0,1,1,1,37.924747
Status,0,30,9,6,34,1176450050,40.15,203.0,54.0,1,1,1,36.050236
Status,0,30,10,6,34,1575420030,41.19,203.0,54.0,1,1,1,36.989494
Status,0,30,11,3,14,1598062460,44.77,148.0,52.0,1,1,1,40.57238
Status,0,30,12,1,6,1176450050,40.54,51.0,49.0,0,1,1,36.43879
Status,0,30,13,1,6,1575420030,46.29,51.0,49.0,1,1,1,42.086117
Status,0,30,14,1,24,1575420030,43.78,223.0,43.0,1,1,1,39.578976
Status,0,30,15,1,24,1176450050,39.19,223.0,43.0,1,1,1,35.08615
Status,0,30,16,6,30,1176450050,35.45,315.0,42.0,1,1,1,31.350893
Status,0,30,17,6,30,1575420030,39.31,315.0,42.0,0,1,1,35.11027
Status,0,30,18,3,24,1603124990,49.83,31.0,36.0,1,1,1,45.6313
Status,0,30,19,3,18,1600312450,42.99,233.0,31.0,1,1,1,38.7924
Status,0,30,20,1,25,1176450050,35.93,311.0,30.0,1,1,1,31.828094
Status,0,30,21,1,25,1575420030,43.29,311.0,30.0,1,1,1,39.09241
Status,0,30,22,1,19,1575420030,47.08,57.0,29.0,1,1,1,42.8789
Status,0,30,23,6,25,1575420030,40.92,123.0,29.0,1,1,1,36.71633
Status,0,30,24,6,25,1176450050,37.01,123.0,29.0,1,1,1,32.907337
Status,0,30,25,1,20,1575420030,41.05,146.0,22.0,0,1,1,36.846462
Status,0,30,26,6,11,1575420030,41.73,40.0,18.0,1,1,1,37.534103
Status,0,30,27,6,11,1176450050,39.65,40.0,18.0,1,1,1,35.553074
Status,0,30,28,3,16,1601437440,40.87,328.0,16.0,1,1,1,36.67453
Status,0,30,29,1,29,1575420030,41.59,260.0,11.0,1,1,1,37.38782
UncalMag,1676593846070,121349700010509,-59.0602,-33.0986,-96.014,-47.771046,2.9698257,-64.15999
Fix,GPS,37.4312860162,-122.1550508595,-17.652422747565527,0.23669216,2.9273307,276.96384,1676593845000,0.1439731,180.0,121349590673000,3.0
UncalGyro,1676593846070,121349701945201,-0.12873985,0.16814066,0.47769663,0.00046986964,-0.0010083838,-0.0032422226
Fix,FLP,37.4312817000,-122.1549920000,-16.5,0.696812,4.234,126.60364,1676593845586,,,121349217039196,2.7503111
UncalAccel,1676593846076,121349706434154,6.7501526,4.161717,10.754541,0.006110925,-0.043260336,-0.038735468
OrientationDeg,1676593846075,121349706434154,169.0,-9.0,-24.0
UncalMag,1676593846080,121349710010998,-62.159,-33.8794,-97.807396,-47.771046,2.9698257,-64.15999
UncalGyro,1676593846080,121349710925914,0.3182608,-0.083383106,0.25579983,0.00046986964,-0.0010083838,-0.0032422226
UncalAccel,1676593846084,121349715413707,6.70768,2.8528428,11.586645,0.006110925,-0.043260336,-0.038735468
OrientationDeg,1676593846085,121349715413707,168.0,-9.0,-25.0
UncalGyro,1676593846089,121349719904674,0.6951646,-0.13271047,0.107359566,0.00046986964,-0.0010083838,-0.0032422226
UncalMag,1676593846088,121349719999035,-58.6942,-32.1958,-96.6606,-47.771046,2.9698257,-64.15999
UncalAccel,1676593846093,121349724393505,6.706484,1.1078769,12.039487,0.006110925,-0.043260336,-0.038735468
OrientationDeg,1676593846093,121349724393505,168.0,-9.0,-25.0
UncalGyro,1676593846098,121349728885631,0.9958631,-0.041233405,0.088422745,0.00046986964,-0.0010083838,-0.0032422226
UncalMag,1676593846099,121349729999035,-61.195198,-33.4768,-97.3194,-47.771046,2.9698257,-64.15999
UncalAccel,1676593846103,121349733373180,6.7669024,-0.034097724,11.60519,0.006110925,-0.043260336,-0.038735468
OrientationDeg,1676593846103,121349733373180,168.0,-10.0,-25.0
UncalGyro,1676593846107,121349737864147,1.2186762,0.08964448,0.19700404,0.00046986964,-0.0010083838,-0.0032422226
UncalMag,1676593846110,121349740010753,-61.744198,-34.3308,-97.4902,-47.771046,2.9698257,-64.15999
UncalAccel,1676593846111,121349742352855,6.4755764,-0.15732808,10.493126,0.006110925,-0.043260336,-0.038735468
OrientationDeg,1676593846112,121349742352855,167.0,-10.0,-26.0
UncalGyro,1676593846116,121349746844860,1.3782647,0.17287487,0.34345898,0.00046986964,-0.0010083838,-0.0032422226
UncalMag,1676593846119,121349750010753,-61.048798,-33.8672,-96.441,-47.771046,2.9698257,-64.15999
UncalAccel,1676593846120,121349751334057,6.278168,0.567099,9.0849495,0.006110925,-0.043260336,-0.038735468
OrientationDeg,1676593846121,121349751334057,167.0,-10.0,-27.0
UncalGyro,1676593846125,121349755829296,1.4563028,0.118202426,0.4098906,0.00046986964,-0.0010083838,-0.0032422226
UncalMag,1676593846129,121349760010753,-59.8288,-33.9892,-95.2454,-47.771046,2.9698257,-64.15999
UncalAccel,1676593846129,121349760309520,6.3714886,1.2137593,7.611569,0.006110925,-0.043260336,-0.038735468
OrientationDeg,1676593846130,121349760309520,166.0,-10.0,-27.0
UncalGyro,1676593846134,121349764791881,1.444849,-0.10598512,0.37568212,0.00046986964,-0.0010083838,-0.0032422226
UncalAccel,1676593846138,121349769290660,6.4666033,1.2939188,6.8165536,0.006110925,-0.043260336,-0.038735468
UncalMag,1676593846140,121349770002453,-58.718597,-33.5866,-95.2698,-47.771046,2.9698257,-64.15999
OrientationDeg,1676593846139,121349769290660,166.0,-10.0,-28.0
UncalGyro,1676593846142,121349773782360,1.3819299,-0.39736784,0.28955013,0.00046986964,-0.0010083838,-0.0032422226
UncalAccel,1676593846148,121349778273327,6.1196437,1.1330016,6.4235325,0.006110925,-0.043260336,-0.038735468
OrientationDeg,1676593846147,121349778273327,166.0,-11.0,-29.0
UncalMag,1676593846150,121349780010753,-61.4636,-35.2336,-94.9526,-47.771046,2.9698257,-64.15999
UncalGyro,1676593846152,121349782764110,1.260215,-0.6937902,0.1881465,0.00046986964,-0.0010083838,-0.0032422226
UncalAccel,1676593846156,121349787251903,5.721239,0.61734825,6.1902323,0.006110925,-0.043260336,-0.038735468
OrientationDeg,1676593846157,121349787251903,165.0,-11.0,-29.0
UncalMag,1676593846160,121349790010998,-59.9874,-34.8066,-94.1352,-47.771046,2.9698257,-64.15999
UncalGyro,1676593846161,121349791742992,1.1065824,-0.9607383,0.1217149,0.00046986964,-0.0010083838,-0.0032422226
UncalAccel,1676593846166,121349796229503,5.4586267,-0.16271193,6.06102,0.006110925,-0.043260336,-0.038735468
OrientationDeg,1676593846166,121349796229503,165.0,-12.0,-30.0
UncalMag,1676593846170,121349800010753,-61.183,-35.4288,-94.2938,-47.771046,2.9698257,-64.15999
UncalGyro,1676593846170,121349800716137,0.9764681,-1.1878275,0.13637567,0.00046986964,-0.0010083838,-0.0032422226
UncalAccel,1676593846174,121349805211071,4.792824,-0.7004988,5.8600225,0.006110925,-0.043260336,-0.038735468
OrientationDeg,1676593846174,121349805211071,165.0,-13.0,-30.0
UncalGyro,1676593846178,121349809702098,0.8888089,-1.3978124,0.21227567,0.00046986964,-0.0010083838,-0.0032422226
UncalMag,1676593846178,121349809999035,-62.5128,-36.1608,-94.6842,-47.771046,2.9698257,-64.15999
UncalAccel,1676593846184,121349814192882,4.1790648,-0.88414794,5.341378,0.006110925,-0.043260336,-0.038735468
OrientationDeg,1676593846184,121349814192882,165.0,-14.0,-30.0
UncalGyro,1676593846188,121349818680125,0.8332202,-1.5958854,0.30772337,0.00046986964,-0.0010083838,-0.0032422226
UncalMag,1676593846190,121349820010998,-63.745,-36.8074,-93.6594,-47.771046,2.9698257,-64.15999
UncalAccel,1676593846193,121349823156078,3.4803605,-0.75553375,5.109873,0.006110925,-0.043260336,-0.038735468
OrientationDeg,1676593846192,121349823156078,164.0,-15.0,-31.0
UncalGyro,1676593846197,121349827649486,0.7805331,-1.7457001,0.41218132,0.00046986964,-0.0010083838,-0.0032422226
UncalMag,1676593846198,121349829997570,-62.3542,-35.684998,-93.1226,-47.771046,2.9698257,-64.15999
UncalAccel,1676593846201,121349832150036,2.78046,-0.83748794,4.7635117,0.006110925,-0.043260336,-0.038735468
OrientationDeg,1676593846201,121349832150036,164.0,-16.0,-31.0
UncalGyro,1676593846206,121349836644359,0.7305948,-1.9046779,0.5522222,0.00046986964,-0.0010083838,-0.0032422226
UncalMag,1676593846209,121349840010753,-58.8894,-34.1356,-90.7558,-47.771046,2.9698257,-64.15999
UncalAccel,1676593846210,121349841133190,2.638087,-1.3830515,4.84068,0.006110925,-0.043260336,-0.038735468
OrientationDeg,1676593846210,121349841133190,163.0,-18.0,-31.0
UncalGyro,1676593846215,121349845621776,0.6721045,-2.0415115,0.7509061,0.00046986964,-0.0010083838,-0.0032422226
UncalMag,1676593846219,121349850010998,-61.0732,-35.746,-88.999,-47.771046,2.9698257,-64.15999
UncalAccel,1676593846219,121349850107249,2.891128,-1.5475581,5.408377,0.006110925,-0.043260336,-0.038735468
OrientationDeg,1676593846219,121349850107249,163.0,-19.0,-31.0
UncalGyro,1676593846224,121349854589977,0.6082691,-2.0708332,0.97509366,0.00046986964,-0.0010083838,-0.0032422226
UncalAccel,1676593846229,121349859089306,2.8929226,-1.1300105,5.7487564,0.006110925,-0.043260336,-0.038735468
UncalMag,1676593846229,121349859999035,-63.769398,-36.453598,-87.4618,-47.771046,2.9698257,-64.15999
OrientationDeg,1676593846228,121349859089306,162.0,-21.0,-31.0
UncalGyro,1676593846232,121349863575938,0.5503896,-2.0054705,1.1814134,0.00046986964,-0.0010083838,-0.0032422226
UncalAccel,1676593846238,121349868054393,3.2087753,-0.2883351,5.8354964,0.006110925,-0.043260336,-0.038735468
OrientationDeg,1676593846237,121349868054393,161.0,-22.0,-31.0
UncalMag,1676593846240,121349870010998,-67.2098,-36.8074,-89.4382,-47.771046,2.9698257,-64.15999
UncalGyro,1676593846242,121349872561412,0.49663344,-1.8648189,1.3121386,0.00046986964,-0.0010083838,-0.0032422226
UncalAccel,1676593846246,121349877048961,3.9451663,0.57009,5.705087,0.006110925,-0.043260336,-0.038735468
OrientationDeg,1676593846246,121349877048961,160.0,-23.0,-31.0
UncalMag,1676593846250,121349880010753,-65.3798,-35.916798,-89.8286,-47.771046,2.9698257,-64.15999
UncalGyro,1676593846250,121349881544383,0.44532076,-1.7446312,1.385137,0.00046986964,-0.0010083838,-0.0032422226
UncalAccel,1676593846255,121349886029735,4.6259246,1.026521,5.5627146,0.006110925,-0.043260336,-0.038735468
OrientationDeg,1676593846256,121349886029735,159.0,-25.0,-31.0
UncalMag,1676593846259,121349890010998,-69.8572,-37.4418,-87.5838,-47.771046,2.9698257,-64.15999
UncalGyro,1676593846259,121349890525035,0.38423425,-1.680643,1.4433218,0.00046986964,-0.0010083838,-0.0032422226
UncalAccel,1676593846265,121349895008434,5.326423,1.0510473,5.623133,0.006110925,-0.043260336,-0.038735468
OrientationDeg,1676593846264,121349895008434,158.0,-26.0,-31.0
UncalGyro,1676593846268,121349899499401,0.32360587,-1.6743816,1.5018122,0.00046986964,-0.0010083838,-0.0032422226
UncalMag,1676593846270,121349900000011,-68.808,-36.3194,-87.242195,-47.771046,2.9698257,-64.15999
UncalAccel,1676593846272,121349903986827,5.819943,1.2496517,5.4550376,0.006110925,-0.043260336,-0.038735468
OrientationDeg,1676593846272,121349903986827,157.0,-27.0,-30.0
UncalGyro,1676593846277,121349908479198,0.24694228,-1.7386752,1.5163202,0.00046986964,-0.0010083838,-0.0032422226
UncalMag,1676593846279,121349910010753,-67.2952,-34.892,-86.2052,-47.771046,2.9698257,-64.15999
UncalAccel,1676593846282,121349912968151,6.3918276,1.8735801,4.5266223,0.006110925,-0.043260336,-0.038735468
OrientationDeg,1676593846281,121349912968151,157.0,-29.0,-30.0
UncalGyro,1676593846287,121349917458934,0.13530666,-1.9310977,1.4530957,0.00046986964,-0.0010083838,-0.0032422226
UncalMag,1676593846290,121349920010998,-67.624596,-34.7334,-85.9002,-47.771046,2.9698257,-64.15999
UncalAccel,1676593846291,121349921948192,5.914459,1.861616,3.7046876,0.006110925,-0.043260336,-0.038735468
OrientationDeg,1676593846291,121349921948192,156.0,-30.0,-30.0
UncalGyro,1676593846295,121349926439769,0.03604105,-2.2829561,1.404532,0.00046986964,-0.0010083838,-0.0032422226
UncalMag,1676593846299,121349929994396,-68.5274,-34.8676,-85.1194,-47.771046,2.9698257,-64.15999
UncalAccel,1676593846300,121349930927440,6.012565,1.2999009,3.2350962,0.006110925,-0.043260336,-0.038735468
OrientationDeg,1676593846299,121349930927440,155.0,-32.0,-29.0
UncalGyro,1676593846304,121349935418529,-0.05971208,-2.6584857,1.4286611,0.00046986964,-0.0010083838,-0.0032422226
UncalAccel,1676593846308,121349939907116,5.9904313,0.5192425,3.5790644,0.006110925,-0.043260336,-0.038735468
UncalMag,1676593846308,121349939998790,-69.6132,-34.7212,-83.4846,-47.771046,2.9698257,-64.15999
OrientationDeg,1676593846309,121349939907116,154.0,-34.0,-29.0
UncalGyro,1676593846313,121349944399303,-0.13775012,-3.0008755,1.6010778,0.00046986964,-0.0010083838,-0.0032422226
UncalAccel,1676593846318,121349948886730,5.7637115,-0.18903299,4.074977,0.006110925,-0.043260336,-0.038735468
UncalMag,1676593846318,121349949999279,-74.359,-35.2336,-85.9612,-47.771046,2.9698257,-64.15999
UncalGyro,1676593846322,121349953377635,-0.21181752,-3.2270484,1.9023871,0.00046986964,-0.0010083838,-0.0032422226
UncalAccel,1676593846327,121349957866771,5.9760747,-0.95712906,5.2492547,0.006110925,-0.043260336,-0.038735468
UncalMag,1676593846330,121349960010509,-78.067795,-35.599598,-86.7054,-47.771046,2.9698257,-64.15999
UncalGyro,1676593846332,121349962358654,-0.34254268,-3.2415564,2.2579107,0.00046986964,-0.0010083838,-0.0032422226
OrientationDeg,1676593846318,121349948886730,154.0,-36.0,-28.0
OrientationDeg,1676593846327,121349957866771,153.0,-38.0,-27.0
UncalAccel,1676593846335,121349966846935,6.3481584,-1.634896,6.081359,0.006110925,-0.043260336,-0.038735468
OrientationDeg,1676593846336,121349966846935,152.0,-40.0,-26.0
UncalMag,1676593846339,121349970010998,-78.3362,-34.0624,-84.741196,-47.771046,2.9698257,-64.15999
UncalGyro,1676593846340,121349971337474,-0.6047566,-3.1340442,2.6111436,0.00046986964,-0.0010083838,-0.0032422226
UncalAccel,1676593846344,121349975825817,6.477969,-2.047658,7.218548,0.006110925,-0.043260336,-0.038735468
OrientationDeg,1676593846345,121349975825817,151.0,-42.0,-25.0
UncalMag,1676593846349,121349980010753,-79.153595,-33.4158,-84.546,-47.771046,2.9698257,-64.15999
UncalGyro,1676593846349,121349980314037,-0.9786061,-2.848312,2.982855,0.00046986964,-0.0010083838,-0.0032422226
UncalAccel,1676593846354,121349984794201,6.943373,-2.2037897,8.254042,0.006110925,-0.043260336,-0.038735468
OrientationDeg,1676593846353,121349984794201,150.0,-44.0,-23.0
UncalGyro,1676593846358,121349989296581,-1.3322971,-2.5043948,3.3512068,0.00046986964,-0.0010083838,-0.0032422226
UncalMag,1676593846359,121349990010753,-80.556595,-32.94,-85.4366,-47.771046,2.9698257,-64.15999
UncalAccel,1676593846363,121349993786022,8.312666,-2.3748765,7.763513,0.006110925,-0.043260336,-0.038735468
OrientationDeg,1676593846362,121349993786022,149.0,-45.0,-21.0
UncalGyro,1676593846367,121349998280345,-1.6102408,-2.3064744,3.58471,0.00046986964,-0.0010083838,-0.0032422226
UncalMag,1676593846370,121350000010753,-80.0442,-30.9392,-84.241,-47.771046,2.9698257,-64.15999
UncalAccel,1676593846372,121350002765392,9.706485,-1.0935199,7.390831,0.006110925,-0.043260336,-0.038735468
OrientationDeg,1676593846371,121350002765392,149.0,-47.0,-19.0
UncalGyro,1676593846376,121350007257640,-1.7438675,-2.2779164,3.5909712,0.00046986964,-0.0010083838,-0.0032422226
UncalMag,1676593846380,121350010010998,-76.7502,-27.913599,-83.338196,-47.771046,2.9698257,-64.15999
UncalAccel,1676593846381,121350011749950,10.875379,0.050249275,8.0404825,0.006110925,-0.043260336,-0.038735468
OrientationDeg,1676593846380,121350011749950,148.0,-48.0,-17.0
UncalGyro,1676593846386,121350016237255,-1.7559321,-2.2629502,3.4072535,0.00046986964,-0.0010083838,-0.0032422226
UncalMag,1676593846390,121350020010998,-81.618,-28.7188,-86.4248,-47.771046,2.9698257,-64.15999
UncalAccel,1676593846390,121350020724987,11.185847,-0.0424726,8.675179,0.006110925,-0.043260336,-0.038735468
OrientationDeg,1676593846389,121350020724987,148.0,-49.0,-16.0
UncalGyro,1676593846395,121350025214732,-1.6905695,-2.2146919,3.1818442,0.00046986964,-0.0010083838,-0.0032422226
UncalAccel,1676593846398,121350029704357,10.47518,-0.73340017,8.692527,0.006110925,-0.043260336,-0.038735468
UncalMag,1676593846398,121350029992443,-83.2284,-27.4012,-81.8254,-47.771046,2.9698257,-64.15999
OrientationDeg,1676593846399,121350029704357,148.0,-51.0,-14.0
UncalGyro,1676593846404,121350034196178,-1.5940529,-2.2353086,3.0735686,0.00046986964,-0.0010083838,-0.0032422226
UncalAccel,1676593846408,121350038684398,10.177273,-1.16351,7.48774,0.006110925,-0.043260336,-0.038735468
OrientationDeg,1676593846407,121350038684398,148.0,-52.0,-12.0
UncalMag,1676593846410,121350040010753,-84.423996,-26.1568,-82.410995,-47.771046,2.9698257,-64.15999
UncalGyro,1676593846412,121350043175182,-1.5034921,-2.439185,3.0514245,0.00046986964,-0.0010083838,-0.0032422226
UncalAccel,1676593846416,121350047663768,10.378868,-1.4380864,6.867999,0.006110925,-0.043260336,-0.038735468
OrientationDeg,1676593846417,121350047663768,148.0,-53.0,-10.0
UncalMag,1676593846420,121350050010753,-84.753395,-24.583,-80.239395,-47.771046,2.9698257,-64.15999
UncalGyro,1676593846421,121350052152965,-1.4156802,-2.7004826,3.0460796,0.00046986964,-0.0010083838,-0.0032422226
UncalAccel,1676593846425,121350056636180,10.547563,-1.7940187,6.914061,0.006110925,-0.043260336,-0.038735468
OrientationDeg,1676593846425,121350056636180,147.0,-55.0,-9.0
UncalMag,1676593846430,121350060010753,-87.400795,-23.9364,-81.2642,-47.771046,2.9698257,-64.15999
UncalGyro,1676593846431,121350061134899,-1.3590225,-2.8706086,3.0569224,0.00046986964,-0.0010083838,-0.0032422226
UncalAccel,1676593846434,121350065623729,10.525429,-2.7146573,7.090532,0.006110925,-0.043260336,-0.038735468
OrientationDeg,1676593846435,121350065623729,148.0,-56.0,-7.0
UncalMag,1676593846439,121350070010998,-89.8286,-23.5338,-80.9958,-47.771046,2.9698257,-64.15999
UncalGyro,1676593846439,121350070114513,-1.4023939,-2.8481593,3.1074715,0.00046986964,-0.0010083838,-0.0032422226
UncalAccel,1676593846443,121350074587536,9.996614,-4.6432724,7.9076805,0.006110925,-0.043260336,-0.038735468
OrientationDeg,1676593846443,121350074587536,147.0,-58.0,-5.0
UncalGyro,1676593846449,121350079079784,-1.5580118,-2.5696046,3.3215797,0.00046986964,-0.0010083838,-0.0032422226
UncalMag,1676593846450,121350080010753,-90.402,-22.045399,-80.068596,-47.771046,2.9698257,-64.15999
UncalAccel,1676593846453,121350083583141,8.986844,-7.259226,9.495318,0.006110925,-0.043260336,-0.038735468
OrientationDeg,1676593846452,121350083583141,148.0,-59.0,-3.0
UncalGyro,1676593846457,121350088078074,-1.7487545,-2.023033,3.668704,0.00046986964,-0.0010083838,-0.0032422226
UncalMag,1676593846460,121350090010753,-87.0104,-18.9954,-76.7624,-47.771046,2.9698257,-64.15999
UncalAccel,1676593846462,121350092566234,8.12782,-7.973483,9.583255,0.006110925,-0.043260336,-0.038735468
OrientationDeg,1676593846461,121350092566234,147.0,-60.0,-1.0
UncalGyro,1676593846466,121350097053539,-1.8590157,-1.6168076,4.0614905,0.00046986964,-0.0010083838,-0.0032422226
UncalMag,1676593846469,121350100010753,-89.914,-17.8364,-78.7144,-47.771046,2.9698257,-64.15999
UncalAccel,1676593846471,121350101542369,8.146365,-8.093722,8.491529,0.006110925,-0.043260336,-0.038735468
OrientationDeg,1676593846470,121350101542369,148.0,-61.0,1.0
UncalGyro,1676593846475,121350106034618,-1.8165605,-1.5841264,4.4672575,0.00046986964,-0.0010083838,-0.0032422226
UncalMag,1676593846480,121350110010998,-91.195,-16.286999,-75.9206,-47.771046,2.9698257,-64.15999
UncalAccel,1676593846480,121350110522350,8.76132,-8.341978,8.211569,0.006110925,-0.043260336,-0.038735468
OrientationDeg,1676593846479,121350110522350,147.0,-62.0,3.0
UncalGyro,1676593846484,121350115013134,-1.6229162,-1.7745636,4.8264465,0.00046986964,-0.0010083838,-0.0032422226
UncalAccel,1676593846489,121350119501842,9.110074,-8.3013,8.046464,0.006110925,-0.043260336,-0.038735468
UncalMag,1676593846489,121350120000255,-93.4032,-14.4814,-76.347595,-47.771046,2.9698257,-64.15999
OrientationDeg,1676593846488,121350119501842,147.0,-62.0,6.0
UncalGyro,1676593846492,121350123992992,-1.357648,-2.0815234,5.1332536,0.00046986964,-0.0010083838,-0.0032422226
UncalAccel,1676593846498,121350128481578,9.967901,-9.370294,9.360124,0.006110925,-0.043260336,-0.038735468
UncalMag,1676593846500,121350130001232,-95.465,-12.7368,-76.3842,-47.771046,2.9698257,-64.15999
OrientationDeg,1676593846497,121350128481578,147.0,-63.0,9.0
UncalGyro,1676593846501,121350132972484,-1.0955868,-2.1354322,5.399438,0.00046986964,-0.0010083838,-0.0032422226
UncalAccel,1676593846507,121350137461559,10.357333,-9.84168,10.856236,0.006110925,-0.043260336,-0.038735468
OrientationDeg,1676593846507,121350137461559,146.0,-64.0,12.0
UncalMag,1676593846510,121350140000255,-100.2352,-11.2484,-77.3724,-47.771046,2.9698257,-64.15999
UncalGyro,1676593846510,121350141953441,-0.8349001,-1.8978056,5.678909,0.00046986964,-0.0010083838,-0.0032422226
UncalAccel,1676593846516,121350146440807,11.143973,-9.88475,10.840085,0.006110925,-0.043260336,-0.038735468
OrientationDeg,1676593846515,121350146440807,145.0,-65.0,14.0
UncalMag,1676593846520,121350150010998,-98.6492,-7.9909997,-76.506195,-47.771046,2.9698257,-64.15999
UncalGyro,1676593846520,121350150932018,-0.64766985,-1.6427693,5.9142447,0.00046986964,-0.0010083838,-0.0032422226
UncalAccel,1676593846525,121350155420787,11.925828,-9.34816,9.688539,0.006110925,-0.043260336,-0.038735468
OrientationDeg,1676593846525,121350155420787,144.0,-66.0,17.0
UncalGyro,1676593846528,121350159913097,-0.5195409,-1.617113,6.1023912,0.00046986964,-0.0010083838,-0.0032422226
UncalMag,1676593846528,121350159999035,-99.051796,-5.6363997,-75.1886,-47.771046,2.9698257,-64.15999
UncalAccel,1676593846533,121350164400829,12.395419,-9.150154,8.519645,0.006110925,-0.043260336,-0.038735468
OrientationDeg,1676593846533,121350164400829,144.0,-66.0,20.0
UncalGyro,1676593846538,121350168891735,-0.38606682,-1.8594738,6.3416977,0.00046986964,-0.0010083838,-0.0032422226
UncalMag,1676593846539,121350170010753,-101.6626,-4.758,-79.178,-47.771046,2.9698257,-64.15999
UncalAccel,1676593846543,121350173380626,12.943376,-9.891929,8.398808,0.006110925,-0.043260336,-0.038735468
OrientationDeg,1676593846542,121350173380626,142.0,-67.0,24.0
UncalGyro,1676593846546,121350177873912,-0.22556199,-2.2194262,6.6814914,0.00046986964,-0.0010083838,-0.0032422226
UncalMag,1676593846550,121350180010753,-96.733795,0.91499996,-70.9918,-47.771046,2.9698257,-64.15999
UncalAccel,1676593846552,121350182360180,13.576278,-10.245468,9.090932,0.006110925,-0.043260336,-0.038735468
OrientationDeg,1676593846552,121350182360180,141.0,-67.0,27.0
UncalGyro,1676593846555,121350186850963,-0.054061573,-2.5256224,7.115206,0.00046986964,-0.0010083838,-0.0032422226
UncalMag,1676593846560,121350190010753,-99.186,3.7454,-72.2362,-47.771046,2.9698257,-64.15999
UncalAccel,1676593846560,121350191339061,14.277973,-10.335797,9.722636,0.006110925,-0.043260336,-0.038735468
OrientationDeg,1676593846561,121350191339061,140.0,-68.0,30.0
UncalGyro,1676593846565,121350195829966,0.124005646,-2.7650816,7.5999274,0.00046986964,-0.0010083838,-0.0032422226
UncalMag,1676593846570,121350200010509,-100.015594,5.7827997,-68.5762,-47.771046,2.9698257,-64.15999
UncalAccel,1676593846569,121350200313914,15.395421,-10.078569,10.643873,0.006110925,-0.043260336,-0.038735468
OrientationDeg,1676593846570,121350200313914,138.0,-68.0,34.0
UncalGyro,1676593846573,121350204798961,0.40454552,-2.9240592,7.9152865,0.00046986964,-0.0010083838,-0.0032422226
UncalAccel,1676593846579,121350209299510,17.208582,-9.757931,11.816955,0.006110925,-0.043260336,-0.038735468
UncalMag,1676593846578,121350209999279,-99.551994,9.4428,-69.1618,-47.771046,2.9698257,-64.15999
OrientationDeg,1676593846578,121350209299510,136.0,-68.0,38.0
UncalGyro,1676593846583,121350213792125,0.88697636,-2.9770517,7.969043,0.00046986964,-0.0010083838,-0.0032422226
UncalAccel,1676593846588,121350218281993,18.461226,-9.069396,12.979268,0.006110925,-0.043260336,-0.038735468
OrientationDeg,1676593846587,121350218281993,133.0,-68.0,41.0
UncalMag,1676593846589,121350220000011,-95.7334,14.542399,-66.9658,-47.771046,2.9698257,-64.15999
UncalGyro,1676593846592,121350222769725,1.5497651,-2.961933,7.847786,0.00046986964,-0.0010083838,-0.0032422226
UncalAccel,1676593846597,121350227258861,18.425333,-8.2348995,12.902698,0.006110925,-0.043260336,-0.038735468
OrientationDeg,1676593846597,121350227258861,130.0,-67.0,45.0
UncalMag,1676593846600,121350230001720,-97.9416,16.8238,-65.5384,-47.771046,2.9698257,-64.15999
UncalGyro,1676593846601,121350231750621,2.3275492,-3.0546317,7.713548,0.00046986964,-0.0010083838,-0.0032422226
UncalAccel,1676593846605,121350236238719,18.575481,-7.8143606,12.080763,0.006110925,-0.043260336,-0.038735468
OrientationDeg,1676593846605,121350236238719,126.0,-66.0,48.0
UncalMag,1676593846610,121350240011730,-93.9888,20.837599,-60.902397,-47.771046,2.9698257,-64.15999
UncalGyro,1676593846610,121350240728038,3.1838295,-3.197116,7.6411605,0.00046986964,-0.0010083838,-0.0032422226
UncalAccel,1676593846615,121350245213085,18.90928,-7.658229,11.363515,0.006110925,-0.043260336,-0.038735468
OrientationDeg,1676593846615,121350245213085,121.0,-64.0,50.0
UncalGyro,1676593846619,121350249710277,4.0295725,-3.2201762,7.5165443,0.00046986964,-0.0010083838,-0.0032422226
UncalMag,1676593846618,121350249999035,-92.354,24.338999,-59.108997,-47.771046,2.9698257,-64.15999
UncalAccel,1676593846624,121350254197948,19.358534,-7.647461,10.222138,0.006110925,-0.043260336,-0.038735468
OrientationDeg,1676593846623,121350254197948,115.0,-60.0,53.0
UncalGyro,1676593846628,121350258690379,4.74963,-3.0831897,7.183317,0.00046986964,-0.0010083838,-0.0032422226
UncalMag,1676593846630,121350260010509,-88.1084,27.571999,-56.2786,-47.771046,2.9698257,-64.15999
UncalAccel,1676593846632,121350263173350,20.277975,-8.224132,8.502895,0.006110925,-0.043260336,-0.038735468
OrientationDeg,1676593846633,121350263173350,108.0,-56.0,54.0
UncalGyro,1676593846636,121350267652721,5.2688656,-2.8860328,6.591083,0.00046986964,-0.0010083838,-0.0032422226
UncalMag,1676593846639,121350270010998,-86.376,30.6342,-56.2054,-47.771046,2.9698257,-64.15999
UncalAccel,1676593846641,121350272157299,21.367907,-8.979067,6.626324,0.006110925,-0.043260336,-0.038735468
OrientationDeg,1676593846642,121350272157299,101.0,-52.0,55.0
UncalGyro,1676593846645,121350276648265,5.5674257,-2.7188084,5.746104,0.00046986964,-0.0010083838,-0.0032422226
UncalMag,1676593846649,121350280010753,-82.7038,34.9652,-56.998398,-47.771046,2.9698257,-64.15999
UncalAccel,1676593846650,121350281141124,21.884157,-8.968299,5.398806,0.006110925,-0.043260336,-0.038735468
OrientationDeg,1676593846651,121350281141124,94.0,-47.0,55.0
UncalGyro,1676593846655,121350285626292,5.7187676,-2.6296222,4.800179,0.00046986964,-0.0010083838,-0.0032422226
UncalMag,1676593846660,121350290011242,-82.1304,36.5634,-56.778797,-47.771046,2.9698257,-64.15999
UncalAccel,1676593846660,121350290101939,19.871794,-7.2550383,4.3070807,0.006110925,-0.043260336,-0.038735468
OrientationDeg,1676593846659,121350290101939,87.0,-43.0,55.0
UncalGyro,1676593846664,121350294596141,5.7920713,-2.6502388,4.111123,0.00046986964,-0.0010083838,-0.0032422226
UncalAccel,1676593846668,121350299096569,16.80958,-5.0309095,4.2999024,0.006110925,-0.043260336,-0.038735468
UncalMag,1676593846669,121350299999523,-80.9104,36.770798,-58.3648,-47.771046,2.9698257,-64.15999
OrientationDeg,1676593846669,121350299096569,81.0,-40.0,54.0
UncalGyro,1676593846672,121350303591747,5.955478,-2.6085472,3.655723,0.00046986964,-0.0010083838,-0.0032422226
UncalAccel,1676593846677,121350308079235,16.061224,-4.747958,4.6558347,0.006110925,-0.043260336,-0.038735468
OrientationDeg,1676593846677,121350308079235,76.0,-37.0,52.0
UncalMag,1676593846680,121350310010998,-79.9832,38.2592,-62.0248,-47.771046,2.9698257,-64.15999
UncalGyro,1676593846681,121350312567272,6.1967697,-2.4274259,3.2508721,0.00046986964,-0.0010083838,-0.0032422226
UncalAccel,1676593846686,121350317055980,16.234703,-5.718248,3.7220356,0.006110925,-0.043260336,-0.038735468
OrientationDeg,1676593846687,121350317055980,71.0,-34.0,51.0
UncalMag,1676593846690,121350320010998,-79.775795,39.100998,-64.4404,-47.771046,2.9698257,-64.15999
UncalGyro,1676593846691,121350321547985,6.370103,-2.233018,2.8851166,0.00046986964,-0.0010083838,-0.0032422226
UncalAccel,1676593846695,121350326035778,15.497714,-6.0311093,1.8969102,0.006110925,-0.043260336,-0.038735468
OrientationDeg,1676593846696,121350326035778,66.0,-32.0,49.0
UncalMag,1676593846700,121350330006847,-80.1906,39.2352,-63.8182,-47.771046,2.9698257,-64.15999
UncalGyro,1676593846699,121350330526805,6.427524,-2.2482896,2.5392141,0.00046986964,-0.0010083838,-0.0032422226
UncalAccel,1676593846705,121350335015453,14.545371,-5.9635124,-0.046660043,0.006110925,-0.043260336,-0.038735468
OrientationDeg,1676593846705,121350335015453,62.0,-30.0,46.0
UncalGyro,1676593846708,121350339506237,6.413169,-2.4732406,2.2186625,0.00046986964,-0.0010083838,-0.0032422226
UncalMag,1676593846709,121350339999279,-77.884796,39.8452,-66.075195,-47.771046,2.9698257,-64.15999
UncalAccel,1676593846712,121350343995189,13.362718,-5.971887,-2.0063818,0.006110925,-0.043260336,-0.038735468
OrientationDeg,1676593846713,121350343995189,59.0,-29.0,44.0
UncalGyro,1676593846717,121350348485912,6.2599945,-2.6580274,1.9375118,0.00046986964,-0.0010083838,-0.0032422226
UncalMag,1676593846719,121350350010753,-77.591995,39.6012,-66.5998,-47.771046,2.9698257,-64.15999
UncalAccel,1676593846722,121350352972362,13.64208,-5.302495,-3.4791641,0.006110925,-0.043260336,-0.038735468
OrientationDeg,1676593846721,121350352972362,55.0,-28.0,42.0
UncalGyro,1676593846727,121350357455150,6.156147,-3.1312952,1.5364788,0.00046986964,-0.0010083838,-0.0032422226
UncalMag,1676593846730,121350360010753,-74.7494,40.2478,-67.7466,-47.771046,2.9698257,-64.15999
UncalAccel,1676593846730,121350361954540,13.424932,-4.319045,-4.289733,0.006110925,-0.043260336,-0.038735468
OrientationDeg,1676593846730,121350361954540,53.0,-28.0,39.0
UncalGyro,1676593846735,121350366445751,6.0651283,-3.6199875,1.0587822,0.00046986964,-0.0010083838,-0.0032422226
UncalMag,1676593846740,121350370010753,-77.4822,39.3694,-69.8694,-47.771046,2.9698257,-64.15999
UncalAccel,1676593846739,121350370937694,11.632708,-4.5284166,-3.6412778,0.006110925,-0.043260336,-0.038735468
OrientationDeg,1676593846739,121350370937694,50.0,-29.0,37.0
UncalGyro,1676593846744,121350375426708,5.643784,-3.618613,0.6608035,0.00046986964,-0.0010083838,-0.0032422226
UncalAccel,1676593846749,121350379914196,9.34457,-9.366704,-13.93221,0.006110925,-0.043260336,-0.038735468
UncalMag,1676593846749,121350380001476,-78.4704,38.8204,-73.1268,-47.771046,2.9698257,-64.15999
OrientationDeg,1676593846748,121350379914196,49.0,-29.0,35.0
UncalGyro,1676593846753,121350384405040,4.0566034,-2.7791314,0.45631635,0.00046986964,-0.0010083838,-0.0032422226
UncalAccel,1676593846757,121350388893688,11.300703,-5.7858453,-10.821541,0.006110925,-0.043260336,-0.038735468
UncalMag,1676593846760,121350390010753,-77.3236,38.4544,-75.457,-47.771046,2.9698257,-64.15999
OrientationDeg,1676593846758,121350388893688,48.0,-30.0,33.0
UncalGyro,1676593846762,121350393386119,2.9237537,-2.3878722,0.15302174,0.00046986964,-0.0010083838,-0.0032422226
UncalAccel,1676593846767,121350397873668,9.112467,-2.9359934,-4.506881,0.006110925,-0.043260336,-0.038735468
OrientationDeg,1676593846767,121350397873668,47.0,-31.0,32.0
UncalMag,1676593846770,121350400010998,-77.6408,38.125,-74.7128,-47.771046,2.9698257,-64.15999
UncalGyro,1676593846771,121350402364757,3.0395126,-2.7207937,0.07070765,0.00046986964,-0.0010083838,-0.0032422226
UncalAccel,1676593846776,121350406853283,9.497711,-2.4903302,0.23389842,0.006110925,-0.043260336,-0.038735468
OrientationDeg,1676593846775,121350406853283,46.0,-32.0,31.0
UncalMag,1676593846780,121350410010753,-75.9084,38.795998,-69.7718,-47.771046,2.9698257,-64.15999
UncalGyro,1676593846780,121350411344127,3.6737435,-3.02699,-0.2275473,0.00046986964,-0.0010083838,-0.0032422226
UncalAccel,1676593846784,121350415833141,11.859427,-4.4135613,-1.2089736,0.006110925,-0.043260336,-0.038735468
OrientationDeg,1676593846784,121350415833141,45.0,-33.0,29.0
UncalMag,1676593846789,121350420010998,-73.4806,38.979,-67.3684,-47.771046,2.9698257,-64.15999
UncalGyro,1676593846789,121350420321117,4.062254,-3.3906076,-0.78542,0.00046986964,-0.0010083838,-0.0032422226
UncalAccel,1676593846793,121350424801463,10.670195,-4.5272202,-3.7740796,0.006110925,-0.043260336,-0.038735468
OrientationDeg,1676593846794,121350424801463,44.0,-35.0,27.0
UncalGyro,1676593846798,121350429301769,4.06485,-3.992157,-1.329701,0.00046986964,-0.0010083838,-0.0032422226
UncalMag,1676593846799,121350430000744,-74.725,38.4178,-69.173996,-47.771046,2.9698257,-64.15999
UncalAccel,1676593846803,121350433780468,9.036494,-5.4239306,-4.424927,0.006110925,-0.043260336,-0.038735468
OrientationDeg,1676593846802,121350433780468,43.0,-37.0,25.0
UncalGyro,1676593846807,121350438286754,3.7920988,-4.4084616,-1.7195857,0.00046986964,-0.0010083838,-0.0032422226
UncalMag,1676593846809,121350439999035,-73.7734,38.564198,-63.0252,-47.771046,2.9698257,-64.15999
UncalAccel,1676593846811,121350442772350,6.3661046,-5.608776,-1.7455641,0.006110925,-0.043260336,-0.038735468
OrientationDeg,1676593846811,121350442772350,43.0,-39.0,23.0
UncalGyro,1676593846816,121350447267405,3.49476,-4.3687553,-1.8889481,0.00046986964,-0.0010083838,-0.0032422226
UncalMag,1676593846820,121350450010509,-78.4216,36.1974,-69.173996,-47.771046,2.9698257,-64.15999
UncalAccel,1676593846821,121350451752635,5.683552,-6.1938214,-0.4408776,0.006110925,-0.043260336,-0.038735468
OrientationDeg,1676593846821,121350451752635,43.0,-41.0,21.0
UncalGyro,1676593846825,121350456244579,3.1334333,-3.9765801,-1.9457586,0.00046986964,-0.0010083838,-0.0032422226
UncalMag,1676593846830,121350460010998,-80.702995,34.3186,-69.332596,-47.771046,2.9698257,-64.15999
UncalAccel,1676593846829,121350460729198,5.283951,-6.8339014,-0.61734825,0.006110925,-0.043260336,-0.038735468
OrientationDeg,1676593846830,121350460729198,42.0,-43.0,19.0
UncalGyro,1676593846834,121350465212230,2.6473372,-3.4584136,-1.9427042,0.00046986964,-0.0010083838,-0.0032422226
UncalAccel,1676593846839,121350469711193,3.6903307,-7.8071823,-0.887139,0.006110925,-0.043260336,-0.038735468
UncalMag,1676593846838,121350469996349,-81.1422,33.6964,-68.7592,-47.771046,2.9698257,-64.15999
OrientationDeg,1676593846838,121350469711193,42.0,-45.0,18.0
UncalGyro,1676593846843,121350474201366,2.108096,-3.0016391,-1.8521434,0.00046986964,-0.0010083838,-0.0032422226
UncalAccel,1676593846848,121350478689586,2.7278178,-7.5379896,-0.6233303,0.006110925,-0.043260336,-0.038735468
OrientationDeg,1676593846847,121350478689586,42.0,-46.0,16.0
UncalMag,1676593846850,121350480010753,-82.4964,32.8424,-70.747795,-47.771046,2.9698257,-64.15999
UncalGyro,1676593846853,121350483182506,1.5538884,-2.5237896,-1.7620409,0.00046986964,-0.0010083838,-0.0032422226
UncalAccel,1676593846856,121350487670971,1.7473587,-6.7501526,-0.6239285,0.006110925,-0.043260336,-0.038735468
OrientationDeg,1676593846856,121350487670971,42.0,-47.0,15.0
UncalMag,1676593846859,121350490010998,-80.459,33.0498,-68.2346,-47.771046,2.9698257,-64.15999
UncalGyro,1676593846862,121350492162913,1.0509937,-2.045635,-1.6711746,0.00046986964,-0.0010083838,-0.0032422226
UncalAccel,1676593846865,121350496648326,0.3804588,-6.478567,-0.5282156,0.006110925,-0.043260336,-0.038735468
OrientationDeg,1676593846865,121350496648326,43.0,-48.0,15.0
UncalMag,1676593846870,121350500010998,-83.4602,30.8538,-67.636795,-47.771046,2.9698257,-64.15999
UncalGyro,1676593846871,121350501131237,0.6817256,-1.7211128,-1.5089899,0.00046986964,-0.0010083838,-0.0032422226
UncalAccel,1676593846874,121350505630565,0.92662054,-6.5635123,-1.1790633,0.006110925,-0.043260336,-0.038735468
OrientationDeg,1676593846874,121350505630565,43.0,-49.0,14.0
UncalMag,1676593846879,121350510010998,-81.2886,31.6712,-64.8918,-47.771046,2.9698257,-64.15999
UncalGyro,1676593846879,121350510118480,0.4109596,-1.6458237,-1.3387111,0.00046986964,-0.0010083838,-0.0032422226
UncalAccel,1676593846883,121350514601390,2.0691934,-5.9760747,-1.8478572,0.006110925,-0.043260336,-0.038735468
OrientationDeg,1676593846883,121350514601390,43.0,-50.0,13.0
UncalGyro,1676593846889,121350519102245,0.16966783,-1.8127426,-1.2137892,0.00046986964,-0.0010083838,-0.0032422226
UncalMag,1676593846890,121350520010753,-83.8628,29.9998,-66.0264,-47.771046,2.9698257,-64.15999
UncalAccel,1676593846893,121350523590221,2.7032914,-5.380262,-1.9465612,0.006110925,-0.043260336,-0.038735468
OrientationDeg,1676593846892,121350523590221,44.0,-51.0,13.0
UncalGyro,1676593846898,121350528083873,-0.09392053,-2.1138992,-1.1330023,0.00046986964,-0.0010083838,-0.0032422226
UncalMag,1676593846899,121350529994640,-84.9974,30.0852,-66.7584,-47.771046,2.9698257,-64.15999
UncalAccel,1676593846902,121350532569774,3.05384,-5.5310097,-0.7926225,0.006110925,-0.043260336,-0.038735468
OrientationDeg,1676593846901,121350532569774,44.0,-53.0,13.0
