# 
# Header Description:
# 
# Version: v3.0.5.6 Platform: 13 Manufacturer: Google Model: Pixel 6
# 
# Raw,utcTimeMillis,TimeNanos,LeapSecond,TimeUncertaintyNanos,FullBiasNanos,BiasNanos,BiasUncertaintyNanos,DriftNanosPerSecond,DriftUncertaintyNanosPerSecond,HardwareClockDiscontinuityCount,Svid,TimeOffsetNanos,State,ReceivedSvTimeNanos,ReceivedSvTimeUncertaintyNanos,Cn0DbHz,PseudorangeRateMetersPerSecond,PseudorangeRateUncertaintyMetersPerSecond,AccumulatedDeltaRangeState,AccumulatedDeltaRangeMeters,AccumulatedDeltaRangeUncertaintyMeters,CarrierFrequencyHz,CarrierCycles,CarrierPhase,CarrierPhaseUncertainty,MultipathIndicator,SnrInDb,ConstellationType,AgcDb,BasebandCn0DbHz,FullInterSignalBiasNanos,FullInterSignalBiasUncertaintyNanos,SatelliteInterSignalBiasNanos,SatelliteInterSignalBiasUncertaintyNanos,CodeType,ChipsetElapsedRealtimeNanos
# 
# UncalAccel,utcTimeMillis,elapsedRealtimeNanos,UncalAccelXMps2,UncalAccelYMps2,UncalAccelZMps2,BiasXMps2,BiasYMps2,BiasZMps2
# 
# Accel,utcTimeMillis,elapsedRealtimeNanos,AccelXMps2,AccelYMps2,AccelZMps2
# 
# UncalGyro,utcTimeMillis,elapsedRealtimeNanos,UncalGyroXRadPerSec,UncalGyroYRadPerSec,UncalGyroZRadPerSec,DriftXRadPerSec,DriftYRadPerSec,DriftZRadPerSec
# 
# Gyro,utcTimeMillis,elapsedRealtimeNanos,GyroXRadPerSec,GyroYRadPerSec,GyroZRadPerSec
# 
# UncalMag,utcTimeMillis,elapsedRealtimeNanos,UncalMagXMicroT,UncalMagYMicroT,UncalMagZMicroT,BiasXMicroT,BiasYMicroT,BiasZMicroT
# 
# Mag,utcTimeMillis,elapsedRealtimeNanos,MagXMicroT,MagYMicroT,MagZMicroT
# 
# OrientationDeg,utcTimeMillis,elapsedRealtimeNanos,yawDeg,rollDeg,pitchDeg
# 
# Fix,Provider,LatitudeDegrees,LongitudeDegrees,AltitudeMeters,SpeedMps,AccuracyMeters,BearingDegrees,UnixTimeMillis,SpeedAccuracyMps,BearingAccuracyDegrees,elapsedRealtimeNanos,VerticalAccuracyMeters
# 
# Nav,Svid,Type,Status,MessageId,Sub-messageId,Data(Bytes)
# 
# Status,UnixTimeMillis,SignalCount,SignalIndex,ConstellationType,Svid,CarrierFrequencyHz,Cn0DbHz,AzimuthDegrees,ElevationDegrees,UsedInFix,HasAlmanacData,HasEphemerisData,BasebandCn0DbHz
# 
UncalAccel,1676593474065,120977696757885,0.4109673,-0.17527425,10.536197,0.006110925,-0.043260336,-0.038735468
UncalGyro,1676593474070,120977701250560,-0.4654793,0.12507465,0.26099217,0.0005292649,-0.0008202031,-0.003373057
UncalMag,1676593474069,120977699999279,-56.925198,17.1166,-111.8618,-44.47528,5.575939,-61.08579
UncalMag,1676593474080,120977710000255,-57.4986,17.2386,-111.068794,-44.47528,5.575939,-61.08579
UncalGyro,1676593474080,120977710211742,-0.44868052,0.10247265,0.4644103,0.0005292649,-0.0008202031,-0.003373057
UncalAccel,1676593474074,120977705725047,0.73399836,0.95473623,11.548959,0.006110925,-0.043260336,-0.038735468
UncalAccel,1676593474083,120977714701121,1.2281163,2.4293132,13.093526,0.006110925,-0.043260336,-0.038735468
Fix,FLP,37.4313003000,-122.1550429000,-16.200000762939453,0.4508879,5.009,332.7456,1676593473936,,,120977566556041,3.9667075
UncalGyro,1676593474088,120977719197093,-0.38240165,0.35369098,0.49770245,0.0005292649,-0.0008202031,-0.003373057
UncalMag,1676593474089,120977719999279,-55.5588,17.921799,-111.056595,-44.47528,5.575939,-61.08579
UncalAccel,1676593474093,120977723684948,1.4255241,3.3254254,14.176278,0.006110925,-0.043260336,-0.038735468
OrientationDeg,1676593474092,120977723684948,1.0,-7.0,-13.0
UncalGyro,1676593474097,120977728177563,-0.30650163,0.77595156,0.37110063,0.0005292649,-0.0008202031,-0.003373057
UncalMag,1676593474100,120977730011242,-53.619,18.580599,-108.9826,-44.47528,5.575939,-61.08579
UncalAccel,1676593474102,120977732669262,1.7790636,3.4043884,14.116457,0.006110925,-0.043260336,-0.038735468
OrientationDeg,1676593474102,120977732669262,1.0,-6.0,-13.0
UncalGyro,1676593474106,120977737157360,-0.21975878,1.0793989,0.15790866,0.0005292649,-0.0008202031,-0.003373057
UncalMag,1676593474110,120977740000499,-55.302597,17.873,-108.384796,-44.47528,5.575939,-61.08579
UncalAccel,1676593474111,120977741644176,2.3078775,3.1567314,13.798212,0.006110925,-0.043260336,-0.038735468
OrientationDeg,1676593474110,120977741644176,1.0,-6.0,-12.0
UncalGyro,1676593474116,120977746133739,-0.09117164,1.1959214,-0.0729984,0.0005292649,-0.0008202031,-0.003373057
UncalMag,1676593474120,120977750000499,-51.2156,19.886,-108.7752,-44.47528,5.575939,-61.08579
UncalAccel,1676593474119,120977750624950,2.0482562,2.5878377,13.422539,0.006110925,-0.043260336,-0.038735468
OrientationDeg,1676593474119,120977750624950,2.0,-5.0,-13.0
UncalGyro,1676593474124,120977755120372,0.12507465,1.1652255,-0.21899518,0.0005292649,-0.0008202031,-0.003373057
UncalAccel,1676593474129,120977759606151,1.4691931,1.9674984,12.920644,0.006110925,-0.043260336,-0.038735468
UncalMag,1676593474128,120977759999035,-51.2644,19.3126,-109.202194,-44.47528,5.575939,-61.08579
OrientationDeg,1676593474128,120977759606151,2.0,-5.0,-13.0
UncalGyro,1676593474133,120977764098826,0.44501534,1.0341948,-0.23701571,0.0005292649,-0.0008202031,-0.003373057
UncalAccel,1676593474137,120977768587596,1.0851451,1.9262222,12.394821,0.006110925,-0.043260336,-0.038735468
OrientationDeg,1676593474138,120977768587596,2.0,-4.0,-13.0
UncalMag,1676593474139,120977769999523,-52.6674,18.361,-109.5682,-44.47528,5.575939,-61.08579
UncalGyro,1676593474143,120977773074901,0.8784242,0.8217665,-0.18005253,0.0005292649,-0.0008202031,-0.003373057
UncalAccel,1676593474146,120977777564402,0.80877405,2.2731814,11.937792,0.006110925,-0.043260336,-0.038735468
OrientationDeg,1676593474146,120977777564402,2.0,-4.0,-14.0
UncalMag,1676593474150,120977780001720,-51.1424,18.6294,-110.104996,-44.47528,5.575939,-61.08579
UncalGyro,1676593474152,120977782052989,1.4135422,0.47219884,-0.12293663,0.0005292649,-0.0008202031,-0.003373057
UncalAccel,1676593474156,120977786540966,0.48095736,2.318047,11.726625,0.006110925,-0.043260336,-0.038735468
OrientationDeg,1676593474155,120977786540966,2.0,-4.0,-14.0
UncalMag,1676593474159,120977790000499,-49.617397,17.5924,-109.3852,-44.47528,5.575939,-61.08579
UncalGyro,1676593474161,120977791026195,2.0037906,-0.002443461,-0.09193522,0.0005292649,-0.0008202031,-0.003373057
UncalAccel,1676593474164,120977795523510,0.567099,2.216352,10.544571,0.006110925,-0.043260336,-0.038735468
OrientationDeg,1676593474164,120977795523510,2.0,-4.0,-16.0
UncalMag,1676593474168,120977799999523,-49.2636,17.0434,-107.8724,-44.47528,5.575939,-61.08579
UncalGyro,1676593474169,120977800022167,2.4182627,-0.77595156,-0.15118915,0.0005292649,-0.0008202031,-0.003373057
UncalAccel,1676593474174,120977804518810,1.672583,3.0855448,6.2458653,0.006110925,-0.043260336,-0.038735468
OrientationDeg,1676593474173,120977804518810,2.0,-5.0,-17.0
UncalGyro,1676593474177,120977808992138,2.2635612,-2.2739458,-0.44593164,0.0005292649,-0.0008202031,-0.003373057
UncalMag,1676593474179,120977809999279,-50.227398,15.6038,-109.0924,-44.47528,5.575939,-61.08579
UncalAccel,1676593474183,120977813479747,2.8307092,4.176672,5.9994044,0.006110925,-0.043260336,-0.038735468
OrientationDeg,1676593474183,120977813479747,2.0,-6.0,-18.0
UncalGyro,1676593474186,120977817973094,2.0028744,-3.6335793,-0.83092946,0.0005292649,-0.0008202031,-0.003373057
UncalMag,1676593474190,120977820006359,-52.7406,14.762,-112.0204,-44.47528,5.575939,-61.08579
UncalAccel,1676593474192,120977822463939,3.3768709,4.1557345,10.200603,0.006110925,-0.043260336,-0.038735468
OrientationDeg,1676593474191,120977822463939,2.0,-8.0,-19.0
UncalGyro,1676593474196,120977826955821,2.0709858,-4.126242,-1.1988231,0.0005292649,-0.0008202031,-0.003373057
UncalMag,1676593474199,120977829999035,-56.0102,12.809999,-107.8602,-44.47528,5.575939,-61.08579
UncalAccel,1676593474200,120977831443065,4.0157547,3.394817,11.924632,0.006110925,-0.043260336,-0.038735468
OrientationDeg,1676593474200,120977831443065,3.0,-10.0,-20.0
UncalGyro,1676593474204,120977835931835,2.273335,-4.089132,-1.5209018,0.0005292649,-0.0008202031,-0.003373057
UncalMag,1676593474209,120977840001476,-57.889,11.163,-108.079796,-44.47528,5.575939,-61.08579
UncalAccel,1676593474210,120977840420177,4.389633,3.0376883,10.990234,0.006110925,-0.043260336,-0.038735468
OrientationDeg,1676593474209,120977840420177,4.0,-12.0,-22.0
UncalGyro,1676593474214,120977844909801,2.3990204,-4.024686,-1.750129,0.0005292649,-0.0008202031,-0.003373057
UncalAccel,1676593474218,120977849400340,4.44407,3.4486556,9.315259,0.006110925,-0.043260336,-0.038735468
UncalMag,1676593474218,120977849999279,-58.9138,10.613999,-108.641,-44.47528,5.575939,-61.08579
OrientationDeg,1676593474218,120977849400340,4.0,-14.0,-23.0
UncalGyro,1676593474223,120977853894236,2.3866506,-4.0152173,-1.9297233,0.0005292649,-0.0008202031,-0.003373057
UncalAccel,1676593474228,120977858377819,4.115655,4.2364926,8.459825,0.006110925,-0.043260336,-0.038735468
OrientationDeg,1676593474228,120977858377819,5.0,-16.0,-25.0
UncalMag,1676593474229,120977859999523,-59.231,10.492,-109.2388,-44.47528,5.575939,-61.08579
UncalGyro,1676593474232,120977862871471,2.256078,-3.8788416,-2.1067214,0.0005292649,-0.0008202031,-0.003373057
UncalAccel,1676593474237,120977867362804,3.5336008,4.5475593,8.973683,0.006110925,-0.043260336,-0.038735468
OrientationDeg,1676593474237,120977867362804,6.0,-17.0,-26.0
UncalMag,1676593474240,120977870000011,-60.207,9.3208,-107.2746,-44.47528,5.575939,-61.08579
UncalGyro,1676593474241,120977871850597,1.8382462,-3.1395419,-2.2934935,0.0005292649,-0.0008202031,-0.003373057
UncalAccel,1676593474246,120977876340099,2.8725836,4.220939,10.117453,0.006110925,-0.043260336,-0.038735468
UncalMag,1676593474250,120977880001964,-61.61,7.8445997,-105.347,-44.47528,5.575939,-61.08579
OrientationDeg,1676593474245,120977876340099,7.0,-18.0,-27.0
UncalGyro,1676593474250,120977880829540,1.4669929,-2.0163136,-2.466521,0.0005292649,-0.0008202031,-0.003373057
UncalAccel,1676593474254,120977885316355,1.9938195,3.2530425,9.917651,0.006110925,-0.043260336,-0.038735468
OrientationDeg,1676593474255,120977885316355,8.0,-18.0,-28.0
UncalGyro,1676593474259,120977889807200,1.084744,-0.7312057,-2.4483478,0.0005292649,-0.0008202031,-0.003373057
UncalMag,1676593474260,120977890003429,-62.8544,6.0878,-104.6272,-44.47528,5.575939,-61.08579
UncalAccel,1676593474264,120977894296642,1.282553,3.0939198,8.922835,0.006110925,-0.043260336,-0.038735468
OrientationDeg,1676593474264,120977894296642,9.0,-17.0,-29.0
UncalGyro,1676593474267,120977898789318,0.6772968,0.47067168,-2.3296874,0.0005292649,-0.0008202031,-0.003373057
UncalMag,1676593474270,120977900005626,-63.2082,5.6363997,-105.590996,-44.47528,5.575939,-61.08579
UncalAccel,1676593474272,120977903276500,0.6089734,3.2793634,7.5290165,0.006110925,-0.043260336,-0.038735468
OrientationDeg,1676593474273,120977903276500,10.0,-16.0,-29.0
UncalGyro,1676593474277,120977907765880,0.2452624,1.4504995,-2.147802,0.0005292649,-0.0008202031,-0.003373057
UncalMag,1676593474278,120977909999523,-62.610397,4.8434,-105.7984,-44.47528,5.575939,-61.08579
UncalAccel,1676593474281,120977912254955,0.3290131,3.6113675,5.8420763,0.006110925,-0.043260336,-0.038735468
OrientationDeg,1676593474282,120977912254955,12.0,-15.0,-30.0
UncalGyro,1676593474285,120977916748363,-0.20952678,2.0954206,-1.9333885,0.0005292649,-0.0008202031,-0.003373057
UncalMag,1676593474289,120977919999279,-62.7446,4.5628,-108.579994,-44.47528,5.575939,-61.08579
UncalAccel,1676593474290,120977921235973,-1.6277176,4.0103707,4.0151563,0.006110925,-0.043260336,-0.038735468
OrientationDeg,1676593474291,120977921235973,13.0,-13.0,-30.0
UncalGyro,1676593474295,120977925726512,-0.5363397,1.8469511,-1.4002558,0.0005292649,-0.0008202031,-0.003373057
UncalMag,1676593474299,120977930010753,-61.975998,4.453,-108.6898,-44.47528,5.575939,-61.08579
UncalAccel,1676593474300,120977930216990,-11.621342,4.875974,3.8644085,0.006110925,-0.043260336,-0.038735468
OrientationDeg,1676593474299,120977930216990,13.0,-12.0,-30.0
UncalGyro,1676593474304,120977934707713,-0.65209866,1.0375546,-0.0786489,0.0005292649,-0.0008202031,-0.003373057
UncalAccel,1676593474308,120977939208140,-9.23151,5.5477595,5.5040903,0.006110925,-0.043260336,-0.038735468
UncalMag,1676593474308,120977939998790,-62.537197,4.4652,-108.6166,-44.47528,5.575939,-61.08579
OrientationDeg,1676593474309,120977939208140,13.0,-12.0,-29.0
UncalGyro,1676593474313,120977943697887,-0.77579886,0.8507826,0.9957104,0.0005292649,-0.0008202031,-0.003373057
UncalAccel,1676593474318,120977948187939,-1.6007984,4.269992,5.727221,0.006110925,-0.043260336,-0.038735468
OrientationDeg,1676593474318,120977948187939,12.0,-11.0,-29.0
UncalMag,1676593474319,120977950010998,-58.8528,6.3684,-108.0066,-44.47528,5.575939,-61.08579
UncalGyro,1676593474322,120977952676403,-0.9083566,0.9772317,1.3923146,0.0005292649,-0.0008202031,-0.003373057
UncalAccel,1676593474327,120977957163951,1.9926231,3.1453655,5.261219,0.006110925,-0.043260336,-0.038735468
OrientationDeg,1676593474327,120977957163951,12.0,-11.0,-28.0
UncalMag,1676593474330,120977960010753,-58.5234,7.1735997,-107.018394,-44.47528,5.575939,-61.08579
UncalGyro,1676593474331,120977961655285,-0.97509366,0.98883814,1.4395039,0.0005292649,-0.0008202031,-0.003373057
UncalAccel,1676593474335,120977966143871,2.9533412,2.5262225,6.663413,0.006110925,-0.043260336,-0.038735468
OrientationDeg,1676593474335,120977966143871,11.0,-11.0,-27.0
UncalMag,1676593474339,120977970010998,-58.9992,6.9783998,-106.8842,-44.47528,5.575939,-61.08579
UncalGyro,1676593474339,120977970635875,-0.91919947,1.0034989,1.397507,0.0005292649,-0.0008202031,-0.003373057
UncalAccel,1676593474345,120977975122142,3.6616168,2.408376,8.815159,0.006110925,-0.043260336,-0.038735468
OrientationDeg,1676593474345,120977975122142,10.0,-11.0,-27.0
UncalGyro,1676593474348,120977979609630,-0.70463306,0.9789116,1.3767376,0.0005292649,-0.0008202031,-0.003373057
UncalMag,1676593474349,120977980000744,-58.706398,7.7226,-108.384796,-44.47528,5.575939,-61.08579
UncalAccel,1676593474353,120977984102794,3.5365918,2.7110682,8.5112705,0.006110925,-0.043260336,-0.038735468
OrientationDeg,1676593474353,120977984102794,9.0,-11.0,-26.0
UncalGyro,1676593474358,120977988594799,-0.38683042,0.8530733,1.3949108,0.0005292649,-0.0008202031,-0.003373057
UncalMag,1676593474360,120977990010753,-60.5608,7.4663997,-109.982994,-44.47528,5.575939,-61.08579
UncalAccel,1676593474362,120977993083690,2.6213372,2.5680969,9.211769,0.006110925,-0.043260336,-0.038735468
OrientationDeg,1676593474363,120977993083690,9.0,-11.0,-26.0
UncalGyro,1676593474366,120977997570018,-0.034055736,0.9550878,1.4605788,0.0005292649,-0.0008202031,-0.003373057
UncalMag,1676593474369,120978000010998,-60.5608,7.1004,-110.7638,-44.47528,5.575939,-61.08579
UncalAccel,1676593474371,120978002048594,1.6923238,1.7437695,8.874381,0.006110925,-0.043260336,-0.038735468
OrientationDeg,1676593474371,120978002048594,8.0,-11.0,-26.0
UncalGyro,1676593474375,120978006552684,0.28115073,1.1814134,1.5815301,0.0005292649,-0.0008202031,-0.003373057
UncalMag,1676593474380,120978010010998,-60.0728,7.2346,-109.6902,-44.47528,5.575939,-61.08579
UncalAccel,1676593474380,120978011041271,1.3603196,1.5822539,7.3232336,0.006110925,-0.043260336,-0.038735468
OrientationDeg,1676593474380,120978011041271,7.0,-10.0,-26.0
UncalGyro,1676593474385,120978015535534,0.5204572,1.370018,1.706452,0.0005292649,-0.0008202031,-0.003373057
UncalMag,1676593474389,120978019999279,-58.5356,8.0764,-111.1176,-44.47528,5.575939,-61.08579
UncalAccel,1676593474389,120978020022228,0.79800636,2.059622,6.0364933,0.006110925,-0.043260336,-0.038735468
OrientationDeg,1676593474390,120978020022228,6.0,-10.0,-26.0
UncalGyro,1676593474393,120978024516674,0.6598872,1.4147639,1.808772,0.0005292649,-0.0008202031,-0.003373057
UncalAccel,1676593474399,120978029000499,0.47916272,2.6362925,3.903292,0.006110925,-0.043260336,-0.038735468
UncalMag,1676593474398,120978029999035,-58.5356,7.259,-109.861,-44.47528,5.575939,-61.08579
OrientationDeg,1676593474398,120978029000499,5.0,-10.0,-26.0
UncalGyro,1676593474402,120978033491283,0.67256266,1.1220068,1.826029,0.0005292649,-0.0008202031,-0.003373057
UncalAccel,1676593474406,120978037979320,1.288535,3.426522,2.495714,0.006110925,-0.043260336,-0.038735468
OrientationDeg,1676593474406,120978037979320,4.0,-10.0,-26.0
UncalMag,1676593474410,120978040010998,-55.571,8.2106,-112.6792,-44.47528,5.575939,-61.08579
UncalGyro,1676593474412,120978042471996,0.55573463,0.6226244,1.653765,0.0005292649,-0.0008202031,-0.003373057
UncalAccel,1676593474415,120978046959728,2.3539393,3.6454654,1.3573287,0.006110925,-0.043260336,-0.038735468
OrientationDeg,1676593474416,120978046959728,3.0,-10.0,-27.0
UncalMag,1676593474420,120978050010998,-56.1932,8.3082,-111.1298,-44.47528,5.575939,-61.08579
UncalGyro,1676593474420,120978051450145,0.3538437,0.013439035,1.3599387,0.0005292649,-0.0008202031,-0.003373057
UncalAccel,1676593474424,120978055939037,2.3264217,3.2859437,1.5984055,0.006110925,-0.043260336,-0.038735468
OrientationDeg,1676593474425,120978055939037,2.0,-11.0,-27.0
UncalMag,1676593474430,120978060010753,-59.6336,7.0882,-113.557594,-44.47528,5.575939,-61.08579
UncalGyro,1676593474430,120978060431163,0.16371189,-0.5177083,1.066418,0.0005292649,-0.0008202031,-0.003373057
UncalAccel,1676593474434,120978064918834,2.4394827,2.858825,2.1355941,0.006110925,-0.043260336,-0.038735468
OrientationDeg,1676593474433,120978064918834,1.0,-11.0,-27.0
UncalGyro,1676593474438,120978069409679,-0.005497787,-0.86391616,0.8356637,0.0005292649,-0.0008202031,-0.003373057
UncalMag,1676593474439,120978069999035,-59.6214,6.588,-112.898796,-44.47528,5.575939,-61.08579
UncalAccel,1676593474443,120978073897655,2.2534406,2.8169506,3.1208389,0.006110925,-0.043260336,-0.038735468
OrientationDeg,1676593474442,120978073897655,1.0,-12.0,-27.0
UncalGyro,1676593474447,120978078388988,-0.10247265,-1.0994047,0.6774496,0.0005292649,-0.0008202031,-0.003373057
UncalMag,1676593474450,120978080010509,-61.427,6.6612,-114.021194,-44.47528,5.575939,-61.08579
UncalAccel,1676593474451,120978082877941,2.3485553,2.7786653,4.0073795,0.006110925,-0.043260336,-0.038735468
OrientationDeg,1676593474452,120978082877941,1.0,-13.0,-26.0
UncalGyro,1676593474457,120978087368785,-0.11209377,-1.3023647,0.5514586,0.0005292649,-0.0008202031,-0.003373057
UncalMag,1676593474460,120978090010753,-62.3908,6.7588,-114.7166,-44.47528,5.575939,-61.08579
UncalAccel,1676593474460,120978091857738,2.9982069,2.516053,4.3094735,0.006110925,-0.043260336,-0.038735468
OrientationDeg,1676593474460,120978091857738,0.0,-14.0,-26.0
UncalGyro,1676593474465,120978096349132,-0.055741455,-1.4369078,0.43753225,0.0005292649,-0.0008202031,-0.003373057
UncalMag,1676593474470,120978100010753,-62.768997,6.9662,-113.874794,-44.47528,5.575939,-61.08579
UncalAccel,1676593474470,120978100836925,2.9742785,1.7736797,6.049654,0.006110925,-0.043260336,-0.038735468
OrientationDeg,1676593474469,120978100836925,0.0,-15.0,-26.0
UncalGyro,1676593474474,120978105327587,-0.011453724,-1.2864822,0.39385536,0.0005292649,-0.0008202031,-0.003373057
UncalAccel,1676593474478,120978109816234,2.4364917,0.7752745,7.2909307,0.006110925,-0.043260336,-0.038735468
UncalMag,1676593474478,120978109996349,-59.78,8.259399,-113.3136,-44.47528,5.575939,-61.08579
OrientationDeg,1676593474479,120978109816234,0.0,-15.0,-26.0
UncalGyro,1676593474483,120978114308300,-0.049480084,-0.95615685,0.4792238,0.0005292649,-0.0008202031,-0.003373057
UncalAccel,1676593474487,120978118795665,2.0225334,0.27876383,7.348358,0.006110925,-0.043260336,-0.038735468
UncalMag,1676593474490,120978120010753,-60.2436,7.8202,-112.898796,-44.47528,5.575939,-61.08579
OrientationDeg,1676593474488,120978118795665,0.0,-16.0,-26.0
UncalGyro,1676593474492,120978123286693,-0.07971791,-0.62888575,0.64644814,0.0005292649,-0.0008202031,-0.003373057
UncalAccel,1676593474496,120978127775402,2.2564318,-0.14416756,7.618747,0.006110925,-0.043260336,-0.038735468
OrientationDeg,1676593474497,120978127775402,359.0,-16.0,-26.0
UncalMag,1676593474500,120978130010509,-59.962997,7.2346,-110.8614,-44.47528,5.575939,-61.08579
UncalGyro,1676593474501,120978132267406,-0.16218472,-0.26618454,0.8875872,0.0005292649,-0.0008202031,-0.003373057
UncalAccel,1676593474505,120978136754894,2.6775684,-0.17108682,7.153343,0.006110925,-0.043260336,-0.038735468
OrientationDeg,1676593474505,120978136754894,359.0,-17.0,-25.0
UncalMag,1676593474510,120978140010998,-61.183,7.5396,-111.666595,-44.47528,5.575939,-61.08579
UncalGyro,1676593474511,120978141245556,-0.2602286,0.036651913,1.1498011,0.0005292649,-0.0008202031,-0.003373057
UncalAccel,1676593474514,120978145733898,2.9306095,-0.07178468,7.312466,0.006110925,-0.043260336,-0.038735468
OrientationDeg,1676593474514,120978145733898,358.0,-17.0,-25.0
UncalMag,1676593474519,120978150010998,-58.9992,8.6742,-109.641396,-44.47528,5.575939,-61.08579
UncalGyro,1676593474519,120978150222728,-0.3538437,0.30298916,1.4121678,0.0005292649,-0.0008202031,-0.003373057
UncalAccel,1676593474523,120978154703441,3.4151561,-0.011964113,7.6534433,0.006110925,-0.043260336,-0.038735468
OrientationDeg,1676593474524,120978154703441,357.0,-17.0,-25.0
UncalGyro,1676593474528,120978159204967,-0.43310347,0.48273626,1.6476563,0.0005292649,-0.0008202031,-0.003373057
UncalMag,1676593474529,120978160010753,-62.134598,8.7108,-113.5698,-44.47528,5.575939,-61.08579
UncalAccel,1676593474533,120978163692028,3.9164524,0.07537391,6.7740808,0.006110925,-0.043260336,-0.038735468
OrientationDeg,1676593474532,120978163692028,356.0,-17.0,-24.0
UncalGyro,1676593474537,120978168180675,-0.5038111,0.44623706,1.8555032,0.0005292649,-0.0008202031,-0.003373057
UncalMag,1676593474538,120978169998546,-61.292797,8.2472,-112.4962,-44.47528,5.575939,-61.08579
UncalAccel,1676593474542,120978172673107,4.150351,0.47198427,6.348757,0.006110925,-0.043260336,-0.038735468
OrientationDeg,1676593474541,120978172673107,355.0,-17.0,-23.0
UncalGyro,1676593474546,120978177163890,-0.5664248,0.3129157,2.0680842,0.0005292649,-0.0008202031,-0.003373057
UncalMag,1676593474550,120978180010509,-61.8052,9.333,-112.8744,-44.47528,5.575939,-61.08579
UncalAccel,1676593474550,120978181654735,4.4949174,0.7818548,6.4612193,0.006110925,-0.043260336,-0.038735468
OrientationDeg,1676593474550,120978181654735,354.0,-18.0,-23.0
UncalGyro,1676593474555,120978186140208,-0.6104071,0.107665,2.2149973,0.0005292649,-0.0008202031,-0.003373057
UncalMag,1676593474560,120978190011242,-60.4754,10.3822,-113.093994,-44.47528,5.575939,-61.08579
UncalAccel,1676593474559,120978190614879,5.346762,1.0259227,6.2327046,0.006110925,-0.043260336,-0.038735468
OrientationDeg,1676593474560,120978190614879,353.0,-18.0,-22.0
UncalGyro,1676593474565,120978195123302,-0.63606346,-0.21670444,2.2059872,0.0005292649,-0.0008202031,-0.003373057
UncalAccel,1676593474569,120978199611888,6.2548385,1.0157533,6.6945195,0.006110925,-0.043260336,-0.038735468
UncalMag,1676593474570,120978200000255,-61.2318,10.1382,-113.6674,-44.47528,5.575939,-61.08579
OrientationDeg,1676593474568,120978199611888,352.0,-19.0,-21.0
UncalGyro,1676593474573,120978204108104,-0.6281222,-0.519999,2.0857995,0.0005292649,-0.0008202031,-0.003373057
UncalAccel,1676593474578,120978208589855,6.7088766,0.44745782,7.5182486,0.006110925,-0.043260336,-0.038735468
OrientationDeg,1676593474577,120978208589855,351.0,-19.0,-21.0
UncalMag,1676593474580,120978210010753,-58.4258,11.9072,-111.7276,-44.47528,5.575939,-61.08579
UncalGyro,1676593474583,120978213077404,-0.5673411,-0.7609854,1.9303342,0.0005292649,-0.0008202031,-0.003373057
UncalAccel,1676593474587,120978217570568,7.057032,-0.31166515,8.287541,0.006110925,-0.043260336,-0.038735468
OrientationDeg,1676593474587,120978217570568,350.0,-20.0,-20.0
UncalMag,1676593474589,120978219999279,-60.39,11.3948,-111.8984,-44.47528,5.575939,-61.08579
UncalGyro,1676593474591,120978222061840,-0.44883323,-0.9256136,1.7383698,0.0005292649,-0.0008202031,-0.003373057
UncalAccel,1676593474596,120978226551463,7.281359,-0.86919284,9.210572,0.006110925,-0.043260336,-0.038735468
OrientationDeg,1676593474595,120978226551463,350.0,-21.0,-20.0
UncalMag,1676593474599,120978230010509,-61.3904,11.285,-111.690994,-44.47528,5.575939,-61.08579
UncalGyro,1676593474600,120978231036632,-0.29123,-0.9630291,1.5541939,0.0005292649,-0.0008202031,-0.003373057
UncalAccel,1676593474605,120978235512523,7.055238,-1.346561,9.912268,0.006110925,-0.043260336,-0.038735468
OrientationDeg,1676593474604,120978235512523,349.0,-22.0,-19.0
UncalGyro,1676593474609,120978240019237,-0.11010846,-0.9095783,1.4738652,0.0005292649,-0.0008202031,-0.003373057
UncalMag,1676593474609,120978240018322,-60.8048,12.090199,-106.4206,-44.47528,5.575939,-61.08579
UncalAccel,1676593474614,120978244498363,6.7148585,-1.6803597,9.756734,0.006110925,-0.043260336,-0.038735468
OrientationDeg,1676593474613,120978244498363,348.0,-23.0,-19.0
UncalGyro,1676593474619,120978249004710,0.065973446,-0.9034697,1.5160148,0.0005292649,-0.0008202031,-0.003373057
UncalMag,1676593474620,120978250010753,-61.060997,12.187799,-107.481995,-44.47528,5.575939,-61.08579
UncalAccel,1676593474623,120978253489025,6.530611,-1.919642,9.092128,0.006110925,-0.043260336,-0.038735468
OrientationDeg,1676593474622,120978253489025,347.0,-23.0,-18.0
UncalGyro,1676593474627,120978257983775,0.20051652,-0.9567677,1.6337591,0.0005292649,-0.0008202031,-0.003373057
UncalMag,1676593474629,120978260010753,-63.2814,11.8828,-107.640594,-44.47528,5.575939,-61.08579
UncalAccel,1676593474631,120978262468517,6.4905314,-2.1499512,8.218747,0.006110925,-0.043260336,-0.038735468
OrientationDeg,1676593474632,120978262468517,346.0,-24.0,-18.0
UncalGyro,1676593474636,120978266959240,0.25809056,-1.0503827,1.7676913,0.0005292649,-0.0008202031,-0.003373057
UncalMag,1676593474640,120978270010753,-63.0374,12.3098,-109.4096,-44.47528,5.575939,-61.08579
UncalAccel,1676593474641,120978271448009,6.198607,-2.1050856,7.4883385,0.006110925,-0.043260336,-0.038735468
OrientationDeg,1676593474640,120978271448009,345.0,-25.0,-18.0
UncalGyro,1676593474644,120978275940013,0.24862215,-1.1878275,1.8799378,0.0005292649,-0.0008202031,-0.003373057
UncalMag,1676593474650,120978280010998,-61.744198,12.773399,-107.3478,-44.47528,5.575939,-61.08579
UncalAccel,1676593474649,120978280427806,6.2171516,-1.7551354,7.1425757,0.006110925,-0.043260336,-0.038735468
OrientationDeg,1676593474650,120978280427806,344.0,-26.0,-17.0
UncalGyro,1676593474654,120978284918529,0.21533,-1.3451253,1.9346102,0.0005292649,-0.0008202031,-0.003373057
UncalAccel,1676593474658,120978289406994,6.495317,-1.608575,7.0725856,0.006110925,-0.043260336,-0.038735468
UncalMag,1676593474659,120978289999279,-61.134197,13.1882,-106.1034,-44.47528,5.575939,-61.08579
OrientationDeg,1676593474658,120978289406994,343.0,-27.0,-17.0
UncalGyro,1676593474663,120978293894969,0.17333302,-1.4437801,1.9738584,0.0005292649,-0.0008202031,-0.003373057
UncalAccel,1676593474667,120978298374828,6.652645,-1.9549361,6.5001025,0.006110925,-0.043260336,-0.038735468
OrientationDeg,1676593474668,120978298374828,342.0,-28.0,-17.0
UncalMag,1676593474670,120978300010998,-62.9764,13.054,-106.4206,-44.47528,5.575939,-61.08579
UncalGyro,1676593474672,120978302877697,0.10598512,-1.5384641,2.0302107,0.0005292649,-0.0008202031,-0.003373057
UncalAccel,1676593474676,120978307366466,6.940382,-2.3407788,5.636892,0.006110925,-0.043260336,-0.038735468
OrientationDeg,1676593474677,120978307366466,341.0,-29.0,-16.0
UncalMag,1676593474680,120978310010753,-61.7076,13.883599,-106.1766,-44.47528,5.575939,-61.08579
UncalGyro,1676593474681,120978311860972,-0.027794369,-1.7018706,2.110234,0.0005292649,-0.0008202031,-0.003373057
UncalAccel,1676593474686,120978316345836,6.8691955,-3.068795,5.322834,0.006110925,-0.043260336,-0.038735468
OrientationDeg,1676593474686,120978316345836,340.0,-31.0,-15.0
UncalMag,1676593474690,120978320010998,-64.672195,13.4566,-105.749596,-44.47528,5.575939,-61.08579
UncalGyro,1676593474689,120978320836193,-0.23609942,-1.8626808,2.2565362,0.0005292649,-0.0008202031,-0.003373057
UncalAccel,1676593474694,120978325325267,6.582655,-3.9924245,5.964709,0.006110925,-0.043260336,-0.038735468
OrientationDeg,1676593474695,120978325325267,339.0,-32.0,-14.0
UncalGyro,1676593474698,120978329817089,-0.46929723,-1.92392,2.4668267,0.0005292649,-0.0008202031,-0.003373057
UncalMag,1676593474699,120978329994640,-65.6604,13.724999,-106.713394,-44.47528,5.575939,-61.08579
UncalAccel,1676593474704,120978334304821,6.203991,-4.800002,7.13121,0.006110925,-0.043260336,-0.038735468
OrientationDeg,1676593474704,120978334304821,338.0,-33.0,-13.0
UncalGyro,1676593474708,120978338795726,-0.6771441,-1.7983873,2.7279716,0.0005292649,-0.0008202031,-0.003373057
UncalMag,1676593474710,120978340010753,-65.819,14.2252,-106.9696,-44.47528,5.575939,-61.08579
UncalAccel,1676593474712,120978343284496,5.895915,-5.239085,7.9615192,0.006110925,-0.043260336,-0.038735468
OrientationDeg,1676593474713,120978343284496,337.0,-34.0,-12.0
UncalGyro,1676593474717,120978347776439,-0.83077675,-1.5818355,2.9776626,0.0005292649,-0.0008202031,-0.003373057
UncalMag,1676593474719,120978350010753,-67.7344,14.835199,-105.749596,-44.47528,5.575939,-61.08579
UncalAccel,1676593474721,120978352263927,6.5898337,-5.348557,8.250452,0.006110925,-0.043260336,-0.038735468
OrientationDeg,1676593474722,120978352263927,336.0,-35.0,-11.0
UncalGyro,1676593474726,120978356754650,-0.90285885,-1.449736,3.1483996,0.0005292649,-0.0008202031,-0.003373057
UncalMag,1676593474730,120978360010753,-65.4774,16.750599,-104.6394,-44.47528,5.575939,-61.08579
UncalAccel,1676593474731,120978361243175,7.545168,-5.3449674,7.906484,0.006110925,-0.043260336,-0.038735468
OrientationDeg,1676593474730,120978361243175,335.0,-36.0,-9.0
UncalGyro,1676593474734,120978365734447,-0.86590147,-1.487915,3.275612,0.0005292649,-0.0008202031,-0.003373057
UncalMag,1676593474740,120978370010753,-66.429,17.104399,-105.0542,-44.47528,5.575939,-61.08579
UncalAccel,1676593474739,120978370220287,8.390432,-4.822734,7.3986077,0.006110925,-0.043260336,-0.038735468
OrientationDeg,1676593474740,120978370220287,334.0,-37.0,-8.0
UncalGyro,1676593474744,120978374699047,-0.754724,-1.6106989,3.317151,0.0005292649,-0.0008202031,-0.003373057
UncalAccel,1676593474748,120978379190196,8.792427,-4.15394,7.213164,0.006110925,-0.043260336,-0.038735468
UncalMag,1676593474749,120978379999035,-68.2102,17.336199,-103.285194,-44.47528,5.575939,-61.08579
OrientationDeg,1676593474748,120978379190196,333.0,-38.0,-7.0
UncalGyro,1676593474753,120978383694286,-0.6559166,-1.7033978,3.2554536,0.0005292649,-0.0008202031,-0.003373057
UncalAccel,1676593474758,120978388184886,8.781659,-3.9858444,6.7184477,0.006110925,-0.043260336,-0.038735468
OrientationDeg,1676593474757,120978388184886,332.0,-39.0,-5.0
UncalMag,1676593474760,120978390010509,-66.8194,19.215,-103.1388,-44.47528,5.575939,-61.08579
UncalGyro,1676593474761,120978392676281,-0.6421721,-1.8092301,3.1873422,0.0005292649,-0.0008202031,-0.003373057
UncalAccel,1676593474766,120978397159984,8.765508,-4.106084,5.89771,0.006110925,-0.043260336,-0.038735468
OrientationDeg,1676593474767,120978397159984,331.0,-40.0,-4.0
UncalMag,1676593474769,120978400011242,-65.7092,20.1666,-101.992,-44.47528,5.575939,-61.08579
UncalGyro,1676593474770,120978401646862,-0.70264775,-2.0065396,3.1531336,0.0005289139,-0.0008145861,-0.0033722508
UncalAccel,1676593474776,120978406141308,8.690732,-4.4889355,6.0526447,0.006110925,-0.043260336,-0.038735468
OrientationDeg,1676593474776,120978406141308,330.0,-42.0,-3.0
UncalMag,1676593474780,120978410010998,-67.405,20.2032,-102.4312,-44.47528,5.575939,-61.08579
UncalGyro,1676593474780,120978410631847,-0.75625116,-2.1994202,3.1732922,0.0005287243,-0.0008115513,-0.0033718152
UncalAccel,1676593474784,120978415122265,8.922835,-4.883751,6.6568327,0.006110925,-0.043260336,-0.038735468
OrientationDeg,1676593474785,120978415122265,329.0,-43.0,-1.0
UncalGyro,1676593474788,120978419612255,-0.7501425,-2.378251,3.2160528,0.0005286956,-0.0008110921,-0.0033717493
UncalMag,1676593474789,120978420001964,-66.7096,21.8258,-99.368996,-44.47528,5.575939,-61.08579
UncalAccel,1676593474793,120978424100231,9.271589,-4.9956155,7.2825556,0.006110925,-0.043260336,-0.038735468
OrientationDeg,1676593474793,120978424100231,328.0,-44.0,0.0
UncalGyro,1676593474797,120978428591381,-0.675617,-2.5300512,3.2270484,0.0005286912,-0.0008110226,-0.0033717393
UncalMag,1676593474800,120978430010509,-68.7836,21.472,-101.6504,-44.47528,5.575939,-61.08579
UncalAccel,1676593474802,120978433079723,9.461819,-5.337191,6.8572316,0.006110925,-0.043260336,-0.038735468
OrientationDeg,1676593474802,120978433079723,327.0,-45.0,1.0
UncalGyro,1676593474806,120978437570873,-0.5725334,-2.7783678,3.2823317,0.0005286906,-0.0008110121,-0.003371738
UncalMag,1676593474810,120978440010753,-69.4424,22.740799,-101.016,-44.47528,5.575939,-61.08579
UncalAccel,1676593474811,120978442056407,9.936196,-5.9880385,6.322436,0.006110925,-0.043260336,-0.038735468
OrientationDeg,1676593474811,120978442056407,326.0,-47.0,2.0
UncalGyro,1676593474815,120978446538646,-0.4810564,-3.084106,3.4319937,0.00052869046,-0.0008110105,-0.0033717374
UncalMag,1676593474820,120978450010753,-69.0764,23.558199,-98.942,-44.47528,5.575939,-61.08579
UncalAccel,1676593474820,120978451039318,10.443475,-7.0450683,7.2245297,0.006110925,-0.043260336,-0.038735468
OrientationDeg,1676593474820,120978451039318,325.0,-49.0,4.0
UncalGyro,1676593474825,120978455530712,-0.46318856,-3.1764994,3.6612208,0.00052869046,-0.00081101025,-0.0033717374
UncalAccel,1676593474829,120978460018260,11.309078,-7.083353,8.581859,0.006110925,-0.043260336,-0.038735468
UncalMag,1676593474830,120978460018322,-70.6868,24.729399,-97.0144,-44.47528,5.575939,-61.08579
OrientationDeg,1676593474830,120978460018260,324.0,-50.0,6.0
UncalGyro,1676593474833,120978464495372,-0.5123632,-3.091131,3.880827,0.00052869046,-0.00081101025,-0.0033717374
UncalAccel,1676593474837,120978468986339,12.529418,-6.001797,9.2793665,0.006110925,-0.043260336,-0.038735468
UncalMag,1676593474838,120978469999279,-70.6868,24.729399,-97.0144,-44.47528,5.575939,-61.08579
OrientationDeg,1676593474838,120978468986339,323.0,-51.0,7.0
UncalGyro,1676593474842,120978473489879,-0.5374087,-2.9649873,3.955658,0.00052869046,-0.00081101025,-0.0033717374
Fix,FLP,37.4313009000,-122.1550440000,-16.200000762939453,0.40343314,4.919,346.89438,1676593474474,,,120978105327587,3.9667075
UncalAccel,1676593474847,120978477980357,13.271193,-5.435895,9.5665045,0.006110925,-0.043260336,-0.038735468
OrientationDeg,1676593474846,120978477980357,322.0,-53.0,9.0
UncalMag,1676593474850,120978480010509,-69.649796,26.7668,-97.209595,-44.47528,5.575939,-61.08579
UncalGyro,1676593474852,120978482471446,-0.5311473,-2.827848,3.9164097,0.00052869046,-0.00081101025,-0.0033717374
UncalAccel,1676593474855,120978486957103,13.500903,-5.562116,9.171689,0.006110925,-0.043260336,-0.038735468
OrientationDeg,1676593474855,120978486957103,321.0,-54.0,11.0
UncalMag,1676593474860,120978490010753,-72.297195,26.413,-97.4658,-44.47528,5.575939,-61.08579
UncalGyro,1676593474860,120978491448986,-0.54137933,-2.7430904,3.857614,0.00052869046,-0.00081101025,-0.0033717374
UncalAccel,1676593474865,120978495936474,13.174283,-5.74756,8.397013,0.006110925,-0.043260336,-0.038735468
OrientationDeg,1676593474864,120978495936474,320.0,-55.0,13.0
UncalMag,1676593474870,120978500010998,-71.3334,28.8286,-94.8428,-44.47528,5.575939,-61.08579
UncalGyro,1676593474869,120978500427318,-0.6032294,-2.7246118,3.8382192,0.00052869046,-0.00081101025,-0.0033717374
UncalAccel,1676593474873,120978504915965,12.748361,-6.3254266,7.8059855,0.006110925,-0.043260336,-0.038735468
OrientationDeg,1676593474874,120978504915965,319.0,-56.0,15.0
UncalGyro,1676593474878,120978509406871,-0.67347896,-2.721252,3.8342485,0.00052869046,-0.00081101025,-0.0033717374
UncalMag,1676593474879,120978509997570,-70.76,30.292599,-93.622795,-44.47528,5.575939,-61.08579
UncalAccel,1676593474882,120978513896068,12.633506,-6.972087,7.911868,0.006110925,-0.043260336,-0.038735468
OrientationDeg,1676593474883,120978513896068,318.0,-58.0,16.0
UncalGyro,1676593474887,120978518386486,-0.7122689,-2.689487,3.844175,0.00052869046,-0.00081101025,-0.0033717374
UncalMag,1676593474889,120978519992931,-68.868996,31.805399,-92.0856,-44.47528,5.575939,-61.08579
UncalAccel,1676593474891,120978522875621,11.983854,-7.1018977,8.008179,0.006110925,-0.043260336,-0.038735468
OrientationDeg,1676593474891,120978522875621,317.0,-59.0,18.0
UncalGyro,1676593474897,120978527367138,-0.71883565,-2.6558893,3.922671,0.00052869046,-0.00081101025,-0.0033717374
UncalMag,1676593474899,120978530008068,-69.015396,32.415398,-90.8412,-44.47528,5.575939,-61.08579
UncalAccel,1676593474900,120978531854808,11.281561,-7.0600233,7.3525457,0.006110925,-0.043260336,-0.038735468
OrientationDeg,1676593474900,120978531854808,317.0,-60.0,20.0
UncalGyro,1676593474905,120978536345714,-0.7290677,-2.691014,4.013079,0.00052869046,-0.00081101025,-0.0033717374
UncalMag,1676593474910,120978540010753,-67.795395,33.7818,-90.7436,-44.47528,5.575939,-61.08579
UncalAccel,1676593474909,120978540832714,10.822737,-7.2155566,6.4343,0.006110925,-0.043260336,-0.038735468
OrientationDeg,1676593474909,120978540832714,316.0,-61.0,22.0
UncalGyro,1676593474915,120978545320018,-0.7637343,-2.7708848,4.0813437,0.00052869046,-0.00081101025,-0.0033717374
UncalAccel,1676593474918,120978549813488,10.474581,-7.539784,5.925825,0.006110925,-0.043260336,-0.038735468
UncalMag,1676593474920,120978550008800,-67.0878,35.197,-91.5244,-44.47528,5.575939,-61.08579
OrientationDeg,1676593474919,120978549813488,315.0,-62.0,24.0
UncalGyro,1676593474923,120978554304760,-0.8197812,-2.7989845,4.120286,0.00052869046,-0.00081101025,-0.0033717374
UncalAccel,1676593474927,120978558794994,10.042078,-8.112865,5.7541404,0.006110925,-0.043260336,-0.038735468
OrientationDeg,1676593474928,120978558794994,315.0,-63.0,27.0
UncalMag,1676593474930,120978560010753,-68.2834,35.563,-90.28,-44.47528,5.575939,-61.08579
UncalGyro,1676593474932,120978563285228,-0.9108001,-2.7122416,4.161672,0.00052869046,-0.00081101025,-0.0033717374
UncalAccel,1676593474937,120978567772777,9.351749,-8.789435,5.51426,0.006110925,-0.043260336,-0.038735468
OrientationDeg,1676593474936,120978567772777,313.0,-64.0,29.0
UncalMag,1676593474940,120978570010998,-68.7592,36.0388,-90.2922,-44.47528,5.575939,-61.08579
UncalGyro,1676593474942,120978572263927,-1.0439687,-2.5732698,4.2638392,0.00052869046,-0.00081101025,-0.0033717374
UncalAccel,1676593474946,120978576752269,8.8187475,-9.558728,5.174479,0.006110925,-0.043260336,-0.038735468
OrientationDeg,1676593474945,120978576752269,313.0,-65.0,31.0
UncalMag,1676593474950,120978580010753,-70.4672,36.6488,-91.609795,-44.47528,5.575939,-61.08579
UncalGyro,1676593474950,120978581243541,-1.1919508,-2.4640777,4.4532075,0.00052869046,-0.00081101025,-0.0033717374
UncalAccel,1676593474955,120978585733532,8.897711,-10.383654,5.279763,0.006110925,-0.043260336,-0.038735468
OrientationDeg,1676593474954,120978585733532,311.0,-66.0,33.0
UncalMag,1676593474960,120978590010998,-71.0894,37.149,-93.293396,-44.47528,5.575939,-61.08579
UncalGyro,1676593474959,120978590225414,-1.281748,-2.4188735,4.666705,0.00052869046,-0.00081101025,-0.0033717374
UncalAccel,1676593474964,120978594700206,9.357133,-10.836495,6.1992054,0.006110925,-0.043260336,-0.038735468
OrientationDeg,1676593474963,120978594700206,311.0,-67.0,36.0
UncalGyro,1676593474968,120978599203380,-1.2360858,-2.409558,4.8469105,0.00052869046,-0.00081101025,-0.0033717374
UncalMag,1676593474970,120978600010753,-68.088196,39.3816,-92.7078,-44.47528,5.575939,-61.08579
UncalAccel,1676593474973,120978603689830,10.036695,-10.63849,7.819146,0.006110925,-0.043260336,-0.038735468
OrientationDeg,1676593474973,120978603689830,309.0,-68.0,39.0
UncalGyro,1676593474977,120978608181896,-1.0215194,-2.3629794,4.9968777,0.00052869046,-0.00081101025,-0.0033717374
UncalMag,1676593474980,120978610010998,-67.2342,40.5284,-91.561,-44.47528,5.575939,-61.08579
UncalAccel,1676593474981,120978612659008,10.728819,-10.061819,9.512068,0.006110925,-0.043260336,-0.038735468
OrientationDeg,1676593474982,120978612659008,308.0,-69.0,41.0
UncalGyro,1676593474987,120978617162609,-0.6808093,-2.1908681,5.135697,0.00052869046,-0.00081101025,-0.0033717374
UncalMag,1676593474990,120978620010998,-67.1854,40.7846,-90.523994,-44.47528,5.575939,-61.08579
UncalAccel,1676593474991,120978621650219,11.621342,-9.95175,10.384252,0.006110925,-0.043260336,-0.038735468
OrientationDeg,1676593474990,120978621650219,306.0,-69.0,44.0
UncalGyro,1676593474995,120978626144114,-0.30680707,-1.917506,5.2618403,0.00052869046,-0.00081101025,-0.0033717374
UncalMag,1676593474999,120978630009533,-65.819,41.3458,-89.7676,-44.47528,5.575939,-61.08579
UncalAccel,1676593474999,120978630627879,12.172289,-10.176077,10.5284195,0.006110925,-0.043260336,-0.038735468
OrientationDeg,1676593475000,120978630627879,305.0,-69.0,46.0
UncalGyro,1676593475004,120978635113536,0.030543262,-1.6103935,5.3995905,0.00052869046,-0.00081101025,-0.0033717374
UncalAccel,1676593475009,120978639609142,12.366706,-10.445868,10.223334,0.006110925,-0.043260336,-0.038735468
UncalMag,1676593475009,120978639999279,-64.7454,41.541,-88.779396,-44.47528,5.575939,-61.08579
OrientationDeg,1676593475009,120978639609142,303.0,-69.0,49.0
UncalGyro,1676593475013,120978644100048,0.33215797,-1.3723087,5.5660515,0.00052869046,-0.00081101025,-0.0033717374
UncalAccel,1676593475018,120978648590404,12.881761,-10.8759775,9.560523,0.006110925,-0.043260336,-0.038735468
OrientationDeg,1676593475017,120978648590404,300.0,-68.0,52.0
UncalMag,1676593475019,120978650010509,-59.902,43.188,-89.4504,-44.47528,5.575939,-61.08579
UncalGyro,1676593475022,120978653076793,0.6033822,-1.2153164,5.711437,0.00052869046,-0.00081101025,-0.0033717374
UncalAccel,1676593475027,120978657556957,13.667205,-10.804193,8.98804,0.006110925,-0.043260336,-0.038735468
OrientationDeg,1676593475026,120978657556957,297.0,-66.0,54.0
UncalMag,1676593475030,120978660010998,-59.6092,42.8098,-88.962395,-44.47528,5.575939,-61.08579
UncalGyro,1676593475031,120978662059459,0.8929323,-1.1771374,5.7963476,0.00052869046,-0.00081101025,-0.0033717374
Status,0,29,0,6,2,1176450050,40.25,74.0,79.0,1,1,1,36.15074
Status,0,29,1,6,2,1575420030,42.85,74.0,79.0,1,1,1,38.65466
Status,0,29,2,3,17,1604249980,42.95,279.0,74.0,1,1,1,38.751514
Status,0,29,3,1,11,1575420030,38.64,150.0,70.0,1,1,1,34.442627
Status,0,29,4,1,11,1176450050,41.86,150.0,70.0,1,1,1,37.76428
Status,0,29,5,6,36,1575420030,40.70,63.0,68.0,1,1,1,36.495453
Status,0,29,6,6,36,1176450050,37.82,63.0,68.0,1,1,1,33.71664
Status,0,29,7,3,15,1602000000,44.18,329.0,66.0,1,1,1,39.97822
Status,0,29,8,1,12,1575420030,43.51,322.0,56.0,1,1,1,39.30672
Status,0,29,9,3,14,1598062460,39.68,145.0,55.0,1,1,1,35.482594
Status,0,29,10,1,6,1176450050,40.19,54.0,52.0,1,1,1,36.086678
Status,0,29,11,1,6,1575420030,45.36,54.0,52.0,1,1,1,41.163795
Status,0,29,12,6,34,1575420030,43.31,201.0,51.0,1,1,1,39.108326
Status,0,29,13,6,34,1176450050,38.44,201.0,51.0,1,1,1,34.33956
Status,0,29,14,1,24,1575420030,46.48,226.0,45.0,1,1,1,42.28294
Status,0,29,15,1,24,1176450050,47.45,226.0,45.0,1,1,1,43.352936
Status,0,29,16,6,30,1575420030,43.20,314.0,40.0,1,1,1,38.99864
Status,0,29,17,6,30,1176450050,33.54,314.0,40.0,1,1,1,29.436504
Status,0,29,18,3,24,1603124990,42.43,30.0,39.0,1,1,1,38.22982
Status,0,29,19,1,19,1575420030,44.32,55.0,32.0,1,1,1,40.119953
Status,0,29,20,6,25,1176450050,33.16,121.0,31.0,1,1,1,29.063652
Status,0,29,21,6,25,1575420030,39.36,121.0,31.0,1,1,1,35.159115
Status,0,29,22,3,18,1600312450,44.54,230.0,28.0,1,1,1,40.336166
Status,0,29,23,1,25,1176450050,41.94,310.0,27.0,1,1,1,37.836964
Status,0,29,24,1,25,1575420030,42.61,310.0,27.0,1,1,1,38.412655
Status,0,29,25,6,11,1575420030,38.18,41.0,20.0,1,1,1,33.97737
Status,0,29,26,6,11,1176450050,30.85,41.0,20.0,1,1,1,26.752571
Status,0,29,27,1,20,1575420030,39.40,147.0,20.0,1,1,1,35.19545
Status,0,29,28,3,16,1601437440,44.28,327.0,13.0,1,1,1,40.080956
UncalAccel,1676593475036,120978666548473,14.69253,-10.488938,8.446066,0.006110925,-0.043260336,-0.038735468
OrientationDeg,1676593475036,120978666548473,293.0,-64.0,57.0
Fix,GPS,37.4312777641,-122.1550472514,-18.6299150751139,0.2299723,2.9326632,302.50778,1676593474000,0.113403924,23.315683,120978584598000,3.0
UncalMag,1676593475040,120978670010753,-59.5604,42.5414,-91.268196,-44.47528,5.575939,-61.08579
Fix,FLP,37.4313002000,-122.1550441000,-16.200000762939453,0.39120248,4.926,352.65775,1676593475014,,,120978644100048,3.758982
UncalGyro,1676593475041,120978671042979,1.2211196,-1.2452488,5.7830615,0.00052869046,-0.00081101025,-0.0033717374
Raw,1676593474000,113539000000,,,-1360628578461148947,0.0,7.399064575115609,294.0,1.0,17,6,0.0,16431,433491929656922,14,42.2602424621582,443.70556174575063,0.15,16,49727.026849906615,340282346638528860000000000000000000000,1575420030,,,,0,,1,,38.06024169921875,0.320142130558394,1.0,0.320142130558394,1.0,C,120978584598000
Raw,1676593474000,113539000000,,,-1360628578461148947,0.0,7.399064575115609,294.0,1.0,17,11,0.0,16431,433491931656326,27,34.16986846923828,-111.07769098155654,0.6030365465730898,16,-13286.731630533119,340282346638528860000000000000000000000,1575420030,,,,0,,1,,29.969867706298828,-0.20372681261465636,1.0,-0.20372681261465636,1.0,C,120978584598000
Raw,1676593474000,113539000000,,,-1360628578461148947,0.0,7.399064575115609,294.0,1.0,17,12,0.0,16431,433491930439813,13,43.50672149658203,-256.71603239216677,0.15,16,-29431.06783055051,340282346638528860000000000000000000000,1575420030,,,,0,,1,,39.30672073364258,-0.6984919076624261,1.0,-0.6984919076624261,1.0,C,120978584598000
Raw,1676593474000,113539000000,,,-1360628578461148947,0.0,7.399064575115609,294.0,1.0,17,19,0.0,16431,433491925599300,17,40.1351318359375,574.0319335327817,0.15,16,64902.133426448876,340282346638528860000000000000000000000,1575420030,,,,0,,1,,35.93513107299805,0.0,1.0,0.0,1.0,C,120978584598000
Raw,1676593474000,113539000000,,,-1360628578461148947,0.0,7.399064575115609,294.0,1.0,17,20,0.0,16431,433491921101366,32,32.07006072998047,-482.02971631265086,0.6955638924373262,16,-54448.018756565405,340282346638528860000000000000000000000,1575420030,,,,0,,1,,27.87006187438965,0.0,1.0,0.0,1.0,C,120978584598000
Raw,1676593474000,113539000000,,,-1360628578461148947,0.0,7.399064575115609,294.0,1.0,17,24,0.0,16431,433491927268981,12,43.794071197509766,513.9174671301314,0.15,16,57776.06777971344,340282346638528860000000000000000000000,1575420030,,,,0,,1,,39.59407043457031,-0.20372681261465636,1.0,-0.20372681261465636,1.0,C,120978584598000
Raw,1676593474000,113539000000,,,-1360628578461148947,0.0,7.399064575115609,294.0,1.0,17,25,0.0,16431,433491924673607,15,41.478981018066406,-483.73032864576953,0.15,16,-54941.636093125875,340282346638528860000000000000000000000,1575420030,,,,0,,1,,37.27898025512695,-2.0372682255564105,1.0,-2.0372682255564105,1.0,C,120978584598000
Raw,1676593474000,113539000000,,,-1360628578461148947,0.0,7.399064575115609,294.0,1.0,17,6,0.0,81921,433491929657459,11,35.611324310302734,443.6317050624657,0.5333595240721098,16,51069.431867432046,340282346638528860000000000000000000000,1176450050,,,,0,,1,,31.511323928833008,1.9208527336454408,2.0868951765628787,1.9208527336454408,1.0,Q,120978584598000
Raw,1676593474000,113539000000,,,-1360628578461148947,0.0,7.399064575115609,294.0,1.0,17,11,0.0,81921,433491931656902,8,38.94532012939453,-111.2966707647156,0.15,16,-13664.229236859,340282346638528860000000000000000000000,1176450050,,,,0,,1,,34.84532165527344,0.0,2.0868951765628787,0.0,1.0,Q,120978584598000
Raw,1676593474000,113539000000,,,-1360628578461148947,0.0,7.399064575115609,294.0,1.0,17,24,0.0,81921,433491927269522,8,44.629234313964844,513.8965064193699,0.15,16,59337.77607887794,340282346638528860000000000000000000000,1176450050,,,,0,,1,,40.52923583984375,3.5215636101095664,2.0868951765628787,3.5215636101095664,1.0,Q,120978584598000
Raw,1676593474000,113539000000,,,-1360628578461148947,0.0,7.399064575115609,294.0,1.0,17,25,0.0,81921,433491924674134,8,40.251243591308594,-483.7519710056615,0.15,16,-56425.691537094455,340282346638528860000000000000000000000,1176450050,,,,0,,1,,36.1512451171875,1.0186341127782053,2.0868951765628787,1.0186341127782053,1.0,Q,120978584598000
Raw,1676593474000,113539000000,,,-1360628578461148947,0.0,7.399064575115609,294.0,1.0,17,14,0.0,32995,12273933493100,67,31.749588012695312,524.3638082192858,0.712204252430801,16,58624.723627396794,340282346638528860000000000000000000000,1598062460,,,,0,,3,,27.549589157104492,50.29141902923584,2.0000000474974513,50.29141902923584,2.0000000474974513,C,120978584598000
Raw,1676593474000,113539000000,,,-1360628578461148947,0.0,7.399064575115609,294.0,1.0,17,18,0.0,32995,12273927405309,33,43.05485153198242,-505.74296034541794,0.15,16,-57478.053891122516,340282346638528860000000000000000000000,1600312450,,,,0,,3,,38.85485076904297,50.29141902923584,2.0000000474974513,50.29141902923584,2.0000000474974513,C,120978584598000
Raw,1676593474000,113539000000,,,-1360628578461148947,0.0,7.399064575115609,294.0,1.0,17,16,0.0,32995,12273922311204,33,42.44740295410156,-680.4044391439948,0.15,16,-76797.91802277481,340282346638528860000000000000000000000,1601437440,,,,0,,3,,38.24740219116211,50.29141902923584,2.0000000474974513,50.29141902923584,2.0000000474974513,C,120978584598000
Raw,1676593474000,113539000000,,,-1360628578461148947,0.0,7.399064575115609,294.0,1.0,17,15,0.0,32995,12273934981985,33,41.84297180175781,-235.52574220350073,0.15,16,-27362.523756101436,340282346638528860000000000000000000000,1602000000,,,,0,,3,,37.64297103881836,50.29141902923584,2.0000000474974513,50.29141902923584,2.0000000474974513,C,120978584598000
Raw,1676593474000,113539000000,,,-1360628578461148947,0.0,7.399064575115609,294.0,1.0,17,24,0.0,32867,12273930154938,33,41.23263931274414,682.0674585275688,0.15,16,77651.68555231333,340282346638528860000000000000000000000,1603124990,,,,0,,3,,37.03263854980469,50.29141902923584,2.0000000474974513,50.29141902923584,2.0000000474974513,C,120978584598000
Raw,1676593474000,113539000000,,,-1360628578461148947,0.0,7.399064575115609,294.0,1.0,17,17,0.0,32867,12273936232636,33,41.01696014404297,47.16161199436007,0.15,16,4639.543089543903,340282346638528860000000000000000000000,1604249980,,,,0,,3,,36.816959381103516,50.29141902923584,2.0000000474974513,50.29141902923584,2.0000000474974513,C,120978584598000
Raw,1676593474000,113539000000,,,-1360628578461148947,0.0,7.399064575115609,294.0,1.0,17,2,0.0,85026,433491922379473,18,39.13785171508789,112.29076229473054,0.15,16,12595.530237590076,340282346638528860000000000000000000000,1575420030,,,,0,,6,,34.93785095214844,-6.024492904543876,1.5000000237487257,-6.024492904543876,1.5000000237487257,C,120978584598000
Raw,1676593474000,113539000000,,,-1360628578461148947,0.0,7.399064575115609,294.0,1.0,17,11,0.0,85026,433491911535217,23,36.06433868408203,596.6894734747548,0.15,16,67651.17922795285,340282346638528860000000000000000000000,1575420030,,,,0,,6,,31.864337921142578,-6.024492904543876,1.5000000237487257,-6.024492904543876,1.5000000237487257,C,120978584598000
Raw,1676593474000,113539000000,,,-1360628578461148947,0.0,7.399064575115609,294.0,1.0,17,25,0.0,85026,433491913407919,23,36.37620162963867,484.1293660467386,0.15,16,54060.59376267993,340282346638528860000000000000000000000,1575420030,,,,1,,6,,32.17620086669922,-6.024492904543876,1.5000000237487257,-6.024492904543876,1.5000000237487257,C,120978584598000
Raw,1676593474000,113539000000,,,-1360628578461148947,0.0,7.399064575115609,294.0,1.0,17,30,0.0,85026,433491915097338,14,42.316532135009766,-305.54656429538636,0.15,16,-34781.61316781173,340282346638528860000000000000000000000,1575420030,,,,0,,6,,38.11653137207031,-6.024492904543876,1.5000000237487257,-6.024492904543876,1.5000000237487257,C,120978584598000
Raw,1676593474000,113539000000,,,-1360628578461148947,0.0,7.399064575115609,294.0,1.0,17,34,0.0,85026,433491918931090,16,40.82795333862305,-298.56180790297117,0.15,16,-34122.72738755975,340282346638528860000000000000000000000,1575420030,,,,0,,6,,36.627952575683594,-6.024492904543876,1.5000000237487257,-6.024492904543876,1.5000000237487257,C,120978584598000
Raw,1676593474000,113539000000,,,-1360628578461148947,0.0,7.399064575115609,294.0,1.0,17,36,0.0,85026,433491921420165,20,38.02354049682617,227.36641915316818,0.15,16,25694.962329041708,340282346638528860000000000000000000000,1575420030,,,,0,,6,,33.82353973388672,-6.024492904543876,1.5000000237487257,-6.024492904543876,1.5000000237487257,C,120978584598000
Raw,1676593474000,113539000000,,,-1360628578461148947,0.0,7.399064575115609,294.0,1.0,17,2,0.0,84003,433491922380027,10,36.83256530761719,111.92346418139834,0.15,16,12561.710937787819,340282346638528860000000000000000000000,1176450050,,,,0,,6,,32.732566833496094,-3.808038309216499,2.5868952003116044,-3.808038309216499,1.5000000237487257,Q,120978584598000
Raw,1676593474000,113539000000,,,-1360628578461148947,0.0,7.399064575115609,294.0,1.0,17,11,0.0,84003,433491911535760,34,28.093568801879883,596.7313267313648,0.8717624042864021,16,69287.18451805058,340282346638528860000000000000000000000,1176450050,,,,0,,6,,23.993568420410156,5.057780072093007,2.5868952003116044,5.057780072093007,1.5000000237487257,Q,120978584598000
Raw,1676593474000,113539000000,,,-1360628578461148947,0.0,7.399064575115609,294.0,1.0,17,25,0.0,84003,433491913408516,54,25.522157669067383,484.24585988313356,0.987732688883415,16,53559.78053024455,340282346638528860000000000000000000000,1176450050,,,,0,,6,,21.422157287597656,-8.979765698313711,2.5868952003116044,-8.979765698313711,1.5000000237487257,Q,120978584598000
Raw,1676593474000,113539000000,,,-1360628578461148947,0.0,7.399064575115609,294.0,1.0,17,30,0.0,84003,433491915097875,14,31.744009017944336,-305.6187509383017,0.7082468931381749,16,-35934.6056593429,340282346638528860000000000000000000000,1176450050,,,,0,,6,,27.64400863647461,-8.425652049481869,2.5868952003116044,-8.425652049481869,1.5000000237487257,Q,120978584598000
Raw,1676593474000,113539000000,,,-1360628578461148947,0.0,7.399064575115609,294.0,1.0,17,34,0.0,84003,433491918931644,8,36.50844955444336,-298.56119441875376,0.15,16,-34846.44088087838,340282346638528860000000000000000000000,1176450050,,,,0,,6,,32.408451080322266,-11.011515744030472,2.5868952003116044,-11.011515744030472,1.5000000237487257,Q,120978584598000
Raw,1676593474000,113539000000,,,-1360628578461148947,0.0,7.399064575115609,294.0,1.0,17,36,0.0,84003,433491921420704,12,33.05219268798828,227.17629016945568,0.6505565441184014,16,25815.63134686072,340282346638528860000000000000000000000,1176450050,,,,0,,6,,28.952194213867188,-11.750333942472933,2.5868952003116044,-11.750333942472933,1.5000000237487257,Q,120978584598000
UncalAccel,1676593475044,120978675524669,15.610177,-10.278968,8.179864,0.006110925,-0.043260336,-0.038735468
OrientationDeg,1676593475045,120978675524669,289.0,-62.0,59.0
UncalGyro,1676593475050,120978680004527,1.5867225,-1.3110695,5.6834903,0.00052869046,-0.00081101025,-0.0033717374
UncalMag,1676593475049,120978680018810,-56.913,42.7854,-91.8538,-44.47528,5.575939,-61.08579
UncalAccel,1676593475053,120978684498851,16.389639,-10.048658,8.117651,0.006110925,-0.043260336,-0.038735468
OrientationDeg,1676593475053,120978684498851,283.0,-58.0,61.0
UncalGyro,1676593475057,120978688999218,1.9897408,-1.3342824,5.5251236,0.00052869046,-0.00081101025,-0.0033717374
UncalMag,1676593475060,120978690010753,-53.972797,43.4442,-90.828995,-44.47528,5.575939,-61.08579
UncalAccel,1676593475063,120978693489268,16.746767,-9.677173,7.7210402,0.006110925,-0.043260336,-0.038735468
OrientationDeg,1676593475063,120978693489268,278.0,-54.0,62.0
UncalGyro,1676593475066,120978697979137,2.4275784,-1.3370314,5.3194146,0.00052869046,-0.00081101025,-0.0033717374
UncalMag,1676593475069,120978700010753,-49.922398,43.456398,-90.89,-44.47528,5.575939,-61.08579
UncalAccel,1676593475072,120978702465099,16.814365,-9.284152,7.2323065,0.006110925,-0.043260336,-0.038735468
OrientationDeg,1676593475072,120978702465099,271.0,-50.0,64.0
UncalGyro,1676593475075,120978706958385,2.8524354,-1.2353222,5.074305,0.00052869046,-0.00081101025,-0.0033717374
UncalMag,1676593475080,120978710010753,-50.1054,42.0778,-91.3902,-44.47528,5.575939,-61.08579
UncalAccel,1676593475080,120978711445934,16.920845,-9.324232,5.907879,0.006110925,-0.043260336,-0.038735468
OrientationDeg,1676593475081,120978711445934,264.0,-44.0,64.0
UncalGyro,1676593475085,120978715937084,3.1436653,-1.1743884,4.8058295,0.00052869046,-0.00081101025,-0.0033717374
UncalMag,1676593475089,120978719995617,-48.0192,40.2966,-92.0856,-44.47528,5.575939,-61.08579
UncalAccel,1676593475090,120978720425060,16.307684,-8.894122,4.249055,0.006110925,-0.043260336,-0.038735468
OrientationDeg,1676593475090,120978720425060,257.0,-39.0,65.0
UncalGyro,1676593475094,120978724916210,3.334866,-1.310306,4.510171,0.00052869046,-0.00081101025,-0.0033717374
UncalAccel,1676593475098,120978729404491,15.48575,-8.352746,3.5904303,0.006110925,-0.043260336,-0.038735468
UncalMag,1676593475098,120978729999279,-45.249798,40.7846,-93.879,-44.47528,5.575939,-61.08579
OrientationDeg,1676593475098,120978729404491,250.0,-33.0,65.0
UncalGyro,1676593475103,120978733895519,3.545462,-1.4556919,4.2342124,0.00052869046,-0.00081101025,-0.0033717374
UncalAccel,1676593475108,120978738384532,14.496916,-8.289336,3.0382864,0.006110925,-0.043260336,-0.038735468
OrientationDeg,1676593475107,120978738384532,244.0,-28.0,64.0
UncalMag,1676593475109,120978740010753,-43.7248,39.833,-95.6724,-44.47528,5.575939,-61.08579
UncalGyro,1676593475112,120978742876354,3.7760634,-1.6032158,4.020257,0.00052869046,-0.00081101025,-0.0033717374
UncalAccel,1676593475117,120978747364086,13.772489,-8.745767,2.3844478,0.006110925,-0.043260336,-0.038735468
OrientationDeg,1676593475116,120978747364086,238.0,-24.0,63.0
UncalMag,1676593475119,120978750010753,-44.7374,38.1616,-100.0888,-44.47528,5.575939,-61.08579
UncalGyro,1676593475121,120978751851817,3.9858956,-1.7675385,3.8374555,0.00052869046,-0.00081101025,-0.0033717374
UncalAccel,1676593475125,120978756331493,13.013366,-9.364311,1.7054844,0.006110925,-0.043260336,-0.038735468
OrientationDeg,1676593475126,120978756331493,232.0,-20.0,62.0
UncalMag,1676593475130,120978760010998,-41.906998,37.271,-98.3198,-44.47528,5.575939,-61.08579
UncalGyro,1676593475130,120978760834972,4.172668,-1.9333885,3.6693149,0.00052869046,-0.00081101025,-0.0033717374
UncalAccel,1676593475135,120978765323009,12.164512,-9.753145,1.1377872,0.006110925,-0.043260336,-0.038735468
OrientationDeg,1676593475134,120978765323009,227.0,-17.0,60.0
UncalGyro,1676593475139,120978769816783,4.3169847,-2.0906863,3.516293,0.00052869046,-0.00081101025,-0.0033717374
UncalMag,1676593475139,120978770007091,-39.735397,36.5268,-100.0888,-44.47528,5.575939,-61.08579
UncalAccel,1676593475144,120978774302806,11.404791,-9.820743,0.37627137,0.006110925,-0.043260336,-0.038735468
OrientationDeg,1676593475144,120978774302806,222.0,-14.0,59.0
UncalGyro,1676593475148,120978778794201,4.395328,-2.2883012,3.3783903,0.00052869046,-0.00081101025,-0.0033717374
UncalMag,1676593475149,120978780010753,-40.687,34.404,-101.1502,-44.47528,5.575939,-61.08579
UncalAccel,1676593475153,120978783282055,10.79821,-9.615558,-0.0071784677,0.006110925,-0.043260336,-0.038735468
OrientationDeg,1676593475152,120978783282055,218.0,-12.0,57.0
UncalGyro,1676593475156,120978787772899,4.4232755,-2.487596,3.233768,0.00052869046,-0.00081101025,-0.0033717374
UncalMag,1676593475160,120978790010753,-38.8204,33.1474,-102.028595,-44.47528,5.575939,-61.08579
UncalAccel,1676593475161,120978792261302,10.206585,-9.166306,-0.15972091,0.006110925,-0.043260336,-0.038735468
OrientationDeg,1676593475162,120978792261302,215.0,-10.0,55.0
UncalGyro,1676593475166,120978796748423,4.4296894,-2.6578746,3.0761647,0.00052869046,-0.00081101025,-0.0033717374
UncalMag,1676593475169,120978800010753,-39.3938,30.5732,-103.6512,-44.47528,5.575939,-61.08579
UncalAccel,1676593475171,120978801224865,9.521041,-8.52443,-0.33140594,0.006110925,-0.043260336,-0.038735468
OrientationDeg,1676593475171,120978801224865,212.0,-9.0,53.0
