# 
# Header Description:
# 
# Version: v3.0.5.6 Platform: 13 Manufacturer: Google Model: Pixel 6
# 
# Raw,utcTimeMillis,TimeNanos,LeapSecond,TimeUncertaintyNanos,FullBiasNanos,BiasNanos,BiasUncertaintyNanos,DriftNanosPerSecond,DriftUncertaintyNanosPerSecond,HardwareClockDiscontinuityCount,Svid,TimeOffsetNanos,State,ReceivedSvTimeNanos,ReceivedSvTimeUncertaintyNanos,Cn0DbHz,PseudorangeRateMetersPerSecond,PseudorangeRateUncertaintyMetersPerSecond,AccumulatedDeltaRangeState,AccumulatedDeltaRangeMeters,AccumulatedDeltaRangeUncertaintyMeters,CarrierFrequencyHz,CarrierCycles,CarrierPhase,CarrierPhaseUncertainty,MultipathIndicator,SnrInDb,ConstellationType,AgcDb,BasebandCn0DbHz,FullInterSignalBiasNanos,FullInterSignalBiasUncertaintyNanos,SatelliteInterSignalBiasNanos,SatelliteInterSignalBiasUncertaintyNanos,CodeType,ChipsetElapsedRealtimeNanos
# 
# UncalAccel,utcTimeMillis,elapsedRealtimeNanos,UncalAccelXMps2,UncalAccelYMps2,UncalAccelZMps2,BiasXMps2,BiasYMps2,BiasZMps2
# 
# Accel,utcTimeMillis,elapsedRealtimeNanos,AccelXMps2,AccelYMps2,AccelZMps2
# 
# UncalGyro,utcTimeMillis,elapsedRealtimeNanos,UncalGyroXRadPerSec,UncalGyroYRadPerSec,UncalGyroZRadPerSec,DriftXRadPerSec,DriftYRadPerSec,DriftZRadPerSec
# 
# Gyro,utcTimeMillis,elapsedRealtimeNanos,GyroXRadPerSec,GyroYRadPerSec,GyroZRadPerSec
# 
# UncalMag,utcTimeMillis,elapsedRealtimeNanos,UncalMagXMicroT,UncalMagYMicroT,UncalMagZMicroT,BiasXMicroT,BiasYMicroT,BiasZMicroT
# 
# Mag,utcTimeMillis,elapsedRealtimeNanos,MagXMicroT,MagYMicroT,MagZMicroT
# 
# OrientationDeg,utcTimeMillis,elapsedRealtimeNanos,yawDeg,rollDeg,pitchDeg
# 
# Fix,Provider,LatitudeDegrees,LongitudeDegrees,AltitudeMeters,SpeedMps,AccuracyMeters,BearingDegrees,UnixTimeMillis,SpeedAccuracyMps,BearingAccuracyDegrees,elapsedRealtimeNanos,VerticalAccuracyMeters
# 
# Nav,Svid,Type,Status,MessageId,Sub-messageId,Data(Bytes)
# 
# Status,UnixTimeMillis,SignalCount,SignalIndex,ConstellationType,Svid,CarrierFrequencyHz,Cn0DbHz,AzimuthDegrees,ElevationDegrees,UsedInFix,HasAlmanacData,HasEphemerisData,BasebandCn0DbHz
# 
UncalGyro,1676591803767,119307397032604,1.0862712,-0.7812967,0.020005837,0.0006129305,-0.00073195755,-0.0031130211
UncalMag,1676591803770,119307401289562,-61.060997,-22.326,-104.859,-47.214203,4.776456,-64.190285
UncalAccel,1676591803770,119307401515209,-1.4985052,2.4831517,8.989237,0.006110925,-0.043260336,-0.038735468
UncalGyro,1676591803775,119307406022594,0.98700553,-0.7254025,0.07925977,0.0006129305,-0.00073195755,-0.0031130211
OrientationDeg,1676591803770,119307401515209,133.0,4.0,-17.0
Fix,FLP,37.4307974000,-122.1550419000,-16.100000381469727,0.004948328,6.081,,1676591803020,,,119306651671703,3.7429435
UncalAccel,1676591803780,119307410506297,-1.1718849,2.687738,8.777472,0.006110925,-0.043260336,-0.038735468
UncalMag,1676591803781,119307411277843,-61.854,-22.4846,-103.0778,-47.214203,4.776456,-64.190285
OrientationDeg,1676591803779,119307410506297,133.0,4.0,-17.0
UncalGyro,1676591803784,119307414996166,0.80481493,-0.5821546,0.12583824,0.0006129305,-0.00073195755,-0.0031130211
UncalAccel,1676591803788,119307419480419,-0.83988076,2.8725836,8.394022,0.006110925,-0.043260336,-0.038735468
OrientationDeg,1676591803789,119307419480419,133.0,4.0,-18.0
UncalMag,1676591803791,119307421289562,-61.6466,-23.3996,-102.0652,-47.214203,4.776456,-64.190285
UncalGyro,1676591803792,119307423972972,0.56505036,-0.4289801,0.16600263,0.0006129305,-0.00073195755,-0.0031130211
UncalAccel,1676591803798,119307428461986,-0.5832505,3.101098,8.009974,0.006110925,-0.043260336,-0.038735468
OrientationDeg,1676591803797,119307428461986,133.0,3.0,-18.0
UncalMag,1676591803800,119307431289318,-63.9158,-24.2536,-104.7126,-47.214203,4.776456,-64.190285
UncalGyro,1676591803801,119307432953502,0.3034473,-0.30848694,0.18585575,0.0006129305,-0.00073195755,-0.0031130211
UncalAccel,1676591803807,119307437442455,-0.4331009,3.3254254,7.8023963,0.006110925,-0.043260336,-0.038735468
OrientationDeg,1676591803807,119307437442455,133.0,3.0,-18.0
UncalMag,1676591803811,119307441289562,-62.756798,-23.911999,-102.9924,-47.214203,4.776456,-64.190285
UncalGyro,1676591803811,119307441933788,0.048716504,-0.22464569,0.17837265,0.0006129305,-0.00073195755,-0.0031130211
UncalAccel,1676591803816,119307446423717,-0.3188436,3.4109688,7.941778,0.006110925,-0.043260336,-0.038735468
OrientationDeg,1676591803815,119307446423717,133.0,3.0,-18.0
UncalGyro,1676591803819,119307450910960,-0.17577648,-0.14950927,0.1498147,0.0006129305,-0.00073195755,-0.0031130211
UncalMag,1676591803821,119307451281261,-62.6348,-23.7412,-103.5414,-47.214203,4.776456,-64.190285
UncalAccel,1676591803824,119307455392161,-0.2440679,3.434897,8.289934,0.006110925,-0.043260336,-0.038735468
OrientationDeg,1676591803825,119307455392161,133.0,3.0,-18.0
UncalGyro,1676591803829,119307459898326,-0.34865135,-0.08124508,0.106137834,0.0006129305,-0.00073195755,-0.0031130211
UncalMag,1676591803831,119307461277599,-64.5746,-24.4854,-102.9924,-47.214203,4.776456,-64.190285
UncalAccel,1676591803833,119307464383190,-0.22731815,3.3966117,8.799605,0.006110925,-0.043260336,-0.038735468
OrientationDeg,1676591803834,119307464383190,133.0,3.0,-18.0
UncalGyro,1676591803838,119307468877392,-0.45234573,-0.009468411,0.05299256,0.0006129305,-0.00073195755,-0.0031130211
UncalMag,1676591803841,119307471289318,-62.0858,-23.3874,-103.0412,-47.214203,4.776456,-64.190285
UncalAccel,1676591803842,119307473357677,-0.29312077,3.2338998,9.31825,0.006110925,-0.043260336,-0.038735468
OrientationDeg,1676591803842,119307473357677,133.0,3.0,-18.0
UncalGyro,1676591803847,119307477836436,-0.4802928,0.069791354,0.007483099,0.0006129305,-0.00073195755,-0.0031130211
UncalMag,1676591803851,119307481289318,-64.7088,-23.789999,-104.4808,-47.214203,4.776456,-64.190285
UncalAccel,1676591803851,119307482345104,-0.38285163,3.004787,9.692726,0.006110925,-0.043260336,-0.038735468
OrientationDeg,1676591803852,119307482345104,133.0,3.0,-17.0
UncalGyro,1676591803856,119307486834850,-0.4370741,0.13897185,-0.019547688,0.0006129305,-0.00073195755,-0.0031130211
UncalMag,1676591803861,119307491289318,-63.549797,-24.2414,-103.9806,-47.214203,4.776456,-64.190285
UncalAccel,1676591803860,119307491326549,-0.4755735,2.7942185,9.839287,0.006110925,-0.043260336,-0.038735468
OrientationDeg,1676591803861,119307491326549,133.0,3.0,-17.0
UncalGyro,1676591803865,119307495807079,-0.35277468,0.19043724,-0.03436117,0.0006129305,-0.00073195755,-0.0031130211
UncalAccel,1676591803870,119307500304820,-0.5665008,2.6889346,9.742975,0.006110925,-0.043260336,-0.038735468
UncalMag,1676591803870,119307501277599,-64.904,-24.302399,-104.9566,-47.214203,4.776456,-64.190285
OrientationDeg,1676591803870,119307500304820,133.0,3.0,-17.0
UncalGyro,1676591803873,119307504795238,-0.26190847,0.21471913,-0.04138612,0.0006129305,-0.00073195755,-0.0031130211
UncalAccel,1676591803879,119307509286021,-0.59342,2.713461,9.442677,0.006110925,-0.043260336,-0.038735468
UncalMag,1676591803880,119307511289318,-63.1106,-23.253199,-103.5536,-47.214203,4.776456,-64.190285
OrientationDeg,1676591803878,119307509286021,133.0,3.0,-17.0
UncalGyro,1676591803883,119307513775585,-0.19746219,0.19120082,-0.041233405,0.0006129305,-0.00073195755,-0.0031130211
UncalAccel,1676591803888,119307518265514,-0.6442675,2.751746,9.147162,0.006110925,-0.043260336,-0.038735468
OrientationDeg,1676591803888,119307518265514,133.0,4.0,-17.0
UncalMag,1676591803891,119307521289318,-66.4534,-25.388199,-109.5316,-47.214203,4.776456,-64.190285
UncalGyro,1676591803892,119307522755809,-0.15134187,0.13561209,-0.02977968,0.0006129305,-0.00073195755,-0.0031130211
UncalAccel,1676591803897,119307527245006,-0.7148558,2.7714868,8.965906,0.006110925,-0.043260336,-0.038735468
OrientationDeg,1676591803896,119307527245006,133.0,4.0,-17.0
UncalMag,1676591803901,119307531289562,-61.4026,-22.7896,-103.443794,-47.214203,4.776456,-64.190285
UncalGyro,1676591803901,119307531736705,-0.12140947,0.06505715,-0.011301007,0.0006129305,-0.00073195755,-0.0031130211
UncalAccel,1676591803906,119307536224986,-0.718445,2.8002007,8.842078,0.006110925,-0.043260336,-0.038735468
OrientationDeg,1676591803906,119307536224986,133.0,4.0,-17.0
UncalGyro,1676591803910,119307540716197,-0.10247265,0.00030543262,0.002443461,0.0006129305,-0.00073195755,-0.0031130211
UncalMag,1676591803911,119307541285656,-65.6238,-24.4244,-103.590195,-47.214203,4.776456,-64.190285
UncalAccel,1676591803914,119307545204967,-0.6753742,2.8426733,8.804391,0.006110925,-0.043260336,-0.038735468
OrientationDeg,1676591803914,119307545204967,133.0,4.0,-17.0
UncalGyro,1676591803919,119307549696666,-0.10140363,-0.05375614,0.0,0.0006129305,-0.00073195755,-0.0031130211
UncalMag,1676591803920,119307551282482,-62.8178,-23.0702,-103.944,-47.214203,4.776456,-64.190285
UncalAccel,1676591803923,119307554186412,-0.6418747,2.833102,8.813962,0.006110925,-0.043260336,-0.038735468
OrientationDeg,1676591803924,119307554186412,133.0,4.0,-17.0
UncalGyro,1676591803928,119307558676647,-0.11301007,-0.093004234,-0.007788532,0.0006129305,-0.00073195755,-0.0031130211
UncalMag,1676591803930,119307561277355,-62.6226,-22.9116,-104.370995,-47.214203,4.776456,-64.190285
UncalAccel,1676591803932,119307563165660,-0.61914283,2.7852457,8.92822,0.006110925,-0.043260336,-0.038735468
OrientationDeg,1676591803933,119307563165660,133.0,3.0,-16.0
UncalGyro,1676591803937,119307567656627,-0.13133603,-0.09896017,-0.010537425,0.0006129305,-0.00073195755,-0.0031130211
UncalMag,1676591803940,119307571289562,-62.708,-22.57,-105.5422,-47.214203,4.776456,-64.190285
UncalAccel,1676591803941,119307572145824,-0.58683974,2.7032914,9.094521,0.006110925,-0.043260336,-0.038735468
OrientationDeg,1676591803942,119307572145824,133.0,3.0,-16.0
UncalGyro,1676591803946,119307576636852,-0.16340645,-0.061850104,-0.004886922,0.0006129305,-0.00073195755,-0.0031130211
UncalAccel,1676591803950,119307581126049,-0.5072784,2.626123,9.190233,0.006110925,-0.043260336,-0.038735468
UncalMag,1676591803951,119307581288097,-62.768997,-22.899399,-106.2498,-47.214203,4.776456,-64.190285
UncalGyro,1676591803955,119307585617320,-0.20570888,-0.020616703,0.007330383,0.0006129305,-0.00073195755,-0.0031130211
OrientationDeg,1676591803951,119307581126049,133.0,3.0,-16.0
UncalAccel,1676591803959,119307590107311,-0.43609193,2.6165516,9.304491,0.006110925,-0.043260336,-0.038735468
UncalMag,1676591803960,119307591289318,-62.207798,-22.045399,-105.6398,-47.214203,4.776456,-64.190285
OrientationDeg,1676591803959,119307590107311,133.0,3.0,-16.0
UncalGyro,1676591803964,119307594596324,-0.24281894,0.019394971,0.021533,0.0006129305,-0.00073195755,-0.0031130211
UncalAccel,1676591803969,119307599083018,-0.4223332,2.6452653,9.495318,0.006110925,-0.043260336,-0.038735468
OrientationDeg,1676591803969,119307599083018,133.0,3.0,-16.0
UncalMag,1676591803971,119307601289562,-61.8906,-21.9966,-104.3832,-47.214203,4.776456,-64.190285
UncalGyro,1676591803972,119307603578746,-0.2724459,0.07070765,0.031154128,0.0006129305,-0.00073195755,-0.0031130211
UncalAccel,1676591803978,119307608066844,-0.41814575,2.626123,9.514461,0.006110925,-0.043260336,-0.038735468
OrientationDeg,1676591803977,119307608066844,133.0,3.0,-16.0
UncalMag,1676591803980,119307611289562,-62.403,-22.448,-104.9566,-47.214203,4.776456,-64.190285
UncalGyro,1676591803981,119307612558971,-0.300393,0.12308934,0.032223143,0.0006129305,-0.00073195755,-0.0031130211
UncalAccel,1676591803987,119307617045848,-0.37387854,2.687738,9.362516,0.006110925,-0.043260336,-0.038735468
OrientationDeg,1676591803986,119307617045848,133.0,4.0,-16.0
UncalMag,1676591803990,119307621289562,-63.5132,-22.5334,-105.8716,-47.214203,4.776456,-64.190285
UncalGyro,1676591803990,119307621535106,-0.3277292,0.15836681,0.021991149,0.0006129305,-0.00073195755,-0.0031130211
UncalAccel,1676591803995,119307626028392,-0.37746778,2.6973093,9.134003,0.006110925,-0.043260336,-0.038735468
OrientationDeg,1676591803996,119307626028392,133.0,4.0,-16.0
UncalGyro,1676591803999,119307630518199,-0.34773505,0.14859296,0.00580322,0.0006129305,-0.00073195755,-0.0031130211
UncalMag,1676591804000,119307631289318,-62.451797,-21.8014,-104.029396,-47.214203,4.776456,-64.190285
UncalAccel,1676591804004,119307635008311,-0.3475575,2.7930222,9.05803,0.006110925,-0.043260336,-0.038735468
OrientationDeg,1676591804005,119307635008311,133.0,4.0,-15.0
UncalGyro,1676591804009,119307639495494,-0.35140023,0.105832405,-0.019547688,0.0006129305,-0.00073195755,-0.0031130211
UncalMag,1676591804011,119307641289562,-64.4892,-22.6798,-106.6158,-47.214203,4.776456,-64.190285
UncalAccel,1676591804012,119307643976207,-0.25722843,2.8552356,9.178269,0.006110925,-0.043260336,-0.038735468
OrientationDeg,1676591804013,119307643976207,133.0,4.0,-15.0
UncalGyro,1676591804017,119307648478649,-0.3359759,0.066737026,-0.057421334,0.0006129305,-0.00073195755,-0.0031130211
UncalMag,1676591804020,119307651289806,-63.622997,-23.2044,-104.554,-47.214203,4.776456,-64.190285
UncalAccel,1676591804021,119307652967906,-0.23090738,2.7589245,9.458828,0.006110925,-0.043260336,-0.038735468
OrientationDeg,1676591804021,119307652967906,133.0,4.0,-15.0
UncalGyro,1676591804027,119307657462230,-0.31948254,0.07819075,-0.10354166,0.0006129305,-0.00073195755,-0.0031130211
UncalMag,1676591804031,119307661285900,-62.9398,-22.2284,-106.1156,-47.214203,4.776456,-64.190285
UncalAccel,1676591804030,119307661949108,-0.2961118,2.524428,9.7196455,0.006110925,-0.043260336,-0.038735468
OrientationDeg,1676591804031,119307661949108,133.0,4.0,-15.0
UncalGyro,1676591804036,119307666439098,-0.30772337,0.15821409,-0.14095716,0.0006129305,-0.00073195755,-0.0031130211
UncalAccel,1676591804039,119307670928600,-0.5509474,2.3150558,9.884152,0.006110925,-0.043260336,-0.038735468
UncalMag,1676591804040,119307671275646,-60.6218,-21.0938,-104.92,-47.214203,4.776456,-64.190285
OrientationDeg,1676591804040,119307670928600,133.0,4.0,-15.0
UncalGyro,1676591804044,119307675420299,-0.28069258,0.26511553,-0.14538592,0.0006129305,-0.00073195755,-0.0031130211
Nav,6,257,1,19,5,34,-64,-55,17,35,36,77,71,20,-46,-90,113,36,5,72,93,63,91,-64,5,40,67,35,94,32,117,-1,-9,22,-40,-52,-48,37,-11,113,-128,9,0,13,-60
UncalAccel,1676591804048,119307679908580,-0.83748794,2.2402802,9.844072,0.006110925,-0.043260336,-0.038735468
UncalMag,1676591804051,119307681289318,-62.9398,-21.8014,-106.1034,-47.214203,4.776456,-64.190285
Nav,12,257,1,19,5,34,-64,-55,17,35,36,77,71,20,-46,-90,113,36,5,72,93,63,91,-64,5,40,67,35,94,32,117,-1,-9,22,-40,-52,-48,37,-11,113,-128,9,0,13,-60
OrientationDeg,1676591804048,119307679908580,133.0,4.0,-15.0
Nav,19,257,1,19,5,34,-64,-55,17,35,36,77,71,20,-46,-90,113,36,5,72,93,63,91,-64,5,40,67,35,94,32,117,-1,-9,22,-40,-52,-48,37,-11,113,-128,9,0,13,-60
Nav,20,257,1,19,5,34,-64,-55,17,35,36,77,71,20,-46,-90,113,36,5,72,93,63,91,-64,5,40,67,35,94,32,117,-1,-9,22,-40,-52,-48,37,-11,113,-128,9,0,13,-60
Nav,24,257,1,19,5,34,-64,-55,17,35,36,77,71,20,-46,-90,113,36,5,72,93,63,91,-64,5,40,67,35,94,32,117,-1,-9,22,-40,-52,-48,37,-11,113,-128,9,0,13,-60
Nav,25,257,1,19,5,34,-64,-55,17,35,36,77,71,20,-46,-90,113,36,5,72,93,63,91,-64,5,40,67,35,94,32,117,-1,-9,22,-40,-52,-48,37,-11,113,-128,9,0,13,-60
UncalGyro,1676591804053,119307684396556,-0.2284636,0.3379612,-0.1217149,0.0006129305,-0.00073195755,-0.0031130211
UncalAccel,1676591804057,119307688876598,-1.0013963,2.385046,9.524631,0.006110925,-0.043260336,-0.038735468
UncalMag,1676591804060,119307691289562,-62.7324,-21.96,-105.469,-47.214203,4.776456,-64.190285
UncalGyro,1676591804062,119307693380260,-0.15622878,0.33673948,-0.0954477,0.0006129305,-0.00073195755,-0.0031130211
UncalAccel,1676591804066,119307697870067,-0.9696914,2.6051857,9.226126,0.006110925,-0.043260336,-0.038735468
UncalMag,1676591804070,119307701289318,-64.659996,-22.6188,-107.2136,-47.214203,4.776456,-64.190285
UncalGyro,1676591804072,119307702363170,-0.07544186,0.28130344,-0.09040806,0.0006129305,-0.00073195755,-0.0031130211
UncalAccel,1676591804076,119307706849010,-0.83988076,2.7385855,9.127422,0.006110925,-0.043260336,-0.038735468
Raw,1676591803000,34886000000,,,-1360626986114160436,0.0,7.74504822084961,290.0,1.0,13,6,0.0,16431,431820931141629,26,34.89870071411133,253.40134308304084,0.5701690763714793,25,8720.714345081222,0.0024995068088173866,1575420030,,,,0,,1,,30.698701858520508,0.320142130558394,1.0,0.320142130558394,1.0,C,119307557242000
Raw,1676591803000,34886000000,,,-1360626986114160436,0.0,7.74504822084961,290.0,1.0,13,11,0.0,16431,431820930021638,16,40.22585678100586,-300.60164292586137,0.15,25,-10487.825488106146,0.0014357304899021983,1575420030,,,,0,,1,,36.025856018066406,-0.20372681261465636,1.0,-0.20372681261465636,1.0,C,119307557242000
Raw,1676591803000,34886000000,,,-1360626986114160436,0.0,7.74504822084961,290.0,1.0,13,12,0.0,16431,431820928268544,23,36.079227447509766,-345.88720740245867,0.15,25,-11952.269646821818,0.0021818659733980894,1575420030,,,,0,,1,,31.879226684570312,-0.6984919076624261,1.0,-0.6984919076624261,1.0,C,119307557242000
Raw,1676591803000,34886000000,,,-1360626986114160436,0.0,7.74504822084961,290.0,1.0,13,17,0.0,16431,431820919027865,53,26.01754379272461,599.7772758708084,0.9709633214666176,16,20716.411335501085,340282346638528860000000000000000000000,1575420030,,,,0,,1,,21.817543029785156,-0.7858034271858065,1.0,-0.7858034271858065,1.0,C,119307557242000
Raw,1676591803000,34886000000,,,-1360626986114160436,0.0,7.74504822084961,290.0,1.0,13,19,0.0,16431,431820928192104,41,29.120994567871094,523.4890138077149,0.8294554915412289,16,18104.523981644397,340282346638528860000000000000000000000,1575420030,,,,0,,1,,24.920995712280273,0.0,1.0,0.0,1.0,C,119307557242000
Raw,1676591803000,34886000000,,,-1360626986114160436,0.0,7.74504822084961,290.0,1.0,13,20,0.0,16431,431820917911566,24,35.664894104003906,-483.04782745390025,0.5369320578155985,25,-16606.665413753115,0.0022884670179337263,1575420030,,,,0,,1,,31.464895248413086,0.0,1.0,0.0,1.0,C,119307557242000
Raw,1676591803000,34886000000,,,-1360626986114160436,0.0,7.74504822084961,290.0,1.0,13,24,0.0,16431,431820929204732,30,33.05561828613281,344.1214634949249,0.6527022078314868,25,11878.424299601844,0.003090356709435582,1575420030,,,,0,,1,,28.85561752319336,-0.20372681261465636,1.0,-0.20372681261465636,1.0,C,119307557242000
Raw,1676591803000,34886000000,,,-1360626986114160436,0.0,7.74504822084961,290.0,1.0,13,25,0.0,16431,431820921397379,25,35.03327560424805,-515.7350504540364,0.5623647263661389,25,-17891.46831601104,0.00246107904240489,1575420030,,,,0,,1,,30.833276748657227,-2.0372682255564105,1.0,-2.0372682255564105,1.0,C,119307557242000
Raw,1676591803000,34886000000,,,-1360626986114160436,0.0,7.74504822084961,290.0,1.0,13,6,0.0,81921,431820931142143,6,37.2603874206543,253.45715310559694,0.15,25,9499.648519041091,0.0026740478351712227,1176450050,,,,0,,1,,33.1603889465332,1.9208527336454408,2.9031882002889704,1.9208527336454408,1.0,Q,119307557242000
Raw,1676591803000,34886000000,,,-1360626986114160436,0.0,7.74504822084961,290.0,1.0,13,11,0.0,81921,431820930022192,8,36.3182373046875,-300.49953188611903,0.15,25,-11414.915675318774,0.002980414079502225,1176450050,,,,0,,1,,32.218238830566406,0.0,2.9031882002889704,0.0,1.0,Q,119307557242000
Raw,1676591803000,34886000000,,,-1360626986114160436,0.0,7.74504822084961,290.0,1.0,13,24,0.0,81921,431820929205244,8,39.24555969238281,344.0357120343135,0.15,25,12936.150981595722,0.002127700252458453,1176450050,,,,0,,1,,35.14556121826172,3.5215636101095664,2.9031882002889704,3.5215636101095664,1.0,Q,119307557242000
Raw,1676591803000,34886000000,,,-1360626986114160436,0.0,7.74504822084961,290.0,1.0,13,25,0.0,81921,431820921397905,8,33.7748908996582,-515.7143964853835,0.6144560333925724,25,-19484.62873762007,0.003765890607610345,1176450050,,,,0,,1,,29.67489242553711,1.0186341127782053,2.9031882002889704,1.0186341127782053,1.0,Q,119307557242000
Raw,1676591803000,34886000000,,,-1360626986114160436,0.0,7.74504822084961,290.0,1.0,13,14,0.0,32995,10602935330543,33,44.24741744995117,303.3679795919918,0.15,25,10402.772464068305,0.000939022982493043,1598062460,,,,0,,3,,40.04741668701172,50.29141902923584,2.0000000474974513,50.29141902923584,2.0000000474974513,C,119307557242000
Raw,1676591803000,34886000000,,,-1360626986114160436,0.0,7.74504822084961,290.0,1.0,13,18,0.0,32867,10602923756072,47,36.13032150268555,-626.8094354373102,0.15,17,-21609.947711520297,0.09593170774057992,1600312450,,,,0,,3,,31.930322647094727,50.29141902923584,2.0000000474974513,50.29141902923584,2.0000000474974513,C,119307557242000
Raw,1676591803000,34886000000,,,-1360626986114160436,0.0,7.74504822084961,290.0,1.0,13,13,0.0,32769,10602922112302,167,20.423664093017578,813.46309922309,1.2194712263283263,16,26236.477343810056,340282346638528860000000000000000000000,1600875010,,,,0,,3,,16.223663330078125,50.29141902923584,2.0000000474974513,50.29141902923584,2.0000000474974513,C,119307557242000
Raw,1676591803000,34886000000,,,-1360626986114160436,0.0,7.74504822084961,290.0,1.0,13,15,0.0,32995,10602932668928,47,36.12566375732422,-412.6415157375134,0.15,17,-14585.064359592254,0.0957024072963038,1602000000,,,,0,,3,,31.9256649017334,50.29141902923584,2.0000000474974513,50.29141902923584,2.0000000474974513,C,119307557242000
Raw,1676591803000,34886000000,,,-1360626986114160436,0.0,7.74504822084961,290.0,1.0,13,24,0.0,32995,10602933176820,36,39.19318389892578,561.6143654057175,0.15,25,19913.339892589047,0.00158904236741364,1603124990,,,,0,,3,,34.99318313598633,50.29141902923584,2.0000000474974513,50.29141902923584,2.0000000474974513,C,119307557242000
Raw,1676591803000,34886000000,,,-1360626986114160436,0.0,7.74504822084961,290.0,1.0,13,17,0.0,32995,10602935413176,48,35.91696548461914,-172.684968979906,0.5251475159344536,25,-6033.179050274917,0.0021830592304468155,1604249980,,,,0,,3,,31.716964721679688,50.29141902923584,2.0000000474974513,50.29141902923584,2.0000000474974513,C,119307557242000
Raw,1676591803000,34886000000,,,-1360626986114160436,0.0,7.74504822084961,290.0,1.0,13,2,0.0,85026,431820922277367,27,34.3756103515625,24.789827888488418,0.5920975425098214,25,886.4651225830783,0.0026546604931354523,1575420030,,,,0,,6,,30.175609588623047,-6.024492904543876,1.5000000237487257,-6.024492904543876,1.5000000237487257,C,119307557242000
Raw,1676591803000,34886000000,,,-1360626986114160436,0.0,7.74504822084961,290.0,1.0,13,11,0.0,85026,431820914224457,19,38.23349380493164,533.3796745257214,0.15,25,18239.89881879663,0.0018058887217193842,1575420030,,,,0,,6,,34.03349304199219,-6.024492904543876,1.5000000237487257,-6.024492904543876,1.5000000237487257,C,119307557242000
Raw,1676591803000,34886000000,,,-1360626986114160436,0.0,7.74504822084961,290.0,1.0,13,25,0.0,85026,431820915434302,14,42.33352279663086,413.3723117702755,0.15,25,14156.227070114828,0.0011263922788202763,1575420030,,,,0,,6,,38.133522033691406,-6.024492904543876,1.5000000237487257,-6.024492904543876,1.5000000237487257,C,119307557242000
Raw,1676591803000,34886000000,,,-1360626986114160436,0.0,7.74504822084961,290.0,1.0,13,30,0.0,85026,431820912838720,27,34.196197509765625,-330.5885128956952,0.6006262778508673,25,-11320.776806972575,0.002710064174607396,1575420030,,,,0,,6,,29.996196746826172,-6.024492904543876,1.5000000237487257,-6.024492904543876,1.5000000237487257,C,119307557242000
Raw,1676591803000,34886000000,,,-1360626986114160436,0.0,7.74504822084961,290.0,1.0,13,34,0.0,85026,431820916498785,18,39.38869857788086,-400.074257461401,0.15,25,-13826.776682419244,0.0015809962060302496,1575420030,,,,0,,6,,35.188697814941406,-6.024492904543876,1.5000000237487257,-6.024492904543876,1.5000000237487257,C,119307557242000
Raw,1676591803000,34886000000,,,-1360626986114160436,0.0,7.74504822084961,290.0,1.0,13,36,0.0,85026,431820921823320,13,43.16909408569336,85.15632127620376,0.15,25,2956.920376478201,0.001023083576001227,1575420030,,,,0,,6,,38.969093322753906,-6.024492904543876,1.5000000237487257,-6.024492904543876,1.5000000237487257,C,119307557242000
Raw,1676591803000,34886000000,,,-1360626986114160436,0.0,7.74504822084961,290.0,1.0,13,2,0.0,84003,431820922277918,8,39.30131530761719,24.829776787840217,0.15,25,873.4153175389415,0.0021140866447240114,1176450050,,,,0,,6,,35.201316833496094,-4.362151958048344,3.403188224037696,-4.362151958048344,1.5000000237487257,Q,119307557242000
Raw,1676591803000,34886000000,,,-1360626986114160436,0.0,7.74504822084961,290.0,1.0,13,11,0.0,84003,431820914225017,13,32.07673263549805,533.399340103135,0.6931275293343284,25,17712.07359760699,0.0045790523290634155,1176450050,,,,0,,6,,27.976734161376953,4.134257324039933,3.403188224037696,4.134257324039933,1.5000000237487257,Q,119307557242000
Raw,1676591803000,34886000000,,,-1360626986114160436,0.0,7.74504822084961,290.0,1.0,13,25,0.0,84003,431820915434837,8,36.35762405395508,413.40755303032006,0.15,25,15616.246837782228,0.002966929692775011,1176450050,,,,0,,6,,32.257625579833984,-8.795061148703097,3.403188224037696,-8.795061148703097,1.5000000237487257,Q,119307557242000
Raw,1676591803000,34886000000,,,-1360626986114160436,0.0,7.74504822084961,290.0,1.0,13,30,0.0,84003,431820912839267,10,35.671112060546875,-330.62804854526166,0.5312431499700987,25,-10974.72980504412,0.00302730780094862,1176450050,,,,0,,6,,31.57111358642578,-8.425652049481869,3.403188224037696,-8.425652049481869,1.5000000237487257,Q,119307557242000
Raw,1676591803000,34886000000,,,-1360626986114160436,0.0,7.74504822084961,290.0,1.0,13,34,0.0,16384,431820916499301,1000000000,20.234468460083008,-400.13247029714194,299792458,16,-15132.018797077966,340282346638528860000000000000000000000,1176450050,,,,0,,6,,16.13446807861328,-10.0879929959774,3.403188224037696,-10.0879929959774,1.5000000237487257,Q,119307557242000
Raw,1676591803000,34886000000,,,-1360626986114160436,0.0,7.74504822084961,290.0,1.0,13,36,0.0,84003,431820921823858,10,36.720855712890625,85.21454263255885,0.15,25,3074.9513462389405,0.002845415845513344,1176450050,,,,0,,6,,32.62085723876953,-11.011515744030472,3.403188224037696,-11.011515744030472,1.5000000237487257,Q,119307557242000
UncalMag,1676591804080,119307711289318,-63.0374,-21.4476,-107.2868,-47.214203,4.776456,-64.190285
UncalGyro,1676591804080,119307711337291,0.0041233404,0.19715676,-0.09560041,0.0006129305,-0.00073195755,-0.0031130211
OrientationDeg,1676591804058,119307688876598,133.0,4.0,-14.0
OrientationDeg,1676591804067,119307697870067,133.0,4.0,-14.0
OrientationDeg,1676591804076,119307706849010,133.0,5.0,-14.0
Status,0,30,0,6,2,1575420030,37.91,20.0,77.0,1,1,1,33.711815
Status,0,30,1,6,2,1176450050,39.64,20.0,77.0,1,1,1,35.537415
Status,0,30,2,6,36,1176450050,38.39,94.0,72.0,1,1,1,34.29019
Status,0,30,3,6,36,1575420030,44.55,94.0,72.0,1,1,1,40.352425
Status,0,30,4,3,14,1598062460,45.69,123.0,69.0,1,1,1,41.488323
Status,0,30,5,3,17,1604249980,38.98,235.0,65.0,1,1,1,34.780426
Status,0,30,6,1,6,1575420030,41.13,72.0,60.0,1,1,1,36.932533
Status,0,30,7,1,6,1176450050,40.24,72.0,60.0,1,1,1,36.13778
Status,0,30,8,1,11,1575420030,41.07,165.0,57.0,1,1,1,36.874847
Status,0,30,9,1,11,1176450050,36.44,165.0,57.0,1,1,1,32.33545
Status,0,30,10,3,24,1603124990,42.38,27.0,54.0,1,1,1,38.183662
Status,0,30,11,1,24,1176450050,39.25,243.0,53.0,1,1,1,35.14556
Status,0,30,12,1,24,1575420030,36.41,243.0,53.0,1,1,1,32.20819
Status,0,30,13,3,15,1602000000,40.27,331.0,51.0,1,1,1,36.070045
Status,0,30,14,1,12,1575420030,36.08,314.0,45.0,1,1,1,31.879227
Status,0,30,15,1,19,1575420030,37.84,47.0,42.0,1,1,1,33.635017
Status,0,30,16,6,34,1575420030,40.25,196.0,40.0,1,1,1,36.04754
Status,0,30,17,6,34,1176450050,28.86,196.0,40.0,0,1,1,24.758686
Status,0,30,18,6,25,1176450050,37.59,111.0,38.0,1,1,1,33.48555
Status,0,30,19,6,25,1575420030,43.65,111.0,38.0,1,1,1,39.454582
Status,0,30,20,6,30,1176450050,35.67,310.0,31.0,1,1,1,31.571114
Status,0,30,21,6,30,1575420030,34.20,310.0,31.0,1,1,1,29.996197
Status,0,30,22,6,11,1575420030,39.63,43.0,28.0,1,1,1,35.42637
Status,0,30,23,6,11,1176450050,34.08,43.0,28.0,1,1,1,29.979038
Status,0,30,24,1,25,1176450050,35.90,305.0,17.0,1,1,1,31.796837
Status,0,30,25,1,25,1575420030,37.69,305.0,17.0,1,1,1,33.48857
Status,0,30,26,3,18,1600312450,38.90,220.0,16.0,1,1,1,34.69992
Status,0,30,27,1,17,1575420030,32.30,59.0,15.0,1,1,1,28.09707
Status,0,30,28,3,13,1600875010,24.48,140.0,12.0,1,1,1,20.275751
Status,0,30,29,1,20,1575420030,36.02,154.0,10.0,1,1,1,31.816607
Fix,GPS,37.4307930836,-122.1550361797,-7.670533687080978,0.0,3.853199,,1676591803000,0.18264633,,119307557242000,3.0
Fix,FLP,37.4307959000,-122.1550408000,-16.100000381469727,0.008081355,5.945,,1676591803559,,,119307190487682,3.7297032
UncalAccel,1676591804085,119307715817699,-0.78843504,2.6997023,9.298509,0.006110925,-0.043260336,-0.038735468
OrientationDeg,1676591804084,119307715817699,133.0,5.0,-14.0
UncalGyro,1676591804089,119307720320506,0.08368854,0.122478485,-0.091477074,0.0006129305,-0.00073195755,-0.0031130211
UncalMag,1676591804091,119307721289318,-60.6218,-20.910799,-104.4198,-47.214203,4.776456,-64.190285
UncalAccel,1676591804093,119307724809703,-0.7531409,2.5369902,9.612567,0.006110925,-0.043260336,-0.038735468
OrientationDeg,1676591804093,119307724809703,133.0,5.0,-14.0
UncalGyro,1676591804098,119307729304088,0.15699236,0.09896017,-0.06291912,0.0006129305,-0.00073195755,-0.0031130211
UncalMag,1676591804100,119307731289318,-62.6348,-22.1674,-105.1884,-47.214203,4.776456,-64.190285
UncalAccel,1676591804103,119307733790965,-0.7746763,2.3407788,9.863813,0.006110925,-0.043260336,-0.038735468
OrientationDeg,1676591804102,119307733790965,133.0,5.0,-15.0
UncalGyro,1676591804107,119307738281078,0.2182316,0.12767084,-0.01572978,0.0006129305,-0.00073195755,-0.0031130211
UncalMag,1676591804111,119307741289562,-61.2318,-21.7892,-103.8342,-47.214203,4.776456,-64.190285
UncalAccel,1676591804112,119307742770091,-0.8237292,2.2354946,9.982258,0.006110925,-0.043260336,-0.038735468
OrientationDeg,1676591804111,119307742770091,133.0,5.0,-15.0
UncalGyro,1676591804116,119307747261852,0.24969117,0.18478674,0.03970624,0.0006129305,-0.00073195755,-0.0031130211
UncalMag,1676591804120,119307751289562,-63.464397,-22.9482,-105.0054,-47.214203,4.776456,-64.190285
UncalAccel,1676591804121,119307751750377,-0.90089774,2.1780667,10.024731,0.006110925,-0.043260336,-0.038735468
OrientationDeg,1676591804120,119307751750377,133.0,5.0,-15.0
UncalGyro,1676591804125,119307756241649,0.22831088,0.2837469,0.09712757,0.0006129305,-0.00073195755,-0.0031130211
UncalAccel,1676591804130,119307760727428,-1.0923235,1.9106688,9.817751,0.006110925,-0.043260336,-0.038735468
UncalMag,1676591804130,119307761277599,-59.255398,-21.2768,-103.565796,-47.214203,4.776456,-64.190285
OrientationDeg,1676591804129,119307760727428,133.0,5.0,-15.0
UncalGyro,1676591804135,119307765210155,0.117438845,0.40133846,0.18066339,0.0006129305,-0.00073195755,-0.0031130211
UncalAccel,1676591804138,119307769711986,-1.2047862,2.00698,9.559925,0.006110925,-0.043260336,-0.038735468
OrientationDeg,1676591804138,119307769711986,133.0,5.0,-15.0
UncalMag,1676591804140,119307771289318,-60.634,-21.654999,-104.1514,-47.214203,4.776456,-64.190285
UncalGyro,1676591804143,119307774201793,-0.002443461,0.46944994,0.26328292,0.0006129305,-0.00073195755,-0.0031130211
UncalAccel,1676591804147,119307778693981,-1.3268201,2.204388,9.522238,0.006110925,-0.043260336,-0.038735468
OrientationDeg,1676591804147,119307778693981,133.0,6.0,-15.0
UncalMag,1676591804151,119307781289562,-59.7678,-21.5574,-103.8464,-47.214203,4.776456,-64.190285
UncalGyro,1676591804152,119307783181347,-0.08002335,0.5138904,0.32895094,0.0006129305,-0.00073195755,-0.0031130211
UncalAccel,1676591804156,119307787669872,-1.3345969,2.545365,9.662218,0.006110925,-0.043260336,-0.038735468
OrientationDeg,1676591804157,119307787669872,133.0,6.0,-15.0
UncalMag,1676591804160,119307791289562,-59.7556,-21.4842,-103.9684,-47.214203,4.776456,-64.190285
UncalGyro,1676591804161,119307792162486,-0.11255192,0.5896377,0.35262197,0.0006129305,-0.00073195755,-0.0031130211
UncalAccel,1676591804166,119307796651561,-1.1700903,2.9515467,9.789038,0.006110925,-0.043260336,-0.038735468
OrientationDeg,1676591804165,119307796651561,132.0,6.0,-15.0
UncalGyro,1676591804171,119307801143321,-0.11804971,0.70005155,0.3199407,0.0006129305,-0.00073195755,-0.0031130211
UncalMag,1676591804171,119307801277843,-59.816597,-21.6306,-104.2734,-47.214203,4.776456,-64.190285
UncalAccel,1676591804174,119307805633433,-0.9954142,3.2093735,9.562318,0.006110925,-0.043260336,-0.038735468
OrientationDeg,1676591804175,119307805633433,132.0,6.0,-15.0
UncalGyro,1676591804179,119307810125865,-0.10415252,0.7296785,0.2406809,0.0006129305,-0.00073195755,-0.0031130211
UncalMag,1676591804180,119307811289318,-59.6702,-21.5574,-105.225,-47.214203,4.776456,-64.190285
UncalAccel,1676591804184,119307814612193,-0.7579266,3.3756745,8.983254,0.006110925,-0.043260336,-0.038735468
OrientationDeg,1676591804184,119307814612193,132.0,7.0,-15.0
UncalGyro,1676591804189,119307819103771,-0.06612616,0.592692,0.12996158,0.0006129305,-0.00073195755,-0.0031130211
UncalMag,1676591804190,119307821289318,-59.0602,-20.996199,-104.980995,-47.214203,4.776456,-64.190285
UncalAccel,1676591804192,119307823590893,-0.573081,3.5904303,8.622537,0.006110925,-0.043260336,-0.038735468
OrientationDeg,1676591804192,119307823590893,132.0,7.0,-15.0
UncalGyro,1676591804198,119307828083019,0.014049901,0.312763,0.019394971,0.0006129305,-0.00073195755,-0.0031130211
UncalMag,1676591804200,119307831289318,-59.475,-21.472,-104.980995,-47.214203,4.776456,-64.190285
UncalAccel,1676591804202,119307832571666,-1.1790633,2.0931215,8.29771,0.006110925,-0.043260336,-0.038735468
OrientationDeg,1676591804202,119307832571666,132.0,7.0,-15.0
UncalGyro,1676591804206,119307837063976,0.15332718,-0.03023783,0.052839845,0.0006129305,-0.00073195755,-0.0031130211
UncalMag,1676591804210,119307841289562,-60.695,-22.0576,-104.2856,-47.214203,4.776456,-64.190285
UncalAccel,1676591804210,119307841553600,-1.4679967,2.1242282,9.8835535,0.006110925,-0.043260336,-0.038735468
OrientationDeg,1676591804210,119307841553600,132.0,7.0,-15.0
UncalGyro,1676591804215,119307846040965,0.32834008,-0.12415836,0.10140363,0.0006129305,-0.00073195755,-0.0031130211
UncalAccel,1676591804219,119307850521128,-1.3130615,2.6273193,11.140384,0.006110925,-0.043260336,-0.038735468
UncalMag,1676591804220,119307851278087,-59.5238,-21.8746,-104.798,-47.214203,4.776456,-64.190285
OrientationDeg,1676591804220,119307850521128,132.0,7.0,-15.0
UncalGyro,1676591804225,119307855020396,0.52824575,-0.1049161,0.11071932,0.0006129305,-0.00073195755,-0.0031130211
UncalAccel,1676591804229,119307859509775,-0.98584294,2.457429,11.212169,0.006110925,-0.043260336,-0.038735468
OrientationDeg,1676591804229,119307859509775,132.0,7.0,-15.0
UncalMag,1676591804230,119307861293712,-60.5364,-22.118599,-103.9196,-47.214203,4.776456,-64.190285
UncalGyro,1676591804234,119307864003123,0.75747293,-0.09590584,0.10781772,0.0006129305,-0.00073195755,-0.0031130211
UncalAccel,1676591804238,119307868492626,-0.8644072,2.1690936,11.392827,0.006110925,-0.043260336,-0.038735468
OrientationDeg,1676591804237,119307868492626,132.0,7.0,-16.0
UncalMag,1676591804241,119307871289074,-59.17,-21.7404,-103.2242,-47.214203,4.776456,-64.190285
UncalGyro,1676591804241,119307872983654,1.007775,-0.02733622,0.117744274,0.0006129305,-0.00073195755,-0.0031130211
UncalAccel,1676591804247,119307877462840,-0.8177471,2.0775683,11.440085,0.006110925,-0.043260336,-0.038735468
UncalMag,1676591804251,119307881289806,-60.6828,-22.667599,-104.688194,-47.214203,4.776456,-64.190285
OrientationDeg,1676591804246,119307877462840,132.0,7.0,-17.0
UncalGyro,1676591804250,119307881964672,1.2571607,0.09162979,0.1518,0.0006129305,-0.00073195755,-0.0031130211
UncalAccel,1676591804255,119307886453807,-0.7304091,2.2827528,10.388439,0.006110925,-0.043260336,-0.038735468
OrientationDeg,1676591804255,119307886453807,132.0,7.0,-17.0
UncalGyro,1676591804259,119307890948620,1.4110987,0.011911872,0.17180584,0.0006129305,-0.00073195755,-0.0031130211
UncalMag,1676591804261,119307891278576,-59.048,-22.313799,-103.285194,-47.214203,4.776456,-64.190285
UncalAccel,1676591804265,119307895433971,-0.5180461,2.7553353,7.722835,0.006110925,-0.043260336,-0.038735468
OrientationDeg,1676591804264,119307895433971,132.0,7.0,-18.0
UncalGyro,1676591804268,119307899925182,1.2860241,-0.46807548,0.12629639,0.0006129305,-0.00073195755,-0.0031130211
UncalMag,1676591804270,119307901289318,-61.439198,-24.095,-104.993195,-47.214203,4.776456,-64.190285
UncalAccel,1676591804273,119307904413707,-0.44925246,3.2045877,6.1005015,0.006110925,-0.043260336,-0.038735468
OrientationDeg,1676591804274,119307904413707,132.0,6.0,-19.0
UncalGyro,1676591804277,119307908905650,0.9593639,-1.0267117,0.055436023,0.0006129305,-0.00073195755,-0.0031130211
UncalMag,1676591804280,119307911289562,-59.255398,-23.521599,-101.869995,-47.214203,4.776456,-64.190285
UncalAccel,1676591804283,119307913395336,-0.35832518,3.4253256,7.3172517,0.006110925,-0.043260336,-0.038735468
OrientationDeg,1676591804282,119307913395336,132.0,6.0,-19.0
UncalGyro,1676591804286,119307917885448,0.67073005,-1.1954633,-0.002443461,0.0006129305,-0.00073195755,-0.0031130211
UncalMag,1676591804291,119307921289562,-60.743797,-24.156,-101.3454,-47.214203,4.776456,-64.190285
UncalAccel,1676591804292,119307922374584,0.04007978,3.3852458,8.648259,0.006110925,-0.043260336,-0.038735468
OrientationDeg,1676591804291,119307922374584,132.0,5.0,-19.0
UncalGyro,1676591804295,119307926865306,0.4717407,-1.084744,-0.05497787,0.0006129305,-0.00073195755,-0.0031130211
UncalMag,1676591804301,119307931289562,-58.8528,-23.18,-100.9794,-47.214203,4.776456,-64.190285
UncalAccel,1676591804301,119307931353892,1.0546366,3.1058838,8.313264,0.006110925,-0.043260336,-0.038735468
OrientationDeg,1676591804301,119307931353892,132.0,5.0,-19.0
UncalGyro,1676591804305,119307935842906,0.3016147,-1.0607675,-0.14767668,0.0006129305,-0.00073195755,-0.0031130211
UncalAccel,1676591804309,119307940335155,1.7796619,3.0245278,8.215756,0.006110925,-0.043260336,-0.038735468
OrientationDeg,1676591804310,119307940335155,132.0,4.0,-20.0
UncalMag,1676591804310,119307941279064,-61.280598,-24.2414,-101.7846,-47.214203,4.776456,-64.190285
UncalGyro,1676591804314,119307944826549,0.17592919,-1.1149818,-0.29016098,0.0006129305,-0.00073195755,-0.0031130211
UncalAccel,1676591804319,119307949316783,2.0554347,3.4402807,8.89113,0.006110925,-0.043260336,-0.038735468
OrientationDeg,1676591804319,119307949316783,133.0,4.0,-20.0
UncalMag,1676591804320,119307951283703,-62.3542,-24.6196,-103.0534,-47.214203,4.776456,-64.190285
UncalGyro,1676591804323,119307953801951,0.1226312,-1.1087204,-0.46685377,0.0006129305,-0.00073195755,-0.0031130211
UncalAccel,1676591804328,119307958275523,2.2151556,3.5401812,9.559925,0.006110925,-0.043260336,-0.038735468
OrientationDeg,1676591804327,119307958275523,133.0,3.0,-20.0
UncalMag,1676591804331,119307961283214,-61.6466,-24.765999,-102.199394,-47.214203,4.776456,-64.190285
UncalGyro,1676591804332,119307962775829,0.14523321,-1.0189233,-0.64751714,0.0006129305,-0.00073195755,-0.0031130211
UncalAccel,1676591804337,119307967275768,2.1326032,3.3583267,9.639486,0.006110925,-0.043260336,-0.038735468
OrientationDeg,1676591804337,119307967275768,133.0,3.0,-20.0
UncalMag,1676591804340,119307971289806,-61.61,-24.8758,-102.492195,-47.214203,4.776456,-64.190285
UncalGyro,1676591804341,119307971771007,0.22388211,-0.9092729,-0.8151997,0.0006129305,-0.00073195755,-0.0031130211
UncalAccel,1676591804346,119307976258372,2.0620148,3.2584262,9.285947,0.006110925,-0.043260336,-0.038735468
OrientationDeg,1676591804345,119307976258372,134.0,2.0,-20.0
UncalGyro,1676591804349,119307980747203,0.32559118,-0.8713993,-0.9671524,0.0006129305,-0.00073195755,-0.0031130211
UncalMag,1676591804350,119307981278087,-61.9394,-25.0222,-101.4552,-47.214203,4.776456,-64.190285
UncalAccel,1676591804354,119307985237193,1.9214365,3.1244283,8.507681,0.006110925,-0.043260336,-0.038735468
OrientationDeg,1676591804355,119307985237193,134.0,2.0,-20.0
UncalGyro,1676591804359,119307989727184,0.41981715,-0.98349303,-1.0961977,0.0006129305,-0.00073195755,-0.0031130211
UncalMag,1676591804361,119307991289318,-61.3172,-24.8148,-101.6626,-47.214203,4.776456,-64.190285
UncalAccel,1676591804364,119307994213206,1.7814565,2.9425735,7.6343007,0.006110925,-0.043260336,-0.038735468
OrientationDeg,1676591804364,119307994213206,135.0,2.0,-20.0
UncalGyro,1676591804368,119307998695140,0.48365256,-1.2486086,-1.1991285,0.0006129305,-0.00073195755,-0.0031130211
UncalMag,1676591804371,119308001289318,-62.463997,-25.7298,-102.187195,-47.214203,4.776456,-64.190285
UncalAccel,1676591804373,119308003196422,1.6935202,2.7846475,6.9182487,0.006110925,-0.043260336,-0.038735468
OrientationDeg,1676591804373,119308003196422,136.0,1.0,-20.0
UncalGyro,1676591804376,119308007687694,0.50442195,-1.6323847,-1.2809844,0.0006129305,-0.00073195755,-0.0031130211
UncalMag,1676591804380,119308011289318,-62.2688,-26.2788,-100.5036,-47.214203,4.776456,-64.190285
UncalAccel,1676591804382,119308012179882,1.6887345,2.6309085,6.6598234,0.006110925,-0.043260336,-0.038735468
OrientationDeg,1676591804382,119308012179882,136.0,0.0,-21.0
UncalGyro,1676591804386,119308016668041,0.4981606,-2.0454822,-1.3539828,0.0006129305,-0.00073195755,-0.0031130211
UncalAccel,1676591804390,119308021157665,1.5798612,2.4544377,7.1395845,0.006110925,-0.043260336,-0.038735468
UncalMag,1676591804390,119308021281017,-62.598198,-27.0352,-99.979,-47.214203,4.776456,-64.190285
UncalGyro,1676591804394,119308025648265,0.47342056,-2.314874,-1.4196508,0.0006129305,-0.00073195755,-0.0031130211
UncalAccel,1676591804400,119308030137340,1.416551,2.2935205,9.130413,0.006110925,-0.043260336,-0.038735468
UncalMag,1676591804401,119308031289318,-63.537598,-27.254799,-99.4056,-47.214203,4.776456,-64.190285
OrientationDeg,1676591804390,119308021157665,137.0,0.0,-21.0
OrientationDeg,1676591804399,119308030137340,138.0,0.0,-21.0
UncalGyro,1676591804404,119308034629100,0.301462,-1.9796616,-1.4442382,0.0006129305,-0.00073195755,-0.0031130211
UncalAccel,1676591804409,119308039115611,1.3256238,1.8867407,9.556933,0.006110925,-0.043260336,-0.038735468
OrientationDeg,1676591804409,119308039115611,139.0,-1.0,-21.0
UncalMag,1676591804411,119308041289806,-62.610397,-26.9254,-99.3568,-47.214203,4.776456,-64.190285
UncalGyro,1676591804412,119308043601940,0.17654006,-1.4494305,-1.4094188,0.0006129305,-0.00073195755,-0.0031130211
UncalAccel,1676591804417,119308048097301,0.9774681,0.92482597,9.097511,0.006110925,-0.043260336,-0.038735468
OrientationDeg,1676591804418,119308048097301,139.0,-1.0,-21.0
UncalMag,1676591804420,119308051289562,-63.696198,-28.2552,-98.7956,-47.214203,4.776456,-64.190285
UncalGyro,1676591804422,119308052589061,0.06994407,-0.8886562,-1.2035573,0.0006129305,-0.00073195755,-0.0031130211
UncalAccel,1676591804426,119308057080638,-0.0041874396,0.19621146,7.9310107,0.006110925,-0.043260336,-0.038735468
OrientationDeg,1676591804426,119308057080638,140.0,-1.0,-21.0
UncalMag,1676591804430,119308061274425,-63.0496,-28.230799,-98.8566,-47.214203,4.776456,-64.190285
UncalGyro,1676591804431,119308061568249,-0.06780604,-0.4700608,-0.7890852,0.0006129305,-0.00073195755,-0.0031130211
UncalAccel,1676591804435,119308066054943,-1.262214,1.1240284,7.2676005,0.006110925,-0.043260336,-0.038735468
OrientationDeg,1676591804436,119308066054943,140.0,-1.0,-21.0
UncalGyro,1676591804439,119308070548412,-0.25442538,-0.21197024,-0.25335637,0.0006129305,-0.00073195755,-0.0031130211
UncalMag,1676591804440,119308071289318,-62.439598,-27.8526,-99.1128,-47.214203,4.776456,-64.190285
UncalAccel,1676591804444,119308075038158,-2.0656042,2.332404,6.793822,0.006110925,-0.043260336,-0.038735468
OrientationDeg,1676591804444,119308075038158,140.0,-1.0,-21.0
UncalGyro,1676591804449,119308079529918,-0.45998153,-0.12507465,0.302531,0.0006129305,-0.00073195755,-0.0031130211
UncalMag,1676591804451,119308081289318,-64.0012,-28.3772,-99.2836,-47.214203,4.776456,-64.190285
UncalAccel,1676591804453,119308084018504,-1.9166509,2.7535408,6.2201424,0.006110925,-0.043260336,-0.038735468
OrientationDeg,1676591804454,119308084018504,140.0,-2.0,-21.0
UncalGyro,1676591804458,119308088509715,-0.63591075,-0.17440203,0.78542,0.0006129305,-0.00073195755,-0.0031130211
UncalMag,1676591804460,119308091289562,-63.1228,-27.767199,-98.6492,-47.214203,4.776456,-64.190285
UncalAccel,1676591804461,119308092999950,-0.35473597,2.3694925,5.896513,0.006110925,-0.043260336,-0.038735468
OrientationDeg,1676591804461,119308092999950,139.0,-2.0,-20.0
UncalGyro,1676591804467,119308097489879,-0.7811439,-0.302531,1.1021537,0.0006129305,-0.00073195755,-0.0031130211
UncalMag,1676591804470,119308101289318,-63.464397,-27.2426,-97.8806,-47.214203,4.776456,-64.190285
UncalAccel,1676591804471,119308101979198,1.7401803,1.6905292,5.4783673,0.006110925,-0.043260336,-0.038735468
UncalGyro,1676591804476,119308106470775,-0.875828,-0.55573463,1.2145529,0.0006129305,-0.00073195755,-0.0031130211
OrientationDeg,1676591804471,119308101979198,139.0,-2.0,-20.0
UncalAccel,1676591804479,119308110959117,3.0789645,1.3136597,4.981857,0.006110925,-0.043260336,-0.038735468
UncalMag,1676591804480,119308111291271,-62.7202,-26.1934,-96.5264,-47.214203,4.776456,-64.190285
OrientationDeg,1676591804480,119308110959117,138.0,-3.0,-19.0
UncalGyro,1676591804485,119308115450328,-0.89827734,-0.9772317,1.1751521,0.0006129305,-0.00073195755,-0.0031130211
UncalAccel,1676591804488,119308119939098,3.612564,1.2861422,4.9842496,0.006110925,-0.043260336,-0.038735468
OrientationDeg,1676591804489,119308119939098,137.0,-4.0,-19.0
UncalMag,1676591804491,119308121289318,-63.013,-25.815199,-97.112,-47.214203,4.776456,-64.190285
UncalGyro,1676591804493,119308124430797,-0.84574294,-1.51968,1.0839803,0.0006129305,-0.00073195755,-0.0031130211
UncalAccel,1676591804497,119308128920543,3.7776687,1.352543,5.456832,0.006110925,-0.043260336,-0.038735468
OrientationDeg,1676591804498,119308128920543,137.0,-5.0,-18.0
UncalMag,1676591804500,119308131289562,-61.8784,-24.6196,-95.477196,-47.214203,4.776456,-64.190285
UncalGyro,1676591804502,119308133410777,-0.7098254,-2.1067214,1.0154108,0.0006129305,-0.00073195755,-0.0031130211
UncalAccel,1676591804507,119308137899791,3.9487555,1.1790633,6.276374,0.006110925,-0.043260336,-0.038735468
OrientationDeg,1676591804506,119308137899791,136.0,-7.0,-18.0
UncalMag,1676591804510,119308141289562,-63.9524,-24.8758,-94.7452,-47.214203,4.776456,-64.190285
UncalGyro,1676591804511,119308142390697,-0.49403727,-2.6094637,0.9978484,0.0006129305,-0.00073195755,-0.0031130211
UncalAccel,1676591804515,119308146879772,3.9774694,0.863809,8.624929,0.006110925,-0.043260336,-0.038735468
OrientationDeg,1676591804516,119308146879772,136.0,-8.0,-18.0
UncalMag,1676591804521,119308151289562,-64.3306,-23.558199,-93.4032,-47.214203,4.776456,-64.190285
UncalGyro,1676591804521,119308151366893,-0.2237294,-2.7311785,1.0206031,0.0006129305,-0.00073195755,-0.0031130211
UncalAccel,1676591804524,119308155842845,4.2299123,0.23928227,9.728021,0.006110925,-0.043260336,-0.038735468
OrientationDeg,1676591804525,119308155842845,135.0,-10.0,-18.0
UncalGyro,1676591804530,119308160351451,0.073303826,-2.6801713,1.0332786,0.0006129305,-0.00073195755,-0.0031130211
UncalMag,1676591804530,119308161289318,-66.062996,-23.6558,-93.4886,-47.214203,4.776456,-64.190285
UncalAccel,1676591804534,119308164841197,4.701298,-0.53599226,8.620742,0.006110925,-0.043260336,-0.038735468
OrientationDeg,1676591804533,119308164841197,135.0,-11.0,-18.0
UncalGyro,1676591804539,119308169336010,0.34574974,-2.6042712,1.026559,0.0006129305,-0.00073195755,-0.0031130211
UncalMag,1676591804541,119308171289562,-67.4538,-24.107199,-93.9522,-47.214203,4.776456,-64.190285
UncalAccel,1676591804543,119308173821056,4.848457,-0.9738788,8.090134,0.006110925,-0.043260336,-0.038735468
OrientationDeg,1676591804543,119308173821056,134.0,-13.0,-18.0
UncalGyro,1676591804548,119308178312938,0.54809886,-2.5282185,1.02717,0.0006129305,-0.00073195755,-0.0031130211
UncalMag,1676591804550,119308181289562,-67.8686,-24.0462,-92.781,-47.214203,4.776456,-64.190285
UncalAccel,1676591804551,119308182800853,4.624728,-1.1407782,6.7298136,0.006110925,-0.043260336,-0.038735468
OrientationDeg,1676591804552,119308182800853,134.0,-14.0,-18.0
UncalGyro,1676591804557,119308187291881,0.64461553,-2.5847235,1.0713049,0.0006129305,-0.00073195755,-0.0031130211
UncalMag,1676591804561,119308191289074,-69.332596,-23.9242,-92.0978,-47.214203,4.776456,-64.190285
UncalAccel,1676591804560,119308191780834,4.3579283,-1.4177474,5.3216376,0.006110925,-0.043260336,-0.038735468
OrientationDeg,1676591804561,119308191780834,133.0,-16.0,-18.0
UncalGyro,1676591804565,119308196272594,0.6366743,-2.7267497,1.1809553,0.0006129305,-0.00073195755,-0.0031130211
UncalAccel,1676591804569,119308200762340,4.1371903,-1.5128621,4.505087,0.006110925,-0.043260336,-0.038735468
UncalMag,1676591804571,119308201278087,-68.93,-23.326399,-91.4756,-47.214203,4.776456,-64.190285
OrientationDeg,1676591804569,119308200762340,132.0,-18.0,-18.0
UncalGyro,1676591804574,119308205253306,0.5047274,-2.8258626,1.3225232,0.0006129305,-0.00073195755,-0.0031130211
UncalAccel,1676591804579,119308209745433,4.087539,-1.5367904,3.9517467,0.006110925,-0.043260336,-0.038735468
OrientationDeg,1676591804579,119308209745433,131.0,-19.0,-18.0
UncalMag,1676591804580,119308211289318,-71.504196,-23.668,-90.097,-47.214203,4.776456,-64.190285
UncalGyro,1676591804583,119308214232311,0.19990565,-2.8512135,1.4602734,0.0006129305,-0.00073195755,-0.0031130211
UncalAccel,1676591804587,119308218721874,4.3645086,-1.7401803,3.5234313,0.006110925,-0.043260336,-0.038735468
OrientationDeg,1676591804587,119308218721874,131.0,-21.0,-17.0
UncalMag,1676591804590,119308221289318,-72.5168,-23.6192,-87.657,-47.214203,4.776456,-64.190285
UncalGyro,1676591804592,119308223211986,-0.27748555,-2.8518243,1.559539,0.0006129305,-0.00073195755,-0.0031130211
UncalAccel,1676591804596,119308227699718,4.699504,-2.1445673,3.5653057,0.006110925,-0.043260336,-0.038735468
OrientationDeg,1676591804597,119308227699718,130.0,-23.0,-17.0
UncalMag,1676591804601,119308231289562,-75.7498,-23.7656,-90.1702,-47.214203,4.776456,-64.190285
UncalGyro,1676591804602,119308232185008,-0.86345804,-2.824641,1.6186402,0.0006129305,-0.00073195755,-0.0031130211
UncalAccel,1676591804605,119308236683483,4.6965127,-2.777469,4.229314,0.006110925,-0.043260336,-0.038735468
OrientationDeg,1676591804606,119308236683483,130.0,-25.0,-16.0
UncalGyro,1676591804611,119308241173534,-1.442711,-2.757293,1.6814066,0.0006129305,-0.00073195755,-0.0031130211
UncalMag,1676591804611,119308241273937,-76.640396,-23.5826,-89.889595,-47.214203,4.776456,-64.190285
UncalAccel,1676591804615,119308245661937,4.599005,-3.644269,5.2492547,0.006110925,-0.043260336,-0.038735468
OrientationDeg,1676591804614,119308245661937,129.0,-26.0,-15.0
UncalGyro,1676591804619,119308250139781,-1.9251418,-2.6563475,1.8014416,0.0006129305,-0.00073195755,-0.0031130211
UncalMag,1676591804620,119308251289562,-75.5912,-21.923399,-88.486595,-47.214203,4.776456,-64.190285
UncalAccel,1676591804623,119308254631236,4.5804605,-4.746164,6.3774705,0.006110925,-0.043260336,-0.038735468
OrientationDeg,1676591804624,119308254631236,130.0,-28.0,-13.0
UncalGyro,1676591804628,119308259133922,-2.2715025,-2.5482244,2.0002782,0.0006129305,-0.00073195755,-0.0031130211
UncalMag,1676591804631,119308261275402,-75.8596,-20.557,-87.0226,-47.214203,4.776456,-64.190285
UncalAccel,1676591804632,119308263625622,4.624728,-5.9497533,7.1102724,0.006110925,-0.043260336,-0.038735468
OrientationDeg,1676591804632,119308263625622,130.0,-29.0,-11.0
Fix,FLP,37.4307959000,-122.1550406000,-16.100000381469727,0.009165473,8.976,,1676591804381,0.18264633,,119308012000000,3.538794
UncalGyro,1676591804638,119308268117321,-2.4819455,-2.4990497,2.2999077,0.0006129305,-0.00073195755,-0.0031130211
UncalMag,1676591804640,119308271289074,-77.5676,-19.1418,-89.4992,-47.214203,4.776456,-64.190285
UncalAccel,1676591804642,119308272604198,4.6498528,-6.9038916,7.3435726,0.006110925,-0.043260336,-0.038735468
OrientationDeg,1676591804642,119308272604198,131.0,-30.0,-9.0
UncalGyro,1676591804647,119308277093639,-2.576935,-2.5271494,2.6827674,0.0006129305,-0.00073195755,-0.0031130211
Fix,NLP,37.4320022000,-122.1559868000,-16.100000381469727,,98.43,,1676591804382,,,119308012000000,1.7394774
UncalMag,1676591804650,119308281289318,-78.2874,-17.6656,-88.389,-47.214203,4.776456,-64.190285
UncalAccel,1676591804651,119308281583385,4.877769,-6.809375,7.716853,0.006110925,-0.043260336,-0.038735468
OrientationDeg,1676591804651,119308281583385,130.0,-32.0,-7.0
UncalGyro,1676591804656,119308286071361,-2.5751023,-2.5163066,2.9657507,0.0006129305,-0.00073195755,-0.0031130211
UncalAccel,1676591804660,119308290552013,5.5651073,-5.834898,8.006385,0.006110925,-0.043260336,-0.038735468
UncalMag,1676591804661,119308291283458,-81.8986,-17.1166,-88.4378,-47.214203,4.776456,-64.190285
OrientationDeg,1676591804659,119308290552013,129.0,-33.0,-5.0
UncalGyro,1676591804665,119308295054576,-2.5344799,-2.4011586,3.0010283,0.0006129305,-0.00073195755,-0.0031130211
UncalAccel,1676591804669,119308299543773,6.4480586,-5.135596,7.899306,0.006110925,-0.043260336,-0.038735468
OrientationDeg,1676591804668,119308299543773,130.0,-34.0,-4.0
UncalMag,1676591804671,119308301289074,-80.849396,-14.823,-88.2548,-47.214203,4.776456,-64.190285
UncalGyro,1676591804673,119308304037914,-2.5205827,-2.2653937,2.8414397,0.0006129305,-0.00073195755,-0.0031130211
UncalAccel,1676591804677,119308308524852,6.960721,-5.786443,7.4123664,0.006110925,-0.043260336,-0.038735468
OrientationDeg,1676591804678,119308308524852,130.0,-36.0,-2.0
UncalMag,1676591804680,119308311289318,-81.2886,-13.0906,-88.315796,-47.214203,4.776456,-64.190285
UncalGyro,1676591804682,119308313015270,-2.5662448,-2.2142339,2.7172813,0.0006129305,-0.00073195755,-0.0031130211
UncalAccel,1676591804687,119308317504588,6.8398833,-7.2006016,6.5659056,0.006110925,-0.043260336,-0.038735468
OrientationDeg,1676591804686,119308317504588,130.0,-37.0,0.0
UncalMag,1676591804690,119308321289562,-83.655396,-11.9194,-87.0104,-47.214203,4.776456,-64.190285
UncalGyro,1676591804690,119308321996288,-2.7165177,-2.244777,2.7253752,0.0006129305,-0.00073195755,-0.0031130211
UncalAccel,1676591804695,119308326484447,6.128019,-7.469196,6.446862,0.006110925,-0.043260336,-0.038735468
OrientationDeg,1676591804696,119308326484447,130.0,-38.0,1.0
UncalGyro,1676591804699,119308330975475,-3.0056098,-2.306169,2.82403,0.0006129305,-0.00073195755,-0.0031130211
UncalMag,1676591804700,119308331277599,-85.3268,-10.8946,-85.3878,-47.214203,4.776456,-64.190285
UncalAccel,1676591804705,119308335464428,5.9844494,-7.2670026,6.8949184,0.006110925,-0.043260336,-0.038735468
OrientationDeg,1676591804704,119308335464428,130.0,-39.0,4.0
UncalGyro,1676591804708,119308339955943,-3.3932037,-2.321746,2.922532,0.0006129305,-0.00073195755,-0.0031130211
UncalMag,1676591804711,119308341289318,-86.0466,-8.845,-85.046196,-47.214203,4.776456,-64.190285
UncalAccel,1676591804713,119308344445934,6.407979,-7.63789,8.372486,0.006110925,-0.043260336,-0.038735468
OrientationDeg,1676591804713,119308344445934,130.0,-40.0,6.0
UncalGyro,1676591804717,119308348933360,-3.7633882,-2.228131,2.973081,0.0006129305,-0.00073195755,-0.0031130211
UncalMag,1676591804721,119308351289562,-87.0348,-7.6006,-84.3874,-47.214203,4.776456,-64.190285
UncalAccel,1676591804723,119308353414989,6.710073,-8.665009,10.322637,0.006110925,-0.043260336,-0.038735468
OrientationDeg,1676591804722,119308353414989,131.0,-41.0,9.0
UncalGyro,1676591804726,119308357916149,-4.0387354,-2.0140228,3.0250046,0.0006129305,-0.00073195755,-0.0031130211
UncalMag,1676591804731,119308361277599,-88.791595,-5.917,-84.668,-47.214203,4.776456,-64.190285
UncalAccel,1676591804731,119308362405467,5.9449677,-9.570692,12.29193,0.006110925,-0.043260336,-0.038735468
OrientationDeg,1676591804731,119308362405467,131.0,-42.0,11.0
UncalGyro,1676591804735,119308366899180,-4.1436515,-1.7082846,3.1316006,0.0006129305,-0.00073195755,-0.0031130211
UncalMag,1676591804741,119308371277599,-89.0722,-3.599,-85.680595,-47.214203,4.776456,-64.190285
UncalAccel,1676591804740,119308371382640,4.5595236,-9.580862,14.797215,0.006110925,-0.043260336,-0.038735468
OrientationDeg,1676591804741,119308371382640,131.0,-43.0,14.0
UncalGyro,1676591804745,119308375865184,-3.997044,-1.3045027,3.2856915,0.0006129305,-0.00073195755,-0.0031130211
UncalAccel,1676591804749,119308380367015,4.542176,-10.265807,15.346368,0.006110925,-0.043260336,-0.038735468
UncalMag,1676591804750,119308381277599,-89.8042,-2.013,-83.7408,-47.214203,4.776456,-64.190285
OrientationDeg,1676591804750,119308380367015,131.0,-44.0,17.0
UncalGyro,1676591804754,119308384856822,-3.682143,-0.91828316,3.435048,0.0006129305,-0.00073195755,-0.0031130211
UncalAccel,1676591804758,119308389349376,4.260421,-10.916656,15.34218,0.006110925,-0.043260336,-0.038735468
OrientationDeg,1676591804758,119308389349376,131.0,-44.0,19.0
UncalMag,1676591804760,119308391289562,-89.243,0.5856,-84.3874,-47.214203,4.776456,-64.190285
UncalGyro,1676591804763,119308393838085,-3.3399057,-0.61941737,3.6128097,0.0006129305,-0.00073195755,-0.0031130211
UncalAccel,1676591804768,119308398325878,3.731607,-11.297114,14.736796,0.006110925,-0.043260336,-0.038735468
OrientationDeg,1676591804768,119308398325878,131.0,-44.0,22.0
UncalMag,1676591804771,119308401289562,-89.9994,3.1232,-85.2536,-47.214203,4.776456,-64.190285
UncalGyro,1676591804772,119308402817516,-3.0665436,-0.3743077,3.8484511,0.0006129305,-0.00073195755,-0.0031130211
UncalAccel,1676591804777,119308407306224,3.6664026,-11.656635,13.858032,0.006110925,-0.043260336,-0.038735468
OrientationDeg,1676591804777,119308407306224,131.0,-44.0,25.0
UncalMag,1676591804780,119308411289318,-89.609,4.2334,-81.3008,-47.214203,4.776456,-64.190285
UncalGyro,1676591804781,119308411795237,-2.8828259,-0.20799962,4.0795107,0.0006129305,-0.00073195755,-0.0031130211
UncalAccel,1676591804786,119308416274242,4.2556353,-11.406586,12.665809,0.006110925,-0.043260336,-0.038735468
OrientationDeg,1676591804785,119308416274242,130.0,-44.0,27.0
UncalGyro,1676591804790,119308420769969,-2.7716484,-0.19898935,4.2076397,0.0006129305,-0.00073195755,-0.0031130211
UncalMag,1676591804791,119308421286388,-89.5968,7.2102,-80.9836,-47.214203,4.776456,-64.190285
UncalAccel,1676591804794,119308425267162,4.432704,-10.736595,11.72184,0.006110925,-0.043260336,-0.038735468
OrientationDeg,1676591804795,119308425267162,129.0,-44.0,30.0
UncalGyro,1676591804799,119308429760569,-2.6916249,-0.32284227,4.252233,0.0006129305,-0.00073195755,-0.0031130211
UncalMag,1676591804800,119308431289074,-89.6944,9.2842,-81.3618,-47.214203,4.776456,-64.190285
UncalAccel,1676591804804,119308434249156,4.037888,-10.470992,10.916057,0.006110925,-0.043260336,-0.038735468
OrientationDeg,1676591804804,119308434249156,129.0,-43.0,32.0
UncalGyro,1676591804808,119308438736644,-2.653904,-0.54519725,4.314083,0.0006129305,-0.00073195755,-0.0031130211
UncalMag,1676591804811,119308441289806,-90.023796,10.8824,-81.3618,-47.214203,4.776456,-64.190285
UncalAccel,1676591804813,119308443221568,3.9595232,-10.9070835,10.665409,0.006110925,-0.043260336,-0.038735468
OrientationDeg,1676591804813,119308443221568,128.0,-43.0,35.0
UncalGyro,1676591804817,119308447718639,-2.6742153,-0.77579886,4.434576,0.0006129305,-0.00073195755,-0.0031130211
UncalMag,1676591804820,119308451289074,-89.6944,16.2626,-80.1052,-47.214203,4.776456,-64.190285
UncalAccel,1676591804822,119308452205760,4.432704,-11.432308,11.617752,0.006110925,-0.043260336,-0.038735468
OrientationDeg,1676591804821,119308452205760,127.0,-43.0,37.0
UncalGyro,1676591804826,119308456688549,-2.712547,-0.893085,4.57141,0.0006129305,-0.00073195755,-0.0031130211
UncalAccel,1676591804831,119308461185008,4.6169515,-11.883355,13.174882,0.006110925,-0.043260336,-0.038735468
UncalMag,1676591804831,119308461277843,-87.84,18.9222,-77.6408,-47.214203,4.776456,-64.190285
OrientationDeg,1676591804830,119308461185008,126.0,-43.0,40.0
UncalGyro,1676591804835,119308465668102,-2.717434,-0.9027061,4.751004,0.0006129305,-0.00073195755,-0.0031130211
