# 
# Header Description:
# 
# Version: v3.0.5.6 Platform: 13 Manufacturer: Google Model: Pixel 6
# 
# Raw,utcTimeMillis,TimeNanos,LeapSecond,TimeUncertaintyNanos,FullBiasNanos,BiasNanos,BiasUncertaintyNanos,DriftNanosPerSecond,DriftUncertaintyNanosPerSecond,HardwareClockDiscontinuityCount,Svid,TimeOffsetNanos,State,ReceivedSvTimeNanos,ReceivedSvTimeUncertaintyNanos,Cn0DbHz,PseudorangeRateMetersPerSecond,PseudorangeRateUncertaintyMetersPerSecond,AccumulatedDeltaRangeState,AccumulatedDeltaRangeMeters,AccumulatedDeltaRangeUncertaintyMeters,CarrierFrequencyHz,CarrierCycles,CarrierPhase,CarrierPhaseUncertainty,MultipathIndicator,SnrInDb,ConstellationType,AgcDb,BasebandCn0DbHz,FullInterSignalBiasNanos,FullInterSignalBiasUncertaintyNanos,SatelliteInterSignalBiasNanos,SatelliteInterSignalBiasUncertaintyNanos,CodeType,ChipsetElapsedRealtimeNanos
# 
# UncalAccel,utcTimeMillis,elapsedRealtimeNanos,UncalAccelXMps2,UncalAccelYMps2,UncalAccelZMps2,BiasXMps2,BiasYMps2,BiasZMps2
# 
# Accel,utcTimeMillis,elapsedRealtimeNanos,AccelXMps2,AccelYMps2,AccelZMps2
# 
# UncalGyro,utcTimeMillis,elapsedRealtimeNanos,UncalGyroXRadPerSec,UncalGyroYRadPerSec,UncalGyroZRadPerSec,DriftXRadPerSec,DriftYRadPerSec,DriftZRadPerSec
# 
# Gyro,utcTimeMillis,elapsedRealtimeNanos,GyroXRadPerSec,GyroYRadPerSec,GyroZRadPerSec
# 
# UncalMag,utcTimeMillis,elapsedRealtimeNanos,UncalMagXMicroT,UncalMagYMicroT,UncalMagZMicroT,BiasXMicroT,BiasYMicroT,BiasZMicroT
# 
# Mag,utcTimeMillis,elapsedRealtimeNanos,MagXMicroT,MagYMicroT,MagZMicroT
# 
# OrientationDeg,utcTimeMillis,elapsedRealtimeNanos,yawDeg,rollDeg,pitchDeg
# 
# Fix,Provider,LatitudeDegrees,LongitudeDegrees,AltitudeMeters,SpeedMps,AccuracyMeters,BearingDegrees,UnixTimeMillis,SpeedAccuracyMps,BearingAccuracyDegrees,elapsedRealtimeNanos,VerticalAccuracyMeters
# 
# Nav,Svid,Type,Status,MessageId,Sub-messageId,Data(Bytes)
# 
# Status,UnixTimeMillis,SignalCount,SignalIndex,ConstellationType,Svid,CarrierFrequencyHz,Cn0DbHz,AzimuthDegrees,ElevationDegrees,UsedInFix,HasAlmanacData,HasEphemerisData,BasebandCn0DbHz
# 
UncalGyro,1676592831072,120334703132335,0.34147367,0.0067195175,-0.3036,0.0006375003,-0.0009450702,-0.0033514558
UncalAccel,1676592831072,120334703132335,3.1669009,2.3754747,10.149158,0.006110925,-0.043260336,-0.038735468
UncalMag,1676592831076,120334707872326,-64.8796,14.1398,-114.6068,-48.275375,2.3914185,-62.760414
UncalGyro,1676592831082,120334712100475,0.34132096,0.15668693,-0.3474296,0.0006375003,-0.0009450702,-0.0033514558
UncalAccel,1676592831082,120334712100475,3.0472596,2.4963121,10.41177,0.006110925,-0.043260336,-0.038735468
OrientationDeg,1676592831081,120334712100475,1.0,-14.0,-17.0
Fix,FLP,37.4308144000,-122.1550693000,-15.80000114440918,0.30401573,3.562,54.077183,1676592830884,,,120334514532421,3.4370296
UncalMag,1676592831087,120334717865001,-64.1354,14.518,-115.582794,-48.275375,2.3914185,-62.760414
UncalGyro,1676592831090,120334721081493,0.30390546,0.36453384,-0.36163223,0.0006375003,-0.0009450702,-0.0033514558
UncalAccel,1676592831090,120334721081493,2.7960134,2.5938199,10.305887,0.006110925,-0.043260336,-0.038735468
OrientationDeg,1676592831090,120334721081493,1.0,-14.0,-18.0
UncalMag,1676592831097,120334727864513,-62.3176,15.3842,-114.2408,-48.275375,2.3914185,-62.760414
UncalGyro,1676592831099,120334730076060,0.24770586,0.6235407,-0.29275718,0.0006375003,-0.0009450702,-0.0033514558
UncalAccel,1676592831099,120334730076060,2.2211375,2.4825535,10.755738,0.006110925,-0.043260336,-0.038735468
OrientationDeg,1676592831099,120334730076060,2.0,-14.0,-18.0
UncalMag,1676592831106,120334737875988,-63.1716,14.03,-113.6186,-48.275375,2.3914185,-62.760414
UncalGyro,1676592831109,120334739053539,0.114689946,0.93294394,-0.16966783,0.0006375003,-0.0009450702,-0.0033514558
UncalAccel,1676592831108,120334739053539,1.7557336,1.6606189,11.011171,0.006110925,-0.043260336,-0.038735468
OrientationDeg,1676592831109,120334739053539,2.0,-13.0,-18.0
UncalMag,1676592831117,120334747875988,-60.878,14.5789995,-115.424194,-48.275375,2.3914185,-62.760414
UncalGyro,1676592831117,120334748032237,-0.12629639,1.2347114,0.018325957,0.0006375003,-0.0009450702,-0.0033514558
UncalAccel,1676592831118,120334748032237,1.4446666,0.7369894,10.862219,0.006110925,-0.043260336,-0.038735468
OrientationDeg,1676592831117,120334748032237,2.0,-12.0,-18.0
UncalGyro,1676592831126,120334757014354,-0.3303254,1.4268285,0.19608775,0.0006375003,-0.0009450702,-0.0033514558
UncalAccel,1676592831127,120334757014354,1.4081762,1.3076776,10.393225,0.006110925,-0.043260336,-0.038735468
UncalMag,1676592831127,120334757864269,-62.695797,14.0056,-115.4364,-48.275375,2.3914185,-62.760414
OrientationDeg,1676592831127,120334757014354,2.0,-12.0,-18.0
UncalGyro,1676592831134,120334765997509,-0.3914119,1.4054482,0.29458976,0.0006375003,-0.0009450702,-0.0033514558
UncalAccel,1676592831135,120334765997509,1.814956,2.2492533,9.623335,0.006110925,-0.043260336,-0.038735468
UncalMag,1676592831136,120334767876232,-59.8288,15.0548,-113.765,-48.275375,2.3914185,-62.760414
OrientationDeg,1676592831135,120334765997509,2.0,-11.0,-17.0
UncalGyro,1676592831143,120334774977977,-0.27656925,1.1148291,0.34666604,0.0006375003,-0.0009450702,-0.0033514558
UncalAccel,1676592831144,120334774977977,2.516053,2.4364917,8.86481,0.006110925,-0.043260336,-0.038735468
OrientationDeg,1676592831144,120334774977977,1.0,-10.0,-17.0
UncalMag,1676592831146,120334777875988,-60.4632,15.372,-115.9366,-48.275375,2.3914185,-62.760414
UncalGyro,1676592831153,120334783956737,0.027030786,0.61529404,0.3827071,0.0006375003,-0.0009450702,-0.0033514558
UncalAccel,1676592831153,120334783956737,2.7792635,2.6315067,8.900104,0.006110925,-0.043260336,-0.038735468
OrientationDeg,1676592831152,120334783956737,1.0,-10.0,-17.0
UncalMag,1676592831157,120334787876232,-56.2786,16.1162,-114.936195,-48.275375,2.3914185,-62.760414
UncalGyro,1676592831161,120334792935802,0.46746463,0.120493166,0.37950003,0.0006375003,-0.0009450702,-0.0033514558
UncalAccel,1676592831161,120334792935802,2.8462625,2.8372893,9.206385,0.006110925,-0.043260336,-0.038735468
OrientationDeg,1676592831162,120334792935802,1.0,-10.0,-17.0
UncalMag,1676592831166,120334797863781,-58.9016,15.3354,-115.2168,-48.275375,2.3914185,-62.760414
UncalGyro,1676592831170,120334801915966,0.9630291,-0.39446622,0.28619036,0.0006375003,-0.0009450702,-0.0033514558
UncalAccel,1676592831170,120334801915966,2.937788,3.1776686,9.49472,0.006110925,-0.043260336,-0.038735468
OrientationDeg,1676592831171,120334801915966,1.0,-11.0,-18.0
UncalMag,1676592831177,120334807876232,-57.315598,15.677,-114.8874,-48.275375,2.3914185,-62.760414
UncalGyro,1676592831179,120334810886913,1.4459181,-0.9637926,0.11728613,0.0006375003,-0.0009450702,-0.0033514558
UncalAccel,1676592831180,120334810886913,2.7248268,3.6346977,9.877572,0.006110925,-0.043260336,-0.038735468
OrientationDeg,1676592831180,120334810886913,0.0,-11.0,-18.0
UncalMag,1676592831187,120334817874035,-59.9142,13.9934,-116.351395,-48.275375,2.3914185,-62.760414
UncalGyro,1676592831188,120334819877696,1.7484491,-1.6569719,-0.16432275,0.0006375003,-0.0009450702,-0.0033514558
UncalAccel,1676592831188,120334819877696,3.5736806,3.8207395,9.110074,0.006110925,-0.043260336,-0.038735468
OrientationDeg,1676592831188,120334819877696,0.0,-12.0,-19.0
UncalMag,1676592831196,120334827875988,-59.231,13.1394,-119.8894,-48.275375,2.3914185,-62.760414
UncalGyro,1676592831197,120334828857250,1.7602082,-2.466521,-0.5859725,0.0006375003,-0.0009450702,-0.0033514558
UncalAccel,1676592831198,120334828857250,4.898706,3.918247,8.397013,0.006110925,-0.043260336,-0.038735468
OrientationDeg,1676592831197,120334828857250,0.0,-13.0,-20.0
UncalGyro,1676592831207,120334837837291,1.6653714,-3.1312952,-1.0622946,0.0006375003,-0.0009450702,-0.0033514558
UncalAccel,1676592831206,120334837837291,6.117251,3.8775692,8.688339,0.006110925,-0.043260336,-0.038735468
UncalMag,1676592831206,120334837867443,-60.2924,11.8706,-117.1688,-48.275375,2.3914185,-62.760414
OrientationDeg,1676592831207,120334837837291,1.0,-15.0,-21.0
UncalGyro,1676592831215,120334846817882,1.6036739,-3.5043812,-1.5818355,0.0006375003,-0.0009450702,-0.0033514558
UncalAccel,1676592831216,120334846817882,6.745367,3.5144582,9.375677,0.006110925,-0.043260336,-0.038735468
UncalMag,1676592831217,120334847864757,-64.7454,9.6746,-120.17,-48.275375,2.3914185,-62.760414
OrientationDeg,1676592831216,120334846817882,1.0,-17.0,-22.0
UncalGyro,1676592831224,120334855782176,1.6048957,-3.545462,-2.0787745,0.0006375003,-0.0009450702,-0.0033514558
UncalAccel,1676592831224,120334855782176,6.902695,3.0580273,9.640682,0.006110925,-0.043260336,-0.038735468
OrientationDeg,1676592831225,120334855782176,2.0,-18.0,-23.0
UncalMag,1676592831227,120334857875988,-66.1118,8.0886,-118.3278,-48.275375,2.3914185,-62.760414
UncalGyro,1676592831234,120334864778758,1.6261233,-3.3927455,-2.5318837,0.0006375003,-0.0009450702,-0.0033514558
UncalAccel,1676592831233,120334864778758,7.103692,2.9557343,9.23151,0.006110925,-0.043260336,-0.038735468
OrientationDeg,1676592831233,120334864778758,3.0,-19.0,-25.0
UncalMag,1676592831237,120334867876232,-66.7096,9.028,-113.386795,-48.275375,2.3914185,-62.760414
UncalGyro,1676592831243,120334873755931,1.6404786,-3.122285,-2.9469666,0.0006375003,-0.0009450702,-0.0033514558
UncalAccel,1676592831242,120334873755931,6.762715,3.077768,9.068199,0.006110925,-0.043260336,-0.038735468
OrientationDeg,1676592831243,120334873755931,4.0,-20.0,-26.0
UncalMag,1676592831247,120334877876232,-68.710396,7.381,-112.6548,-48.275375,2.3914185,-62.760414
UncalGyro,1676592831251,120334882727733,1.6548339,-2.798679,-3.3180673,0.0006375003,-0.0009450702,-0.0033514558
UncalAccel,1676592831252,120334882727733,6.1160545,3.1872396,8.8085785,0.006110925,-0.043260336,-0.038735468
OrientationDeg,1676592831252,120334882727733,6.0,-21.0,-27.0
UncalMag,1676592831257,120334887864269,-70.0524,5.856,-114.3872,-48.275375,2.3914185,-62.760414
UncalGyro,1676592831261,120334891723766,1.6913332,-2.4451408,-3.6215146,0.0006375003,-0.0009450702,-0.0033514558
UncalAccel,1676592831261,120334891723766,5.213362,3.0245278,8.970692,0.006110925,-0.043260336,-0.038735468
OrientationDeg,1676592831260,120334891723766,7.0,-22.0,-29.0
UncalMag,1676592831267,120334897876476,-69.9304,5.2216,-113.7772,-48.275375,2.3914185,-62.760414
UncalGyro,1676592831270,120334900688487,1.713477,-2.1235204,-3.8185186,0.0006375003,-0.0009450702,-0.0033514558
UncalAccel,1676592831269,120334900688487,4.1700916,2.8295128,8.474181,0.006110925,-0.043260336,-0.038735468
OrientationDeg,1676592831269,120334900688487,9.0,-22.0,-30.0
UncalMag,1676592831276,120334907876232,-72.346,3.721,-114.5946,-48.275375,2.3914185,-62.760414
UncalGyro,1676592831278,120334909680553,1.6050484,-1.9127718,-3.849062,0.0006375003,-0.0009450702,-0.0033514558
UncalAccel,1676592831279,120334909680553,2.986841,2.8313074,7.7443705,0.006110925,-0.043260336,-0.038735468
OrientationDeg,1676592831278,120334909680553,11.0,-22.0,-32.0
UncalMag,1676592831287,120334917872814,-69.8816,2.7328,-111.044395,-48.275375,2.3914185,-62.760414
UncalGyro,1676592831288,120334918657969,1.3855951,-1.6698002,-3.7155879,0.0006375003,-0.0009450702,-0.0033514558
UncalAccel,1676592831288,120334918657969,1.6965113,2.8779674,8.448459,0.006110925,-0.043260336,-0.038735468
OrientationDeg,1676592831288,120334918657969,13.0,-22.0,-33.0
UncalGyro,1676592831296,120334927642589,1.1232284,-0.9472993,-3.1285462,0.0006375003,-0.0009450702,-0.0033514558
UncalAccel,1676592831297,120334927642589,-6.8129644,3.3511481,10.185648,0.006110925,-0.043260336,-0.038735468
UncalMag,1676592831297,120334927864269,-71.052795,1.2566,-111.1176,-48.275375,2.3914185,-62.760414
OrientationDeg,1676592831297,120334927642589,14.0,-21.0,-34.0
UncalGyro,1676592831306,120334936624096,0.98547834,0.018936822,-1.1710287,0.0006375003,-0.0009450702,-0.0033514558
UncalAccel,1676592831306,120334936624096,-17.668005,4.4811587,11.018949,0.006110925,-0.043260336,-0.038735468
UncalMag,1676592831307,120334937875988,-70.7112,0.8418,-111.264,-48.275375,2.3914185,-62.760414
OrientationDeg,1676592831305,120334936624096,15.0,-21.0,-35.0
UncalGyro,1676592831314,120334945601696,0.68432176,0.69043046,0.5225952,0.0006375003,-0.0009450702,-0.0033514558
UncalAccel,1676592831315,120334945601696,-5.7026944,3.0412776,6.8859453,0.006110925,-0.043260336,-0.038735468
UncalMag,1676592831316,120334947876232,-71.3822,1.1956,-112.8134,-48.275375,2.3914185,-62.760414
OrientationDeg,1676592831315,120334945601696,14.0,-21.0,-35.0
UncalGyro,1676592831324,120334954587962,0.12721269,0.82940227,1.1157454,0.0006375003,-0.0009450702,-0.0033514558
UncalAccel,1676592831324,120334954587962,2.556731,2.1942184,3.1639097,0.006110925,-0.043260336,-0.038735468
OrientationDeg,1676592831323,120334954587962,14.0,-21.0,-35.0
UncalMag,1676592831327,120334957876232,-72.455795,-0.671,-112.9842,-48.275375,2.3914185,-62.760414
UncalGyro,1676592831332,120334963552013,-0.41080686,0.8940013,1.1626292,0.0006375003,-0.0009450702,-0.0033514558
UncalAccel,1676592831332,120334963552013,5.1792645,3.1046875,4.4339004,0.006110925,-0.043260336,-0.038735468
OrientationDeg,1676592831332,120334963552013,13.0,-21.0,-35.0
UncalMag,1676592831337,120334967875988,-72.5534,0.47579998,-113.374596,-48.275375,2.3914185,-62.760414
UncalGyro,1676592831341,120334972531322,-0.7677049,1.225243,1.0164797,0.0006375003,-0.0009450702,-0.0033514558
UncalAccel,1676592831342,120334972531322,5.8432727,4.482355,7.1222367,0.006110925,-0.043260336,-0.038735468
OrientationDeg,1676592831342,120334972531322,12.0,-20.0,-34.0
UncalMag,1676592831347,120334977876232,-72.468,0.8296,-114.4116,-48.275375,2.3914185,-62.760414
UncalGyro,1676592831350,120334981523143,-0.9097311,1.6016886,0.88270026,0.0006375003,-0.0009450702,-0.0033514558
UncalAccel,1676592831350,120334981523143,5.752944,4.5649076,8.180463,0.006110925,-0.043260336,-0.038735468
OrientationDeg,1676592831350,120334981523143,12.0,-20.0,-33.0
UncalMag,1676592831357,120334987875988,-69.8206,2.379,-116.363594,-48.275375,2.3914185,-62.760414
UncalGyro,1676592831360,120334990503917,-0.91324353,1.8762726,0.84757555,0.0006375003,-0.0009450702,-0.0033514558
UncalAccel,1676592831359,120334990503917,5.6416774,4.566104,8.517851,0.006110925,-0.043260336,-0.038735468
OrientationDeg,1676592831359,120334990503917,12.0,-19.0,-33.0
UncalMag,1676592831367,120334997876232,-70.6624,2.3424,-116.8882,-48.275375,2.3914185,-62.760414
UncalGyro,1676592831369,120334999473582,-0.8585711,2.1071796,0.91797775,0.0006375003,-0.0009450702,-0.0033514558
UncalAccel,1676592831369,120334999473582,5.145167,4.424927,8.45803,0.006110925,-0.043260336,-0.038735468
OrientationDeg,1676592831369,120334999473582,11.0,-18.0,-32.0
UncalMag,1676592831377,120335007876232,-70.3452,2.3546,-117.242,-48.275375,2.3914185,-62.760414
UncalGyro,1676592831377,120335008464061,-0.8043568,2.2272146,1.1453724,0.0006375003,-0.0009450702,-0.0033514558
UncalAccel,1676592831378,120335008464061,3.9302113,3.2620156,7.517052,0.006110925,-0.043260336,-0.038735468
OrientationDeg,1676592831377,120335008464061,11.0,-17.0,-32.0
UncalGyro,1676592831386,120335017444225,-0.8011498,2.1024454,1.5181528,0.0006375003,-0.0009450702,-0.0033514558
UncalAccel,1676592831386,120335017444225,2.85045,2.5627131,6.0311093,0.006110925,-0.043260336,-0.038735468
UncalMag,1676592831386,120335017872814,-68.7836,3.0377998,-114.5214,-48.275375,2.3914185,-62.760414
OrientationDeg,1676592831386,120335017444225,10.0,-17.0,-31.0
UncalGyro,1676592831395,120335026425182,-0.8915578,1.6859881,1.8664987,0.0006375003,-0.0009450702,-0.0033514558
UncalAccel,1676592831396,120335026425182,1.9405792,2.7308087,5.136792,0.006110925,-0.043260336,-0.038735468
UncalMag,1676592831397,120335027877941,-67.7466,4.331,-114.2164,-48.275375,2.3914185,-62.760414
OrientationDeg,1676592831395,120335026425182,9.0,-16.0,-30.0
UncalGyro,1676592831405,120335035406444,-1.0433578,1.050841,2.0482311,0.0006375003,-0.0009450702,-0.0033514558
UncalAccel,1676592831405,120335035406444,2.179263,3.281158,4.964509,0.006110925,-0.043260336,-0.038735468
UncalMag,1676592831407,120335037875988,-66.4778,5.0629997,-115.0338,-48.275375,2.3914185,-62.760414
OrientationDeg,1676592831404,120335035406444,8.0,-16.0,-29.0
UncalGyro,1676592831413,120335044379710,-1.1722504,0.59635717,2.0613647,0.0006375003,-0.0009450702,-0.0033514558
UncalAccel,1676592831414,120335044379710,2.973082,3.6747773,6.0041904,0.006110925,-0.043260336,-0.038735468
OrientationDeg,1676592831413,120335044379710,7.0,-16.0,-29.0
UncalMag,1676592831416,120335047876232,-67.0512,6.1366,-116.497795,-48.275375,2.3914185,-62.760414
UncalGyro,1676592831422,120335053366283,-1.1841623,0.52763486,1.9402608,0.0006375003,-0.0009450702,-0.0033514558
UncalAccel,1676592831423,120335053366283,3.8147576,4.1353955,7.1682982,0.006110925,-0.043260336,-0.038735468
OrientationDeg,1676592831423,120335053366283,6.0,-17.0,-28.0
UncalMag,1676592831426,120335057865978,-68.0028,5.856,-115.704796,-48.275375,2.3914185,-62.760414
UncalGyro,1676592831431,120335062345836,-1.0691669,0.6814202,1.7295122,0.0006375003,-0.0009450702,-0.0033514558
UncalAccel,1676592831431,120335062345836,3.8087754,4.226323,7.5930243,0.006110925,-0.043260336,-0.038735468
OrientationDeg,1676592831431,120335062345836,6.0,-17.0,-27.0
UncalMag,1676592831437,120335067875988,-66.8316,7.4054,-116.083,-48.275375,2.3914185,-62.760414
UncalGyro,1676592831440,120335071328258,-0.85139346,0.675617,1.4396566,0.0006375003,-0.0009450702,-0.0033514558
UncalAccel,1676592831441,120335071328258,4.1084766,5.144569,6.2171516,0.006110925,-0.043260336,-0.038735468
OrientationDeg,1676592831441,120335071328258,5.0,-17.0,-26.0
UncalMag,1676592831447,120335077875988,-66.124,7.8202,-116.326996,-48.275375,2.3914185,-62.760414
UncalGyro,1676592831450,120335080307872,-0.5742133,0.21502456,1.0288498,0.0006375003,-0.0009450702,-0.0033514558
UncalAccel,1676592831450,120335080307872,4.464409,5.885147,4.683352,0.006110925,-0.043260336,-0.038735468
OrientationDeg,1676592831449,120335080307872,4.0,-17.0,-26.0
UncalMag,1676592831457,120335087876476,-64.354996,8.113,-115.0704,-48.275375,2.3914185,-62.760414
UncalGyro,1676592831458,120335089275585,-0.2866485,-0.45937067,0.52488595,0.0006375003,-0.0009450702,-0.0033514558
UncalAccel,1676592831458,120335089275585,4.575077,5.7355957,4.354339,0.006110925,-0.043260336,-0.038735468
OrientationDeg,1676592831459,120335089275585,4.0,-17.0,-26.0
UncalMag,1676592831466,120335097876232,-64.2208,9.089,-114.3994,-48.275375,2.3914185,-62.760414
UncalGyro,1676592831467,120335098264781,-0.0106901415,-1.0164797,0.058948494,0.0006375003,-0.0009450702,-0.0033514558
UncalAccel,1676592831467,120335098264781,4.206582,4.755137,5.029115,0.006110925,-0.043260336,-0.038735468
OrientationDeg,1676592831467,120335098264781,4.0,-18.0,-26.0
UncalGyro,1676592831476,120335107249523,0.21746802,-1.3710871,-0.21395555,0.0006375003,-0.0009450702,-0.0033514558
UncalAccel,1676592831477,120335107249523,3.3661032,3.1304102,5.7840505,0.006110925,-0.043260336,-0.038735468
UncalMag,1676592831477,120335107864513,-67.954,7.6493998,-114.253,-48.275375,2.3914185,-62.760414
OrientationDeg,1676592831476,120335107249523,4.0,-18.0,-26.0
UncalGyro,1676592831486,120335116231395,0.25320363,-1.3281738,-0.17058411,0.0006375003,-0.0009450702,-0.0033514558
UncalAccel,1676592831486,120335116231395,2.5806592,0.5557331,7.3495545,0.006110925,-0.043260336,-0.038735468
OrientationDeg,1676592831486,120335116231395,4.0,-19.0,-26.0
UncalMag,1676592831487,120335117864269,-65.941,7.7348,-113.228195,-48.275375,2.3914185,-62.760414
UncalGyro,1676592831494,120335125209117,0.14767668,-1.0751228,0.15347989,0.0006375003,-0.0009450702,-0.0033514558
UncalAccel,1676592831494,120335125209117,1.5678971,-0.72323066,6.856633,0.006110925,-0.043260336,-0.038735468
OrientationDeg,1676592831494,120335125209117,4.0,-20.0,-26.0
UncalMag,1676592831496,120335127874767,-66.685196,8.356999,-113.0086,-48.275375,2.3914185,-62.760414
UncalGyro,1676592831503,120335134185741,0.07223482,-0.7666359,0.5804747,0.0006375003,-0.0009450702,-0.0033514558
UncalAccel,1676592831503,120335134185741,2.6315067,-1.2089736,6.949355,0.006110925,-0.043260336,-0.038735468
OrientationDeg,1676592831504,120335134185741,4.0,-20.0,-26.0
UncalMag,1676592831507,120335137876232,-67.5148,7.6372,-113.277,-48.275375,2.3914185,-62.760414
UncalGyro,1676592831513,120335143170909,-0.02031127,-0.5015204,0.97127575,0.0006375003,-0.0009450702,-0.0033514558
UncalAccel,1676592831513,120335143170909,3.263212,-0.7573284,6.1495543,0.006110925,-0.043260336,-0.038735468
OrientationDeg,1676592831513,120335143170909,3.0,-21.0,-26.0
UncalMag,1676592831517,120335147875011,-67.624596,8.2838,-113.6674,-48.275375,2.3914185,-62.760414
UncalGyro,1676592831522,120335152150157,-0.06352998,-0.2866485,1.2803736,0.0006375003,-0.0009450702,-0.0033514558
UncalAccel,1676592831521,120335152150157,3.414558,0.39720857,6.270392,0.006110925,-0.043260336,-0.038735468
OrientationDeg,1676592831521,120335152150157,3.0,-21.0,-25.0
UncalMag,1676592831526,120335157875988,-67.3684,8.8206,-113.9358,-48.275375,2.3914185,-62.760414
UncalGyro,1676592831530,120335161129955,-0.07788532,-0.12797627,1.4265231,0.0006375003,-0.0009450702,-0.0033514558
UncalAccel,1676592831530,120335161129955,4.505685,1.3016955,5.7463636,0.006110925,-0.043260336,-0.038735468
OrientationDeg,1676592831531,120335161129955,2.0,-22.0,-25.0
UncalMag,1676592831537,120335167875988,-62.9642,10.2114,-113.2526,-48.275375,2.3914185,-62.760414
UncalGyro,1676592831539,120335170110790,-0.05757405,-0.04734206,1.4714217,0.0006375003,-0.0009450702,-0.0033514558
UncalAccel,1676592831540,120335170110790,4.796413,1.0600204,5.436493,0.006110925,-0.043260336,-0.038735468
OrientationDeg,1676592831539,120335170110790,1.0,-22.0,-25.0
UncalMag,1676592831547,120335177876232,-64.7942,10.004,-112.471794,-48.275375,2.3914185,-62.760414
UncalGyro,1676592831549,120335179092357,0.005955936,-0.063224554,1.5103643,0.0006375003,-0.0009450702,-0.0033514558
UncalAccel,1676592831548,120335179092357,4.968696,0.45942193,5.3389854,0.006110925,-0.043260336,-0.038735468
OrientationDeg,1676592831549,120335179092357,0.0,-22.0,-24.0
UncalMag,1676592831557,120335187876476,-66.673,9.308599,-114.8386,-48.275375,2.3914185,-62.760414
UncalGyro,1676592831557,120335188068248,0.10827587,-0.16600263,1.5651895,0.0006375003,-0.0009450702,-0.0033514558
UncalAccel,1676592831557,120335188068248,5.386244,-0.02751746,4.9381876,0.006110925,-0.043260336,-0.038735468
OrientationDeg,1676592831558,120335188068248,359.0,-23.0,-24.0
UncalGyro,1676592831566,120335197051463,0.24694228,-0.37323865,1.6355917,0.0006375003,-0.0009450702,-0.0033514558
UncalAccel,1676592831566,120335197051463,5.346762,-0.37268212,4.7694936,0.006110925,-0.043260336,-0.038735468
UncalMag,1676592831567,120335197859874,-65.392,9.516,-113.1672,-48.275375,2.3914185,-62.760414
OrientationDeg,1676592831567,120335197051463,358.0,-23.0,-24.0
UncalGyro,1676592831576,120335206031138,0.43508878,-0.6582073,1.7172949,0.0006375003,-0.0009450702,-0.0033514558
UncalAccel,1676592831576,120335206031138,5.0476594,-0.6729814,4.985446,0.006110925,-0.043260336,-0.038735468
OrientationDeg,1676592831575,120335206031138,357.0,-24.0,-24.0
UncalMag,1676592831577,120335207864757,-69.3204,8.454599,-114.9972,-48.275375,2.3914185,-62.760414
UncalGyro,1676592831584,120335215014049,0.6209445,-0.9622655,1.8548924,0.0006375003,-0.0009450702,-0.0033514558
UncalAccel,1676592831584,120335215014049,5.2642097,-1.4219348,5.378467,0.006110925,-0.043260336,-0.038735468
OrientationDeg,1676592831585,120335215014049,356.0,-25.0,-23.0
UncalMag,1676592831587,120335217864513,-68.5396,8.845,-114.8874,-48.275375,2.3914185,-62.760414
UncalGyro,1676592831593,120335223996654,0.8031351,-1.1899655,2.1158845,0.0006375003,-0.0009450702,-0.0033514558
UncalAccel,1676592831592,120335223996654,5.4221363,-2.7026932,6.1680984,0.006110925,-0.043260336,-0.038735468
OrientationDeg,1676592831592,120335223996654,355.0,-26.0,-23.0
UncalMag,1676592831597,120335227875744,-68.9422,8.979199,-108.3116,-48.275375,2.3914185,-62.760414
UncalGyro,1676592831601,120335232968761,0.98349303,-1.3058772,2.4535403,0.0006375003,-0.0009450702,-0.0033514558
UncalAccel,1676592831601,120335232968761,5.543572,-3.3074791,6.77109,0.006110925,-0.043260336,-0.038735468
OrientationDeg,1676592831602,120335232968761,353.0,-28.0,-23.0
UncalMag,1676592831607,120335237864025,-66.6364,10.5652,-109.165596,-48.275375,2.3914185,-62.760414
UncalGyro,1676592831611,120335241953624,1.1236867,-1.196685,2.7441595,0.0006375003,-0.0009450702,-0.0033514558
UncalAccel,1676592831610,120335241953624,5.3425746,-2.946163,7.4440713,0.006110925,-0.043260336,-0.038735468
OrientationDeg,1676592831610,120335241953624,352.0,-29.0,-23.0
UncalMag,1676592831617,120335247875988,-67.6124,10.0772,-107.140396,-48.275375,2.3914185,-62.760414
UncalGyro,1676592831619,120335250932689,1.1766791,-0.96959585,2.9258919,0.0006375003,-0.0009450702,-0.0033514558
UncalAccel,1676592831619,120335250932689,5.5453663,-2.2576282,6.9619174,0.006110925,-0.043260336,-0.038735468
OrientationDeg,1676592831619,120335250932689,350.0,-30.0,-22.0
UncalMag,1676592831627,120335257875988,-67.0512,9.882,-107.3844,-48.275375,2.3914185,-62.760414
UncalGyro,1676592831628,120335259902477,1.1409435,-0.8854492,3.1128166,0.0006375003,-0.0009450702,-0.0033514558
UncalAccel,1676592831628,120335259902477,5.6997037,-2.507678,6.203991,0.006110925,-0.043260336,-0.038735468
OrientationDeg,1676592831628,120335259902477,348.0,-31.0,-22.0
UncalMag,1676592831636,120335267875988,-67.588,10.2114,-107.8114,-48.275375,2.3914185,-62.760414
UncalGyro,1676592831638,120335268896800,1.026559,-0.82756966,3.3631186,0.0006375003,-0.0009450702,-0.0033514558
UncalAccel,1676592831637,120335268896800,5.878567,-2.7296124,5.426922,0.006110925,-0.043260336,-0.038735468
OrientationDeg,1676592831637,120335268896800,346.0,-33.0,-21.0
UncalGyro,1676592831646,120335277862804,0.83001316,-0.8304713,3.530801,0.0006375003,-0.0009450702,-0.0033514558
UncalAccel,1676592831647,120335277862804,6.8021965,-1.8251255,4.167699,0.006110925,-0.043260336,-0.038735468
UncalMag,1676592831647,120335277884044,-67.5758,10.711599,-107.7016,-48.275375,2.3914185,-62.760414
OrientationDeg,1676592831646,120335277862804,344.0,-34.0,-21.0
UncalGyro,1676592831656,120335286856456,0.63132924,-0.9631818,3.5952475,0.0006375003,-0.0009450702,-0.0033514558
UncalAccel,1676592831656,120335286856456,8.468798,-1.1300105,3.6550367,0.006110925,-0.043260336,-0.038735468
UncalMag,1676592831657,120335287864513,-71.3212,9.5282,-108.0554,-48.275375,2.3914185,-62.760414
OrientationDeg,1676592831656,120335286856456,343.0,-35.0,-20.0
UncalGyro,1676592831664,120335295836253,0.5083926,-1.1612549,3.606243,0.0006375003,-0.0009450702,-0.0033514558
UncalAccel,1676592831665,120335295836253,10.024731,-0.6119644,4.0552363,0.006110925,-0.043260336,-0.038735468
OrientationDeg,1676592831665,120335295836253,341.0,-36.0,-19.0
UncalMag,1676592831667,120335297875744,-69.601,10.9312,-107.616196,-48.275375,2.3914185,-62.760414
UncalGyro,1676592831673,120335304815502,0.40775254,-1.2846496,3.5382843,0.0006375003,-0.0009450702,-0.0033514558
UncalAccel,1676592831674,120335304815502,10.8018,0.2853441,4.473382,0.006110925,-0.043260336,-0.038735468
OrientationDeg,1676592831674,120335304815502,339.0,-37.0,-18.0
UncalMag,1676592831676,120335307876232,-70.6624,11.236199,-108.4824,-48.275375,2.3914185,-62.760414
UncalGyro,1676592831682,120335313795665,0.20143281,-1.3271047,3.4228306,0.0006375003,-0.0009450702,-0.0033514558
UncalAccel,1676592831682,120335313795665,11.023734,0.2644069,3.9116669,0.006110925,-0.043260336,-0.038735468
OrientationDeg,1676592831683,120335313795665,338.0,-39.0,-17.0
UncalMag,1676592831687,120335317875988,-68.4298,12.8344,-107.2014,-48.275375,2.3914185,-62.760414
UncalGyro,1676592831692,120335322766063,-0.14569137,-1.3662001,3.3165402,0.0006375003,-0.0009450702,-0.0033514558
UncalAccel,1676592831692,120335322766063,11.206186,-0.16869399,3.0143583,0.006110925,-0.043260336,-0.038735468
OrientationDeg,1676592831691,120335322766063,336.0,-40.0,-16.0
UncalMag,1676592831697,120335327864513,-68.4542,13.163799,-104.9078,-48.275375,2.3914185,-62.760414
UncalGyro,1676592831701,120335331757030,-0.52946746,-1.5106697,3.200323,0.0006375003,-0.0009450702,-0.0033514558
UncalAccel,1676592831701,120335331757030,11.370693,-0.3906283,2.1661026,0.006110925,-0.043260336,-0.038735468
OrientationDeg,1676592831700,120335331757030,335.0,-41.0,-14.0
UncalMag,1676592831707,120335337875988,-69.113,13.5542,-102.7728,-48.275375,2.3914185,-62.760414
UncalGyro,1676592831710,120335340737315,-0.88056225,-1.8107573,3.0821207,0.0006375003,-0.0009450702,-0.0033514558
UncalAccel,1676592831709,120335340737315,11.389835,-0.64965135,1.6689938,0.006110925,-0.043260336,-0.038735468
OrientationDeg,1676592831710,120335340737315,334.0,-42.0,-13.0
UncalMag,1676592831717,120335347876232,-70.894196,14.249599,-104.8956,-48.275375,2.3914185,-62.760414
UncalGyro,1676592831719,120335349718699,-1.0997101,-2.2247713,3.0337095,0.0006375003,-0.0009450702,-0.0033514558
UncalAccel,1676592831718,120335349718699,11.376077,-1.4117653,2.3653052,0.006110925,-0.043260336,-0.038735468
OrientationDeg,1676592831718,120335349718699,333.0,-44.0,-12.0
UncalMag,1676592831727,120335357876232,-71.9312,15.6648,-102.650795,-48.275375,2.3914185,-62.760414
UncalGyro,1676592831727,120335358700451,-1.1191051,-2.701246,3.0642529,0.0006375003,-0.0009450702,-0.0033514558
UncalAccel,1676592831728,120335358700451,11.841481,-1.7880367,3.1806595,0.006110925,-0.043260336,-0.038735468
OrientationDeg,1676592831727,120335358700451,333.0,-45.0,-10.0
UncalGyro,1676592831737,120335367676952,-0.9660834,-3.2301028,3.1091514,0.0006375003,-0.0009450702,-0.0033514558
UncalAccel,1676592831737,120335367676952,12.311072,-1.8197416,3.6113675,0.006110925,-0.043260336,-0.038735468
UncalMag,1676592831736,120335367873546,-70.9918,17.2386,-103.09,-48.275375,2.3914185,-62.760414
OrientationDeg,1676592831736,120335367676952,332.0,-47.0,-8.0
UncalGyro,1676592831745,120335376653636,-0.6983717,-3.752087,3.1650455,0.0006375003,-0.0009450702,-0.0033514558
UncalAccel,1676592831746,120335376653636,12.54198,-2.1182463,3.6059837,0.006110925,-0.043260336,-0.038735468
UncalMag,1676592831747,120335377876232,-75.1642,17.104399,-103.2486,-48.275375,2.3914185,-62.760414
OrientationDeg,1676592831745,120335376653636,331.0,-49.0,-7.0
UncalGyro,1676592831755,120335385638805,-0.38789943,-4.2675047,3.2388074,0.0006375003,-0.0009450702,-0.0033514558
UncalAccel,1676592831754,120335385638805,12.48515,-2.9766715,3.2249267,0.006110925,-0.043260336,-0.038735468
OrientationDeg,1676592831755,120335385638805,330.0,-51.0,-6.0
UncalMag,1676592831756,120335387876232,-76.0914,17.9462,-101.504,-48.275375,2.3914185,-62.760414
UncalGyro,1676592831764,120335394617381,-0.10170906,-4.692972,3.363424,0.0006375003,-0.0009450702,-0.0033514558
UncalAccel,1676592831763,120335394617381,12.077772,-4.124628,2.9120653,0.006110925,-0.043260336,-0.038735468
OrientationDeg,1676592831763,120335394617381,329.0,-54.0,-4.0
UncalMag,1676592831766,120335397876232,-79.470795,17.7754,-101.6748,-48.275375,2.3914185,-62.760414
UncalGyro,1676592831772,120335403588390,0.105374254,-4.9942813,3.5795176,0.0006375003,-0.0009450702,-0.0033514558
UncalAccel,1676592831772,120335403588390,11.5519495,-5.1146584,2.556731,0.006110925,-0.043260336,-0.038735468
OrientationDeg,1676592831772,120335403588390,328.0,-57.0,-3.0
UncalMag,1676592831776,120335407876232,-77.9946,19.9226,-99.9424,-48.275375,2.3914185,-62.760414
UncalGyro,1676592831781,120335412572033,0.16890424,-5.1314206,3.883423,0.0006375003,-0.0009450702,-0.0033514558
UncalAccel,1676592831781,120335412572033,11.370095,-5.933602,2.4329023,0.006110925,-0.043260336,-0.038735468
OrientationDeg,1676592831782,120335412572033,327.0,-59.0,-1.0
UncalMag,1676592831786,120335417864757,-77.750595,21.0938,-96.2458,-48.275375,2.3914185,-62.760414
UncalGyro,1676592831790,120335421560314,0.05390886,-5.086064,4.242612,0.0006375003,-0.0009450702,-0.0033514558
UncalAccel,1676592831790,120335421560314,11.296515,-6.978069,2.3078775,0.006110925,-0.043260336,-0.038735468
OrientationDeg,1676592831790,120335421560314,326.0,-62.0,0.0
UncalMag,1676592831797,120335427861339,-81.74,21.227999,-95.9774,-48.275375,2.3914185,-62.760414
UncalGyro,1676592831799,120335430542247,-0.2264783,-4.9380817,4.6045494,0.0006375003,-0.0009450702,-0.0033514558
UncalAccel,1676592831799,120335430542247,11.737991,-7.896913,2.129014,0.006110925,-0.043260336,-0.038735468
OrientationDeg,1676592831800,120335430542247,325.0,-65.0,2.0
UncalMag,1676592831806,120335437875988,-81.5204,23.424,-95.660194,-48.275375,2.3914185,-62.760414
UncalGyro,1676592831809,120335439520335,-0.5664248,-4.704273,4.978246,0.0006375003,-0.0009450702,-0.0033514558
UncalAccel,1676592831808,120335439520335,11.413166,-8.637491,3.1244283,0.006110925,-0.043260336,-0.038735468
OrientationDeg,1676592831808,120335439520335,324.0,-67.0,5.0
UncalMag,1676592831817,120335447875988,-83.813995,23.6924,-94.8916,-48.275375,2.3914185,-62.760414
UncalGyro,1676592831818,120335448501049,-0.8552113,-4.426024,5.4495287,0.0006375003,-0.0009450702,-0.0033514558
UncalAccel,1676592831818,120335448501049,11.042278,-9.527023,4.433302,0.006110925,-0.043260336,-0.038735468
OrientationDeg,1676592831818,120335448501049,323.0,-69.0,8.0
UncalGyro,1676592831826,120335457482859,-1.022283,-4.148997,5.9574633,0.0006375003,-0.0009450702,-0.0033514558
UncalAccel,1676592831826,120335457482859,11.840284,-10.336395,5.681159,0.006110925,-0.043260336,-0.038735468
UncalMag,1676592831826,120335457864513,-83.692,25.6444,-92.9152,-48.275375,2.3914185,-62.760414
OrientationDeg,1676592831826,120335457482859,323.0,-71.0,11.0
UncalGyro,1676592831836,120335466451671,-1.0622946,-3.945884,6.373921,0.0006375003,-0.0009450702,-0.0033514558
UncalAccel,1676592831836,120335466451671,13.252648,-10.843076,6.6717877,0.006110925,-0.043260336,-0.038735468
OrientationDeg,1676592831835,120335466451671,322.0,-73.0,14.0
UncalMag,1676592831836,120335467876232,-81.2642,28.499199,-91.756195,-48.275375,2.3914185,-62.760414
UncalGyro,1676592831845,120335475442699,-0.9602802,-3.7711766,6.6876,0.0006375003,-0.0009450702,-0.0033514558
UncalAccel,1676592831845,120335475442699,14.271991,-11.376077,7.8699937,0.006110925,-0.043260336,-0.038735468
OrientationDeg,1676592831845,120335475442699,321.0,-75.0,18.0
UncalMag,1676592831846,120335477875988,-82.4964,29.6826,-88.8648,-48.275375,2.3914185,-62.760414
UncalGyro,1676592831854,120335484423046,-0.66721755,-3.658472,6.9343896,0.0006375003,-0.0009450702,-0.0033514558
UncalAccel,1676592831854,120335484423046,14.810974,-11.800803,9.099306,0.006110925,-0.043260336,-0.038735468
OrientationDeg,1676592831854,120335484423046,320.0,-77.0,21.0
UncalMag,1676592831856,120335487875988,-79.5928,32.5618,-88.022995,-48.275375,2.3914185,-62.760414
UncalGyro,1676592831862,120335493403209,-0.17088956,-3.605174,7.135975,0.0006375003,-0.0009450702,-0.0033514558
UncalAccel,1676592831862,120335493403209,15.277575,-11.913864,10.058828,0.006110925,-0.043260336,-0.038735468
OrientationDeg,1676592831862,120335493403209,319.0,-78.0,25.0
UncalMag,1676592831867,120335497875988,-75.6156,35.4898,-85.2902,-48.275375,2.3914185,-62.760414
UncalGyro,1676592831872,120335502394237,0.4653266,-3.5691328,7.306559,0.0006375003,-0.0009450702,-0.0033514558
UncalAccel,1676592831872,120335502394237,15.960725,-12.042479,10.480563,0.006110925,-0.043260336,-0.038735468
OrientationDeg,1676592831872,120335502394237,318.0,-79.0,29.0
UncalMag,1676592831877,120335507875988,-72.4802,37.271,-83.0698,-48.275375,2.3914185,-62.760414
UncalGyro,1676592831881,120335511363963,1.1545353,-3.5014796,7.4571376,0.0006375003,-0.0009450702,-0.0033514558
UncalAccel,1676592831881,120335511363963,16.363916,-12.327823,10.462019,0.006110925,-0.043260336,-0.038735468
OrientationDeg,1676592831880,120335511363963,316.0,-80.0,32.0
UncalMag,1676592831886,120335517864513,-72.6388,38.637398,-85.034,-48.275375,2.3914185,-62.760414
UncalGyro,1676592831889,120335520343944,1.7980819,-3.3837354,7.583434,0.0006375003,-0.0009450702,-0.0033514558
UncalAccel,1676592831890,120335520343944,17.151154,-12.073585,9.723235,0.006110925,-0.043260336,-0.038735468
OrientationDeg,1676592831890,120335520343944,314.0,-81.0,36.0
UncalMag,1676592831896,120335527875988,-71.5652,39.1498,-84.8754,-48.275375,2.3914185,-62.760414
UncalGyro,1676592831899,120335529324657,2.3495405,-3.2779028,7.6347466,0.0006375003,-0.0009450702,-0.0033514558
UncalAccel,1676592831899,120335529324657,18.178274,-11.404193,8.416156,0.006110925,-0.043260336,-0.038735468
OrientationDeg,1676592831898,120335529324657,312.0,-81.0,40.0
UncalMag,1676592831906,120335537875988,-69.5766,40.7236,-85.375595,-48.275375,2.3914185,-62.760414
UncalGyro,1676592831908,120335538306102,2.8463266,-3.3021848,7.545713,0.0006375003,-0.0009450702,-0.0033514558
UncalAccel,1676592831908,120335538306102,19.184456,-10.581061,7.6103725,0.006110925,-0.043260336,-0.038735468
OrientationDeg,1676592831907,120335538306102,309.0,-81.0,43.0
UncalGyro,1676592831917,120335547285594,3.3209689,-3.3266194,7.356803,0.0006375003,-0.0009450702,-0.0033514558
UncalAccel,1676592831917,120335547285594,19.55654,-8.233703,7.361519,0.006110925,-0.043260336,-0.038735468
UncalMag,1676592831917,120335547865490,-69.9426,39.9428,-89.2918,-48.275375,2.3914185,-62.760414
OrientationDeg,1676592831916,120335547285594,305.0,-80.0,47.0
UncalGyro,1676592831925,120335556265819,3.751018,-3.3260086,7.0840516,0.0006375003,-0.0009450702,-0.0033514558
UncalAccel,1676592831925,120335556265819,19.845472,-6.9894347,6.707082,0.006110925,-0.043260336,-0.038735468
OrientationDeg,1676592831926,120335556265819,302.0,-79.0,50.0
UncalMag,1676592831926,120335557875988,-67.160995,40.931,-91.0852,-48.275375,2.3914185,-62.760414
UncalGyro,1676592831934,120335565246105,4.108374,-3.3554828,6.720892,0.0006375003,-0.0009450702,-0.0033514558
UncalAccel,1676592831934,120335565246105,19.878374,-6.869794,6.0550375,0.006110925,-0.043260336,-0.038735468
OrientationDeg,1676592831934,120335565246105,296.0,-77.0,53.0
UncalMag,1676592831937,120335567876232,-64.294,41.370197,-90.035995,-48.275375,2.3914185,-62.760414
UncalGyro,1676592831943,120335574227672,4.3994517,-3.338684,6.2670193,0.0006375003,-0.0009450702,-0.0033514558
UncalAccel,1676592831943,120335574227672,19.942383,-7.484151,5.623133,0.006110925,-0.043260336,-0.038735468
OrientationDeg,1676592831943,120335574227672,291.0,-75.0,55.0
UncalMag,1676592831947,120335577876232,-61.0,41.992397,-90.1092,-48.275375,2.3914185,-62.760414
UncalGyro,1676592831953,120335583206920,4.6492953,-3.199254,5.765957,0.0006375003,-0.0009450702,-0.0033514558
UncalAccel,1676592831952,120335583206920,20.243877,-8.459227,5.796015,0.006110925,-0.043260336,-0.038735468
OrientationDeg,1676592831952,120335583206920,285.0,-72.0,58.0
UncalMag,1676592831956,120335587864269,-59.9142,41.1872,-94.086395,-48.275375,2.3914185,-62.760414
UncalGyro,1676592831961,120335592186534,4.902346,-2.840676,5.18762,0.0006375003,-0.0009450702,-0.0033514558
UncalAccel,1676592831961,120335592186534,20.508883,-9.779466,6.1956162,0.006110925,-0.043260336,-0.038735468
OrientationDeg,1676592831961,120335592186534,279.0,-68.0,59.0
UncalMag,1676592831967,120335597876232,-59.1334,40.4186,-96.099396,-48.275375,2.3914185,-62.760414
UncalGyro,1676592831971,120335601167186,5.137071,-2.3452644,4.5083385,0.0006375003,-0.0009450702,-0.0033514558
UncalAccel,1676592831971,120335601167186,20.4694,-10.723434,5.9760747,0.006110925,-0.043260336,-0.038735468
OrientationDeg,1676592831971,120335601167186,272.0,-63.0,60.0
UncalMag,1676592831976,120335607864269,-56.5714,40.0526,-95.3674,-48.275375,2.3914185,-62.760414
UncalGyro,1676592831979,120335610142711,5.298034,-1.8249599,3.8928914,0.0006375003,-0.0009450702,-0.0033514558
UncalAccel,1676592831979,120335610142711,18.695124,-10.21496,4.9698925,0.006110925,-0.043260336,-0.038735468
OrientationDeg,1676592831979,120335610142711,266.0,-58.0,60.0
UncalMag,1676592831986,120335617875988,-58.1574,37.783398,-100.784195,-48.275375,2.3914185,-62.760414
UncalGyro,1676592831989,120335619128063,5.351027,-1.3724614,3.5761578,0.0006375003,-0.0009450702,-0.0033514558
UncalAccel,1676592831989,120335619128063,15.70888,-8.691928,3.824927,0.006110925,-0.043260336,-0.038735468
OrientationDeg,1676592831989,120335619128063,259.0,-53.0,60.0
UncalMag,1676592831996,120335627868175,-58.072,36.843998,-102.3824,-48.275375,2.3914185,-62.760414
UncalGyro,1676592831998,120335628105662,5.3889003,-0.9810496,3.363424,0.0006375003,-0.0009450702,-0.0033514558
UncalAccel,1676592831998,120335628105662,14.806189,-8.202596,3.0418758,0.006110925,-0.043260336,-0.038735468
OrientationDeg,1676592831997,120335628105662,252.0,-48.0,60.0
UncalGyro,1676592832006,120335637088695,5.422651,-0.67363167,3.0874658,0.0006375003,-0.0009450702,-0.0033514558
UncalAccel,1676592832006,120335637088695,14.670994,-8.441878,2.120041,0.006110925,-0.043260336,-0.038735468
UncalMag,1676592832007,120335637864513,-57.9866,35.062798,-106.6158,-48.275375,2.3914185,-62.760414
OrientationDeg,1676592832006,120335637088695,246.0,-43.0,59.0
UncalGyro,1676592832016,120335646073741,5.413793,-0.5012149,2.7878363,0.0006375003,-0.0009450702,-0.0033514558
UncalAccel,1676592832016,120335646073741,14.0291195,-8.400003,0.8069794,0.006110925,-0.043260336,-0.038735468
OrientationDeg,1676592832016,120335646073741,240.0,-38.0,58.0
UncalMag,1676592832016,120335647876232,-56.4982,34.0136,-106.554794,-48.275375,2.3914185,-62.760414
Status,0,29,0,6,2,1575420030,41.05,51.0,80.0,1,1,1,36.850296
Status,0,29,1,6,2,1176450050,35.95,51.0,80.0,1,1,1,31.845507
Status,0,29,2,3,17,1604249980,46.01,258.0,72.0,1,1,1,41.808914
Status,0,29,3,6,36,1575420030,38.99,73.0,70.0,1,1,1,34.78562
Status,0,29,4,6,36,1176450050,35.51,73.0,70.0,1,1,1,31.414997
Status,0,29,5,1,11,1575420030,38.47,158.0,65.0,1,1,1,34.27103
Status,0,29,6,1,11,1176450050,38.07,158.0,65.0,1,1,1,33.974632
Status,0,29,7,3,14,1598062460,38.30,139.0,61.0,1,1,1,34.095898
Status,0,29,8,3,15,1602000000,45.02,331.0,60.0,1,1,1,40.82267
Status,0,29,9,1,6,1176450050,37.15,60.0,55.0,1,1,1,33.048973
Status,0,29,10,1,6,1575420030,44.14,60.0,55.0,1,1,1,39.94041
Status,0,29,11,1,12,1575420030,44.96,319.0,52.0,1,1,1,40.75967
Status,0,29,12,1,24,1176450050,43.79,232.0,49.0,1,1,1,39.691994
Status,0,29,13,1,24,1575420030,43.59,232.0,49.0,1,1,1,39.39194
Status,0,29,14,6,34,1575420030,41.52,199.0,47.0,1,1,1,37.320435
Status,0,29,15,6,34,1176450050,40.08,199.0,47.0,1,1,1,35.984
Status,0,29,16,3,24,1603124990,45.98,29.0,45.0,1,1,1,41.78018
Status,0,29,17,6,30,1176450050,33.98,313.0,36.0,1,1,1,29.884644
Status,0,29,18,6,30,1575420030,42.54,313.0,36.0,1,1,1,38.33707
Status,0,29,19,1,19,1575420030,42.37,52.0,35.0,1,1,1,38.17029
Status,0,29,20,6,25,1575420030,36.60,117.0,34.0,1,1,1,32.397476
Status,0,29,21,6,25,1176450050,34.07,117.0,34.0,1,1,1,29.969025
Status,0,29,22,3,18,1600312450,46.96,226.0,24.0,1,1,1,42.764214
Status,0,29,23,1,25,1575420030,47.44,308.0,23.0,1,1,1,43.238667
Status,0,29,24,6,11,1176450050,31.92,41.0,23.0,1,1,1,27.824326
Status,0,29,25,6,11,1575420030,36.36,41.0,23.0,1,1,1,32.163025
Status,0,29,26,1,25,1176450050,40.62,308.0,23.0,1,1,1,36.522964
Status,0,29,27,1,20,1575420030,31.66,150.0,16.0,1,1,1,27.45893
Status,0,29,28,1,17,1575420030,36.55,63.0,10.0,1,1,1,32.35209
UncalGyro,1676592832024,120335655049449,5.39562,-0.535118,2.4912612,0.0006375003,-0.0009450702,-0.0033514558
UncalAccel,1676592832024,120335655049449,13.188641,-8.060223,-0.28175488,0.006110925,-0.043260336,-0.038735468
OrientationDeg,1676592832024,120335655049449,235.0,-34.0,56.0
UncalMag,1676592832027,120335657875988,-56.6812,31.7078,-107.055,-48.275375,2.3914185,-62.760414
Fix,GPS,37.4308192301,-122.1550408918,-16.804653092370117,0.2154388,3.3158264,358.57498,1676592831000,0.1123614,19.14447,120335573863000,3.0
UncalGyro,1676592832034,120335664029796,5.427385,-0.72265357,2.198504,0.0006375003,-0.0009450702,-0.0033514558
UncalAccel,1676592832033,120335664029796,12.491731,-7.816155,-0.7316055,0.006110925,-0.043260336,-0.038735468
OrientationDeg,1676592832033,120335664029796,231.0,-31.0,55.0
Raw,1676592831000,790697000000,,,-1360627258303370828,0.0,8.540794620934413,285.0,1.0,15,6,0.0,16431,432848930569472,14,42.531944274902344,373.1376310205326,0.15,16,259711.90591298242,340282346638528860000000000000000000000,1575420030,,,,0,,1,,38.33194351196289,0.320142130558394,1.0,0.320142130558394,1.0,C,120335573863000
Raw,1676592831000,790697000000,,,-1360627258303370828,0.0,8.540794620934413,285.0,1.0,15,11,0.0,16431,432848931369640,23,36.0217399597168,-189.06890002604052,0.15,16,-183826.17496882388,340282346638528860000000000000000000000,1575420030,,,,0,,1,,31.821741104125977,-0.20372681261465636,1.0,-0.20372681261465636,1.0,C,120335573863000
Raw,1676592831000,790697000000,,,-1360627258303370828,0.0,8.540794620934413,285.0,1.0,15,12,0.0,16431,432848929880164,14,41.8980827331543,-296.851447987287,0.15,16,-250371.65904094419,340282346638528860000000000000000000000,1575420030,,,,0,,1,,37.698081970214844,-0.6984919076624261,1.0,-0.6984919076624261,1.0,C,120335573863000
Raw,1676592831000,790697000000,,,-1360627258303370828,0.0,8.540794620934413,285.0,1.0,15,17,0.0,16431,432848917496148,26,34.700408935546875,588.5923679488046,0.5802291924006253,16,468809.7793172736,340282346638528860000000000000000000000,1575420030,,,,0,,1,,30.500408172607422,-0.7858034271858065,1.0,-0.7858034271858065,1.0,C,120335573863000
Raw,1676592831000,790697000000,,,-1360627258303370828,0.0,8.540794620934413,285.0,1.0,15,19,0.0,16431,432848926846583,15,41.01522445678711,555.7681334734468,0.15,16,429945.9594836304,340282346638528860000000000000000000000,1575420030,,,,0,,1,,36.815223693847656,0.0,1.0,0.0,1.0,C,120335573863000
Raw,1676592831000,790697000000,,,-1360627258303370828,0.0,8.540794620934413,285.0,1.0,15,20,0.0,16431,432848920092587,47,27.493396759033203,-491.04087924008627,0.9047874392821327,16,-386719.94091143145,340282346638528860000000000000000000000,1575420030,,,,0,,1,,23.29339599609375,0.0,1.0,0.0,1.0,C,120335573863000
Raw,1676592831000,790697000000,,,-1360627258303370828,0.0,8.540794620934413,285.0,1.0,15,24,0.0,16431,432848928341528,17,39.77960968017578,451.98282713688036,0.15,16,325733.35787327273,340282346638528860000000000000000000000,1575420030,,,,0,,1,,35.57960891723633,-0.20372681261465636,1.0,-0.20372681261465636,1.0,C,120335573863000
Raw,1676592831000,790697000000,,,-1360627258303370828,0.0,8.540794620934413,285.0,1.0,15,25,0.0,16431,432848923650937,12,46.630802154541016,-501.7821358255326,0.15,16,-401533.89719251945,340282346638528860000000000000000000000,1575420030,,,,0,,1,,42.43080139160156,-2.0372682255564105,1.0,-2.0372682255564105,1.0,C,120335573863000
Raw,1676592831000,790697000000,,,-1360627258303370828,0.0,8.540794620934413,285.0,1.0,15,6,0.0,81921,432848930570012,21,30.41710090637207,372.9988472575717,0.7671020367365347,16,260544.39637873118,340282346638528860000000000000000000000,1176450050,,,,0,,1,,26.317100524902344,1.9208527336454408,1.3677126500957537,1.9208527336454408,1.0,Q,120335573863000
Raw,1676592831000,790697000000,,,-1360627258303370828,0.0,8.540794620934413,285.0,1.0,15,11,0.0,81921,432848931370176,9,32.68377685546875,-188.87430624052354,0.6653160451098215,16,-184726.82904924065,340282346638528860000000000000000000000,1176450050,,,,0,,1,,28.583776473999023,0.0,1.3677126500957537,0.0,1.0,Q,120335573863000
Raw,1676592831000,790697000000,,,-1360627258303370828,0.0,8.540794620934413,285.0,1.0,15,24,0.0,81921,432848928342073,11,41.5186767578125,451.5114667631699,0.15,16,326859.8727492761,340282346638528860000000000000000000000,1176450050,,,,0,,1,,37.418678283691406,3.5215636101095664,1.3677126500957537,3.5215636101095664,1.0,Q,120335573863000
Raw,1676592831000,790697000000,,,-1360627258303370828,0.0,8.540794620934413,285.0,1.0,15,25,0.0,81921,432848923651469,12,38.670204162597656,-501.6638015364854,0.15,16,-403100.947820231,340282346638528860000000000000000000000,1176450050,,,,0,,1,,34.57020568847656,1.0186341127782053,1.3677126500957537,1.0186341127782053,1.0,Q,120335573863000
Raw,1676592831000,790697000000,,,-1360627258303370828,0.0,8.540794620934413,285.0,1.0,15,14,0.0,32995,11630934562315,58,33.57004928588867,438.90126459183875,0.6305325018055692,16,306285.7459852812,340282346638528860000000000000000000000,1598062460,,,,0,,3,,29.37005043029785,50.29141902923584,2.0000000474974513,50.29141902923584,2.0000000474974513,C,120335573863000
Raw,1676592831000,790697000000,,,-1360627258303370828,0.0,8.540794620934413,285.0,1.0,15,18,0.0,32995,11630926298484,33,45.63338088989258,-559.0923317879426,0.15,16,-463122.0184612771,340282346638528860000000000000000000000,1600312450,,,,0,,3,,41.433380126953125,50.29141902923584,2.0000000474974513,50.29141902923584,2.0000000474974513,C,120335573863000
Raw,1676592831000,790697000000,,,-1360627258303370828,0.0,8.540794620934413,285.0,1.0,15,15,0.0,32995,11630934427005,33,41.566856384277344,-313.21845709375793,0.15,16,-280011.3220214451,340282346638528860000000000000000000000,1602000000,,,,0,,3,,37.36685562133789,50.29141902923584,2.0000000474974513,50.29141902923584,2.0000000474974513,C,120335573863000
Raw,1676592831000,790697000000,,,-1360627258303370828,0.0,8.540794620934413,285.0,1.0,15,24,0.0,32995,11630931611395,33,44.167598724365234,642.1536981884447,0.15,16,485485.78447775426,340282346638528860000000000000000000000,1603124990,,,,0,,3,,39.96759796142578,50.29141902923584,2.0000000474974513,50.29141902923584,2.0000000474974513,C,120335573863000
Raw,1676592831000,790697000000,,,-1360627258303370828,0.0,8.540794620934413,285.0,1.0,15,17,0.0,32995,11630936278474,33,41.45833206176758,-37.51476012908947,0.15,16,-70319.8168006489,340282346638528860000000000000000000000,1604249980,,,,0,,3,,37.258331298828125,50.29141902923584,2.0000000474974513,50.29141902923584,2.0000000474974513,C,120335573863000
Raw,1676592831000,790697000000,,,-1360627258303370828,0.0,8.540794620934413,285.0,1.0,15,2,0.0,85026,432848922614630,23,36.25325012207031,74.69817061586417,0.15,16,43576.235752284265,340282346638528860000000000000000000000,1575420030,,,,0,,6,,32.05324935913086,-5.5588316172361365,1.5000000237487257,-5.5588316172361365,1.5000000237487257,C,120335573863000
Raw,1676592831000,790697000000,,,-1360627258303370828,0.0,8.540794620934413,285.0,1.0,15,11,0.0,85026,432848912827072,25,35.17129898071289,574.1600835693075,0.5567748706599085,16,442536.84690908925,340282346638528860000000000000000000000,1575420030,,,,0,,6,,30.97130012512207,-5.5588316172361365,1.5000000237487257,-5.5588316172361365,1.5000000237487257,C,120335573863000
Raw,1676592831000,790697000000,,,-1360627258303370828,0.0,8.540794620934413,285.0,1.0,15,25,0.0,85026,432848914450829,31,32.39144515991211,454.8394482303397,0.6820738963840829,16,347229.2835884065,340282346638528860000000000000000000000,1575420030,,,,0,,6,,28.191444396972656,-5.5588316172361365,1.5000000237487257,-5.5588316172361365,1.5000000237487257,C,120335573863000
Raw,1676592831000,790697000000,,,-1360627258303370828,0.0,8.540794620934413,285.0,1.0,15,30,0.0,85026,432848914461529,16,40.67411422729492,-319.50636358010775,0.15,16,-256273.08475828354,340282346638528860000000000000000000000,1575420030,,,,0,,6,,36.47411346435547,-5.5588316172361365,1.5000000237487257,-5.5588316172361365,1.5000000237487257,C,120335573863000
Raw,1676592831000,790697000000,,,-1360627258303370828,0.0,8.540794620934413,285.0,1.0,15,34,0.0,85026,432848918279275,22,36.756900787353516,-341.99799012372773,0.15,16,-288144.6539736788,340282346638528860000000000000000000000,1575420030,,,,0,,6,,32.55690002441406,-5.5588316172361365,1.5000000237487257,-5.5588316172361365,1.5000000237487257,C,120335573863000
Raw,1676592831000,790697000000,,,-1360627258303370828,0.0,8.540794620934413,285.0,1.0,15,36,0.0,85026,432848921885241,22,36.926082611083984,173.07812715712487,0.15,16,110516.14183182482,340282346638528860000000000000000000000,1575420030,,,,1,,6,,32.72608184814453,-5.5588316172361365,1.5000000237487257,-5.5588316172361365,1.5000000237487257,C,120335573863000
Raw,1676592831000,790697000000,,,-1360627258303370828,0.0,8.540794620934413,285.0,1.0,15,2,0.0,84003,432848922615163,10,33.61673355102539,74.60314020646445,0.6253847860919648,16,43568.6782452307,340282346638528860000000000000000000000,1176450050,,,,0,,6,,29.516733169555664,-3.896490670740604,1.8677126738444794,-3.896490670740604,1.5000000237487257,Q,120335573863000
Raw,1676592831000,790697000000,,,-1360627258303370828,0.0,8.540794620934413,285.0,1.0,15,11,0.0,84003,432848912827616,18,30.278165817260742,574.5803884231468,0.7737558375650386,16,443764.95037291327,340282346638528860000000000000000000000,1176450050,,,,0,,6,,26.178165435791016,4.599918611347673,1.8677126738444794,4.599918611347673,1.5000000237487257,Q,120335573863000
Raw,1676592831000,790697000000,,,-1360627258303370828,0.0,8.540794620934413,285.0,1.0,15,25,0.0,84003,432848914451370,32,29.088573455810547,455.299322816202,0.8275425471015883,16,346883.4280351619,340282346638528860000000000000000000000,1176450050,,,,0,,6,,24.98857307434082,-8.329399861395357,1.8677126738444794,-8.329399861395357,1.5000000237487257,Q,120335573863000
Raw,1676592831000,790697000000,,,-1360627258303370828,0.0,8.540794620934413,285.0,1.0,15,30,0.0,84003,432848914462066,14,30.703174591064453,-319.55312471045704,0.7549377284208925,16,-255964.82835003256,340282346638528860000000000000000000000,1176450050,,,,0,,6,,26.603174209594727,-7.959990762174129,1.8677126738444794,-7.959990762174129,1.5000000237487257,Q,120335573863000
Raw,1676592831000,790697000000,,,-1360627258303370828,0.0,8.540794620934413,285.0,1.0,15,34,0.0,84003,432848918279805,7,37.49394607543945,-342.1117573636009,0.15,16,-289225.7941204526,340282346638528860000000000000000000000,1176450050,,,,0,,6,,33.39394760131836,-9.62233170866966,1.8677126738444794,-9.62233170866966,1.5000000237487257,Q,120335573863000
Raw,1676592831000,790697000000,,,-1360627258303370828,0.0,8.540794620934413,285.0,1.0,15,36,0.0,84003,432848921885766,18,29.85416030883789,172.64176946626333,0.7944522095866215,16,110666.239369219,340282346638528860000000000000000000000,1176450050,,,,0,,6,,25.754159927368164,-10.545854456722733,1.8677126738444794,-10.545854456722733,1.5000000237487257,Q,120335573863000
UncalMag,1676592832037,120335667876232,-54.899998,30.1218,-109.068,-48.275375,2.3914185,-62.760414
UncalGyro,1676592832043,120335673007274,5.5255814,-0.9944886,1.9081903,0.0006375003,-0.0009450702,-0.0033514558
UncalAccel,1676592832043,120335673007274,11.922837,-7.5349984,-0.9517452,0.006110925,-0.043260336,-0.038735468
OrientationDeg,1676592832042,120335673007274,227.0,-29.0,53.0
Fix,FLP,37.4308156000,-122.1550628000,-15.80000114440918,0.25622928,3.601,59.758255,1676592831962,,,120335592186534,3.4523165
UncalMag,1676592832046,120335677864025,-57.5108,26.9376,-109.982994,-48.275375,2.3914185,-62.760414
UncalGyro,1676592832050,120335681991344,5.6822686,-1.2696834,1.6065756,0.0006375003,-0.0009450702,-0.0033514558
UncalAccel,1676592832050,120335681991344,11.617752,-7.6480594,-1.0444671,0.006110925,-0.043260336,-0.038735468
OrientationDeg,1676592832051,120335681991344,224.0,-27.0,50.0
UncalMag,1676592832057,120335687864513,-58.2672,24.7904,-111.971596,-48.275375,2.3914185,-62.760414
UncalGyro,1676592832060,120335690973644,5.8507147,-1.5100589,1.2901474,0.0006375003,-0.0009450702,-0.0033514558
UncalAccel,1676592832059,120335690973644,11.319846,-8.015358,-1.2239288,0.006110925,-0.043260336,-0.038735468
OrientationDeg,1676592832059,120335690973644,221.0,-25.0,48.0
UncalMag,1676592832067,120335697875988,-55.266,23.729,-110.434395,-48.275375,2.3914185,-62.760414
UncalGyro,1676592832068,120335699950878,5.988465,-1.680643,0.9877691,0.0006375003,-0.0009450702,-0.0033514558
UncalAccel,1676592832068,120335699950878,10.580463,-8.126026,-1.2472588,0.006110925,-0.043260336,-0.038735468
OrientationDeg,1676592832069,120335699950878,218.0,-25.0,45.0
UncalMag,1676592832077,120335707875988,-55.4612,21.0206,-113.6674,-48.275375,2.3914185,-62.760414
UncalGyro,1676592832078,120335708928660,6.0600886,-1.7802141,0.7163922,0.0006375003,-0.0009450702,-0.0033514558
UncalAccel,1676592832077,120335708928660,9.474381,-7.7940216,-1.6175481,0.006110925,-0.043260336,-0.038735468
OrientationDeg,1676592832077,120335708928660,216.0,-24.0,43.0
UncalMag,1676592832087,120335717876232,-58.254997,17.7144,-115.7902,-48.275375,2.3914185,-62.760414
UncalGyro,1676592832086,120335717911022,6.042832,-1.8252654,0.45097128,0.0006375003,-0.0009450702,-0.0033514558
UncalAccel,1676592832086,120335717911022,8.718249,-7.679166,-1.8771694,0.006110925,-0.043260336,-0.038735468
OrientationDeg,1676592832086,120335717911022,214.0,-24.0,40.0
UncalGyro,1676592832096,120335726895153,5.9220333,-1.8054122,0.16600263,0.0006375003,-0.0009450702,-0.0033514558
UncalAccel,1676592832095,120335726895153,8.312666,-7.9980097,-2.324029,0.006110925,-0.043260336,-0.038735468
UncalMag,1676592832096,120335727864757,-60.121597,15.3476,-117.3518,-48.275375,2.3914185,-62.760414
OrientationDeg,1676592832095,120335726895153,213.0,-24.0,37.0
UncalGyro,1676592832105,120335735874950,5.6746325,-1.7971655,-0.08933904,0.0006375003,-0.0009450702,-0.0033514558
UncalAccel,1676592832105,120335735874950,7.7258263,-8.335398,-2.7003005,0.006110925,-0.043260336,-0.038735468
UncalMag,1676592832107,120335737876232,-58.3038,13.7372,-116.326996,-48.275375,2.3914185,-62.760414
OrientationDeg,1676592832104,120335735874950,211.0,-24.0,35.0
UncalGyro,1676592832113,120335744852916,5.314833,-1.7721201,-0.28237244,0.0006375003,-0.0009450702,-0.0033514558
UncalAccel,1676592832113,120335744852916,7.103692,-8.551949,-2.528017,0.006110925,-0.043260336,-0.038735468
OrientationDeg,1676592832114,120335744852916,210.0,-24.0,32.0
UncalMag,1676592832116,120335747876232,-58.706398,9.0402,-115.4852,-48.275375,2.3914185,-62.760414
UncalGyro,1676592832122,120335753835277,4.893794,-1.5800029,-0.4195117,0.0006375003,-0.0009450702,-0.0033514558
UncalAccel,1676592832122,120335753835277,6.3194447,-8.312068,-1.6677973,0.006110925,-0.043260336,-0.038735468
OrientationDeg,1676592832122,120335753835277,209.0,-24.0,30.0
UncalMag,1676592832126,120335757875988,-60.3046,6.1,-117.5104,-48.275375,2.3914185,-62.760414
UncalGyro,1676592832132,120335762813793,4.4354925,-1.14018,-0.54092115,0.0006375003,-0.0009450702,-0.0033514558
UncalAccel,1676592832132,120335762813793,5.656633,-7.7754774,-0.82911307,0.006110925,-0.043260336,-0.038735468
OrientationDeg,1676592832132,120335762813793,208.0,-25.0,28.0
UncalMag,1676592832136,120335767864269,-61.365997,3.965,-115.1314,-48.275375,2.3914185,-62.760414
UncalGyro,1676592832140,120335771791148,3.934583,-0.5164866,-0.66538495,0.0006375003,-0.0009450702,-0.0033514558
UncalAccel,1676592832140,120335771791148,5.2863436,-7.3896346,-0.5377869,0.006110925,-0.043260336,-0.038735468
OrientationDeg,1676592832141,120335771791148,208.0,-25.0,26.0
UncalMag,1676592832147,120335777875988,-60.2192,2.2935998,-116.0952,-48.275375,2.3914185,-62.760414
UncalGyro,1676592832150,120335780774059,3.3603697,0.1151481,-0.7666359,0.0006375003,-0.0009450702,-0.0033514558
UncalAccel,1676592832150,120335780774059,4.8083773,-7.0749784,-0.7196414,0.006110925,-0.043260336,-0.038735468
OrientationDeg,1676592832150,120335780774059,207.0,-25.0,24.0
UncalMag,1676592832156,120335787875988,-60.6462,1.8909999,-119.0354,-48.275375,2.3914185,-62.760414
UncalGyro,1676592832159,120335789758739,2.7013988,0.6559166,-0.8174904,0.0006375003,-0.0009450702,-0.0033514558
UncalAccel,1676592832159,120335789758739,4.1144586,-6.8165536,-0.82612205,0.006110925,-0.043260336,-0.038735468
OrientationDeg,1676592832159,120335789758739,207.0,-24.0,23.0
UncalMag,1676592832166,120335797875988,-60.280197,0.93939996,-119.804,-48.275375,2.3914185,-62.760414
UncalGyro,1676592832167,120335798731883,1.9953914,1.1433871,-0.8046622,0.0006375003,-0.0009450702,-0.0033514558
UncalAccel,1676592832168,120335798731883,3.6520455,-6.602994,-0.44147578,0.006110925,-0.043260336,-0.038735468
OrientationDeg,1676592832168,120335798731883,207.0,-24.0,22.0
