# 
# Header Description:
# 
# Version: v3.0.5.6 Platform: 13 Manufacturer: Google Model: Pixel 6
# 
# Raw,utcTimeMillis,TimeNanos,LeapSecond,TimeUncertaintyNanos,FullBiasNanos,BiasNanos,BiasUncertaintyNanos,DriftNanosPerSecond,DriftUncertaintyNanosPerSecond,HardwareClockDiscontinuityCount,Svid,TimeOffsetNanos,State,ReceivedSvTimeNanos,ReceivedSvTimeUncertaintyNanos,Cn0DbHz,PseudorangeRateMetersPerSecond,PseudorangeRateUncertaintyMetersPerSecond,AccumulatedDeltaRangeState,AccumulatedDeltaRangeMeters,AccumulatedDeltaRangeUncertaintyMeters,CarrierFrequencyHz,CarrierCycles,CarrierPhase,CarrierPhaseUncertainty,MultipathIndicator,SnrInDb,ConstellationType,AgcDb,BasebandCn0DbHz,FullInterSignalBiasNanos,FullInterSignalBiasUncertaintyNanos,SatelliteInterSignalBiasNanos,SatelliteInterSignalBiasUncertaintyNanos,CodeType,ChipsetElapsedRealtimeNanos
# 
# UncalAccel,utcTimeMillis,elapsedRealtimeNanos,UncalAccelXMps2,UncalAccelYMps2,UncalAccelZMps2,BiasXMps2,BiasYMps2,BiasZMps2
# 
# Accel,utcTimeMillis,elapsedRealtimeNanos,AccelXMps2,AccelYMps2,AccelZMps2
# 
# UncalGyro,utcTimeMillis,elapsedRealtimeNanos,UncalGyroXRadPerSec,UncalGyroYRadPerSec,UncalGyroZRadPerSec,DriftXRadPerSec,DriftYRadPerSec,DriftZRadPerSec
# 
# Gyro,utcTimeMillis,elapsedRealtimeNanos,GyroXRadPerSec,GyroYRadPerSec,GyroZRadPerSec
# 
# UncalMag,utcTimeMillis,elapsedRealtimeNanos,UncalMagXMicroT,UncalMagYMicroT,UncalMagZMicroT,BiasXMicroT,BiasYMicroT,BiasZMicroT
# 
# Mag,utcTimeMillis,elapsedRealtimeNanos,MagXMicroT,MagYMicroT,MagZMicroT
# 
# OrientationDeg,utcTimeMillis,elapsedRealtimeNanos,yawDeg,rollDeg,pitchDeg
# 
# Fix,Provider,LatitudeDegrees,LongitudeDegrees,AltitudeMeters,SpeedMps,AccuracyMeters,BearingDegrees,UnixTimeMillis,SpeedAccuracyMps,BearingAccuracyDegrees,elapsedRealtimeNanos,VerticalAccuracyMeters
# 
# Nav,Svid,Type,Status,MessageId,Sub-messageId,Data(Bytes)
# 
# Status,UnixTimeMillis,SignalCount,SignalIndex,ConstellationType,Svid,CarrierFrequencyHz,Cn0DbHz,AzimuthDegrees,ElevationDegrees,UsedInFix,HasAlmanacData,HasEphemerisData,BasebandCn0DbHz
# 
UncalGyro,1676593952562,121456192759716,-0.049938235,-0.3118467,-0.3764457,0.00046807388,-0.0009819071,-0.0032385094
UncalAccel,1676593952566,121456197233836,0.5174479,1.9369899,10.801202,0.006110925,-0.043260336,-0.038735468
UncalMag,1676593952568,121456199999523,-54.826797,-26.962,-100.637794,-47.771046,2.9698257,-64.15999
UncalGyro,1676593952571,121456201726757,-0.044898596,-0.14630222,-0.4382958,0.00046807388,-0.0009819071,-0.0032385094
UncalAccel,1676593952576,121456206228221,0.69332033,1.6384853,11.372488,0.006110925,-0.043260336,-0.038735468
OrientationDeg,1676593952566,121456197233836,161.0,2.0,-16.0
OrientationDeg,1676593952575,121456206228221,162.0,2.0,-16.0
UncalMag,1676593952579,121456210010998,-53.570198,-27.0474,-100.5158,-47.771046,2.9698257,-64.15999
UncalGyro,1676593952579,121456210719067,-0.013591751,0.124311075,-0.4888449,0.00046807388,-0.0009819071,-0.0032385094
UncalAccel,1676593952585,121456215206981,0.6795616,1.2837493,11.727822,0.006110925,-0.043260336,-0.038735468
OrientationDeg,1676593952585,121456215206981,162.0,2.0,-16.0
UncalGyro,1676593952589,121456219694957,-0.014660766,0.47571132,-0.50579643,0.00046807388,-0.0009819071,-0.0032385094
UncalMag,1676593952588,121456219999035,-53.655598,-26.9742,-99.368996,-47.771046,2.9698257,-64.15999
Fix,FLP,37.4312729000,-122.1550218000,-15.80000114440918,0.5987486,4.989,124.30443,1676593951880,,,121455510284801,3.1024957
UncalAccel,1676593952593,121456224183544,0.41156548,0.96430755,11.505888,0.006110925,-0.043260336,-0.038735468
OrientationDeg,1676593952594,121456224183544,162.0,2.0,-16.0
UncalGyro,1676593952598,121456228674999,-0.047036625,0.79733187,-0.4474588,0.00046807388,-0.0009819071,-0.0032385094
UncalMag,1676593952600,121456230010753,-53.9118,-27.4988,-101.0526,-47.771046,2.9698257,-64.15999
UncalAccel,1676593952602,121456233163768,-0.2638087,0.25842485,10.974681,0.006110925,-0.043260336,-0.038735468
OrientationDeg,1676593952603,121456233163768,162.0,3.0,-16.0
UncalGyro,1676593952607,121456237654735,-0.09712757,1.0080804,-0.18295415,0.00046807388,-0.0009819071,-0.0032385094
UncalMag,1676593952610,121456240010753,-52.521,-27.206,-97.417,-47.771046,2.9698257,-64.15999
UncalAccel,1676593952612,121456242143688,-1.0247263,0.38285163,10.805388,0.006110925,-0.043260336,-0.038735468
OrientationDeg,1676593952612,121456242143688,162.0,3.0,-16.0
UncalGyro,1676593952616,121456246635448,-0.14889841,1.0966558,0.16905695,0.00046807388,-0.0009819071,-0.0032385094
UncalMag,1676593952620,121456250010753,-49.763798,-25.7664,-95.7456,-47.771046,2.9698257,-64.15999
UncalAccel,1676593952620,121456251123485,-1.4440684,1.5840486,10.690534,0.006110925,-0.043260336,-0.038735468
OrientationDeg,1676593952621,121456251123485,162.0,4.0,-16.0
UncalGyro,1676593952624,121456255614452,-0.15928312,1.0830641,0.47128254,0.00046807388,-0.0009819071,-0.0032385094
UncalMag,1676593952629,121456260010753,-50.1054,-25.803,-94.086395,-47.771046,2.9698257,-64.15999
OrientationDeg,1676593952629,121456260100535,162.0,4.0,-16.0
UncalAccel,1676593952629,121456260100535,-1.5732809,2.2031915,10.759327,0.006110925,-0.043260336,-0.038735468
UncalGyro,1676593952633,121456264580639,-0.11255192,1.0354166,0.6580546,0.00046807388,-0.0009819071,-0.0032385094
UncalAccel,1676593952638,121456269068065,-0.83030945,2.5106692,10.435698,0.006110925,-0.043260336,-0.038735468
OrientationDeg,1676593952639,121456269068065,161.0,5.0,-16.0
UncalMag,1676593952640,121456270000011,-49.6662,-25.8396,-96.7826,-47.771046,2.9698257,-64.15999
UncalGyro,1676593952642,121456273574169,0.005497787,0.9129381,0.68432176,0.00046807388,-0.0009819071,-0.0032385094
UncalAccel,1676593952648,121456278065684,-0.38823548,2.3784657,10.527822,0.006110925,-0.043260336,-0.038735468
OrientationDeg,1676593952648,121456278065684,161.0,5.0,-16.0
UncalMag,1676593952649,121456280010753,-50.8374,-26.3886,-96.8436,-47.771046,2.9698257,-64.15999
UncalGyro,1676593952651,121456282558910,0.21533,0.8176431,0.56673026,0.00046807388,-0.0009819071,-0.0032385094
UncalAccel,1676593952656,121456287039928,-0.10289137,2.309672,11.534003,0.006110925,-0.043260336,-0.038735468
OrientationDeg,1676593952657,121456287039928,161.0,6.0,-16.0
UncalMag,1676593952660,121456290010998,-49.41,-26.291,-96.5142,-47.771046,2.9698257,-64.15999
UncalGyro,1676593952660,121456291521923,0.5320636,0.86651236,0.36713,0.00046807388,-0.0009819071,-0.0032385094
UncalAccel,1676593952666,121456296022350,-0.2650051,2.224727,12.305091,0.006110925,-0.043260336,-0.038735468
OrientationDeg,1676593952666,121456296022350,161.0,6.0,-17.0
UncalMag,1676593952669,121456300010998,-48.604797,-26.352,-94.244995,-47.771046,2.9698257,-64.15999
UncalGyro,1676593952669,121456300513622,0.93202764,1.001819,0.17302758,0.00046807388,-0.0009819071,-0.0032385094
UncalAccel,1676593952675,121456305005625,-0.60059845,2.1738794,11.712269,0.006110925,-0.043260336,-0.038735468
OrientationDeg,1676593952675,121456305005625,161.0,7.0,-17.0
UncalGyro,1676593952678,121456309490611,1.3005321,0.9036224,0.08109236,0.00046807388,-0.0009819071,-0.0032385094
UncalMag,1676593952678,121456309999279,-48.9586,-26.7302,-95.5382,-47.771046,2.9698257,-64.15999
UncalAccel,1676593952682,121456313970714,-0.9068798,1.838286,7.539186,0.006110925,-0.043260336,-0.038735468
OrientationDeg,1676593952682,121456313970714,161.0,7.0,-18.0
UncalGyro,1676593952688,121456318474498,1.2289082,0.04444045,0.0571159,0.00046807388,-0.0009819071,-0.0032385094
UncalMag,1676593952690,121456320010509,-49.0074,-27.803799,-95.318596,-47.771046,2.9698257,-64.15999
UncalAccel,1676593952692,121456322959178,-1.0301101,2.6769702,4.802395,0.006110925,-0.043260336,-0.038735468
OrientationDeg,1676593952692,121456322959178,161.0,7.0,-19.0
UncalGyro,1676593952696,121456327444591,0.82558435,-1.0468704,-0.051923547,0.00046807388,-0.0009819071,-0.0032385094
UncalMag,1676593952699,121456330010753,-50.5202,-27.8282,-94.720795,-47.771046,2.9698257,-64.15999
UncalAccel,1676593952700,121456331939159,0.7046863,2.2025933,7.1192455,0.006110925,-0.043260336,-0.038735468
OrientationDeg,1676593952701,121456331939159,161.0,6.0,-19.0
UncalGyro,1676593952706,121456336422557,0.7102836,-1.7594446,-0.28053987,0.00046807388,-0.0009819071,-0.0032385094
UncalMag,1676593952710,121456340010998,-48.214397,-27.1206,-93.8668,-47.771046,2.9698257,-64.15999
UncalAccel,1676593952709,121456340924755,1.905285,1.4961123,9.01795,0.006110925,-0.043260336,-0.038735468
OrientationDeg,1676593952710,121456340924755,161.0,5.0,-19.0
UncalGyro,1676593952714,121456345413036,0.870483,-2.1733057,-0.4980079,0.00046807388,-0.0009819071,-0.0032385094
UncalAccel,1676593952718,121456349904674,2.3641088,1.8628124,9.360124,0.006110925,-0.043260336,-0.038735468
OrientationDeg,1676593952719,121456349904674,162.0,4.0,-20.0
UncalMag,1676593952719,121456349999035,-50.080997,-28.1576,-93.012794,-47.771046,2.9698257,-64.15999
UncalGyro,1676593952724,121456354393749,1.10139,-2.6317601,-0.7133379,0.00046807388,-0.0009819071,-0.0032385094
UncalAccel,1676593952728,121456358881481,2.7792635,2.6129622,9.513863,0.006110925,-0.043260336,-0.038735468
UncalMag,1676593952730,121456360010753,-50.264,-28.548,-92.0002,-47.771046,2.9698257,-64.15999
OrientationDeg,1676593952728,121456358881481,162.0,2.0,-20.0
UncalGyro,1676593952733,121456363372448,1.3529139,-3.084106,-0.9764681,0.00046807388,-0.0009819071,-0.0032385094
UncalAccel,1676593952737,121456367861034,2.9659038,3.0293136,9.931411,0.006110925,-0.043260336,-0.038735468
OrientationDeg,1676593952736,121456367861034,163.0,1.0,-21.0
UncalMag,1676593952740,121456370010998,-51.703598,-28.9628,-92.1588,-47.771046,2.9698257,-64.15999
UncalGyro,1676593952741,121456372352489,1.63437,-3.3961053,-1.2771665,0.00046807388,-0.0009819071,-0.0032385094
UncalAccel,1676593952746,121456376841320,2.7074788,3.2757742,10.488938,0.006110925,-0.043260336,-0.038735468
OrientationDeg,1676593952746,121456376841320,164.0,0.0,-22.0
UncalMag,1676593952750,121456380010753,-50.5324,-28.9872,-91.1096,-47.771046,2.9698257,-64.15999
UncalGyro,1676593952750,121456381332469,1.8990273,-3.4773505,-1.5865698,0.00046807388,-0.0009819071,-0.0032385094
UncalAccel,1676593952754,121456385821239,2.003989,3.5150564,11.416157,0.006110925,-0.043260336,-0.038735468
OrientationDeg,1676593952755,121456385821239,165.0,-1.0,-23.0
UncalMag,1676593952760,121456390010998,-52.496597,-30.4268,-91.1706,-47.771046,2.9698257,-64.15999
UncalGyro,1676593952759,121456390310618,2.022575,-3.171765,-1.8648189,0.00046807388,-0.0009819071,-0.0032385094
UncalAccel,1676593952763,121456394790660,0.94755775,3.862614,13.50569,0.006110925,-0.043260336,-0.038735468
OrientationDeg,1676593952763,121456394790660,166.0,-2.0,-24.0
UncalGyro,1676593952769,121456399291942,1.8869628,-2.2553146,-2.0803015,0.00046807388,-0.0009819071,-0.0032385094
UncalMag,1676593952770,121456400010998,-52.0574,-30.7318,-91.6464,-47.771046,2.9698257,-64.15999
UncalAccel,1676593952772,121456403780712,0.46181476,3.4953158,10.9992075,0.006110925,-0.043260336,-0.038735468
OrientationDeg,1676593952772,121456403780712,167.0,-3.0,-25.0
UncalGyro,1676593952777,121456408275523,1.6762142,-1.6336064,-2.1661282,0.00046807388,-0.0009819071,-0.0032385094
UncalMag,1676593952778,121456409996837,-52.0086,-31.5858,-91.012,-47.771046,2.9698257,-64.15999
UncalAccel,1676593952781,121456412760936,0.27816564,2.8624141,7.559525,0.006110925,-0.043260336,-0.038735468
OrientationDeg,1676593952782,121456412760936,168.0,-3.0,-26.0
UncalGyro,1676593952787,121456417251720,1.4263704,-1.4607315,-2.127491,0.00046807388,-0.0009819071,-0.0032385094
UncalMag,1676593952790,121456420010753,-50.6788,-32.1592,-89.1332,-47.771046,2.9698257,-64.15999
UncalAccel,1676593952790,121456421740734,-0.058624156,2.9449666,6.4145594,0.006110925,-0.043260336,-0.038735468
OrientationDeg,1676593952790,121456421740734,169.0,-3.0,-27.0
UncalGyro,1676593952795,121456426232799,1.0783299,-1.4726434,-2.0034852,0.00046807388,-0.0009819071,-0.0032385094
UncalMag,1676593952800,121456430010753,-50.9838,-32.098198,-89.0112,-47.771046,2.9698257,-64.15999
UncalAccel,1676593952800,121456430717418,-0.13519448,2.748755,6.174679,0.006110925,-0.043260336,-0.038735468
OrientationDeg,1676593952799,121456430717418,170.0,-3.0,-27.0
UncalGyro,1676593952804,121456435199352,0.7322747,-1.5633569,-1.7974709,0.00046807388,-0.0009819071,-0.0032385094
UncalAccel,1676593952808,121456439699779,-0.1268196,2.8115666,6.470791,0.006110925,-0.043260336,-0.038735468
UncalMag,1676593952810,121456440001720,-51.0692,-32.8912,-88.315796,-47.771046,2.9698257,-64.15999
OrientationDeg,1676593952808,121456439699779,171.0,-4.0,-27.0
UncalGyro,1676593952813,121456444191112,0.42378777,-1.6502525,-1.5102116,0.00046807388,-0.0009819071,-0.0032385094
UncalAccel,1676593952817,121456448683117,-0.0047856453,2.8923244,7.0151577,0.006110925,-0.043260336,-0.038735468
OrientationDeg,1676593952818,121456448683117,172.0,-4.0,-28.0
UncalMag,1676593952820,121456450010753,-50.1298,-32.4276,-89.1576,-47.771046,2.9698257,-64.15999
UncalGyro,1676593952823,121456453171032,0.15012014,-1.6777414,-1.1462886,0.00046807388,-0.0009819071,-0.0032385094
UncalAccel,1676593952827,121456457659984,0.020338992,3.5162528,8.676973,0.006110925,-0.043260336,-0.038735468
OrientationDeg,1676593952826,121456457659984,172.0,-5.0,-28.0
UncalMag,1676593952830,121456460010998,-50.2518,-32.9278,-87.8888,-47.771046,2.9698257,-64.15999
UncalGyro,1676593952832,121456462152294,-0.1067487,-1.3924674,-0.7987063,0.00046807388,-0.0009819071,-0.0032385094
UncalAccel,1676593952835,121456466639843,-0.8757731,3.4121652,10.368699,0.006110925,-0.043260336,-0.038735468
OrientationDeg,1676593952835,121456466639843,173.0,-5.0,-27.0
UncalMag,1676593952840,121456470010753,-50.617798,-33.0132,-88.0718,-47.771046,2.9698257,-64.15999
UncalGyro,1676593952840,121456471130870,-0.20540343,-0.91965765,-0.40668353,0.00046807388,-0.0009819071,-0.0032385094
UncalAccel,1676593952845,121456475618602,-3.3822548,3.4995031,11.296515,0.006110925,-0.043260336,-0.038735468
OrientationDeg,1676593952844,121456475618602,173.0,-5.0,-27.0
UncalMag,1676593952849,121456480010998,-50.459198,-32.94,-88.9136,-47.771046,2.9698257,-64.15999
UncalGyro,1676593952849,121456480105174,-0.1956296,-0.5377141,0.12568553,0.00049669604,-0.0009074012,-0.003201769
UncalAccel,1676593952853,121456484587841,-3.385844,3.882953,11.632109,0.006110925,-0.043260336,-0.038735468
OrientationDeg,1676593952854,121456484587841,173.0,-6.0,-27.0
UncalGyro,1676593952858,121456489090587,-0.1910481,-0.07498371,0.627664,0.0005121604,-0.00086714607,-0.0031819183
UncalMag,1676593952859,121456490010753,-51.118,-33.2816,-88.2426,-47.771046,2.9698257,-64.15999
UncalAccel,1676593952862,121456493580394,0.07716853,4.1312084,11.65843,0.006110925,-0.043260336,-0.038735468
OrientationDeg,1676593952863,121456493580394,172.0,-6.0,-27.0
UncalGyro,1676593952868,121456498070140,-0.26557365,0.5421429,0.8597928,0.0005145003,-0.0008610551,-0.0031789148
UncalMag,1676593952869,121456500010753,-50.629997,-32.452,-89.2796,-47.771046,2.9698257,-64.15999
UncalAccel,1676593952872,121456502543224,3.0496526,3.6424742,10.2825575,0.006110925,-0.043260336,-0.038735468
OrientationDeg,1676593952871,121456502543224,172.0,-5.0,-27.0
UncalGyro,1676593952876,121456507050426,-0.355829,0.9793697,0.8770498,0.0005148544,-0.0008601335,-0.0031784603
UncalMag,1676593952880,121456510010998,-50.4836,-32.647198,-88.1206,-47.771046,2.9698257,-64.15999
UncalAccel,1676593952880,121456511538768,4.526024,3.173481,9.953544,0.006110925,-0.043260336,-0.038735468
OrientationDeg,1676593952880,121456511538768,171.0,-5.0,-27.0
UncalGyro,1676593952885,121456516033946,-0.43890667,1.3045027,0.80664754,0.000514908,-0.00085999403,-0.0031783916
UncalMag,1676593952889,121456520015392,-51.6548,-32.7692,-88.0596,-47.771046,2.9698257,-64.15999
UncalAccel,1676593952889,121456520516002,4.837091,2.7349963,9.981061,0.006110925,-0.043260336,-0.038735468
OrientationDeg,1676593952890,121456520516002,171.0,-5.0,-26.0
UncalGyro,1676593952893,121456524999218,-0.51266867,1.5482379,0.7457138,0.0005149161,-0.0008599729,-0.0031783811
UncalAccel,1676593952899,121456529498973,4.64746,2.3623142,10.159327,0.006110925,-0.043260336,-0.038735468
UncalMag,1676593952898,121456529999523,-49.898,-31.598,-88.7428,-47.771046,2.9698257,-64.15999
OrientationDeg,1676593952898,121456529498973,170.0,-4.0,-26.0
UncalGyro,1676593952902,121456533990734,-0.5477934,1.7898352,0.73823065,0.0005149173,-0.00085996976,-0.0031783795
OrientationDeg,1676593952908,121456538481334,170.0,-3.0,-26.0
UncalAccel,1676593952908,121456538481334,4.153342,2.0775683,10.269995,0.006110925,-0.043260336,-0.038735468
UncalMag,1676593952909,121456540010509,-49.7882,-31.463799,-91.121796,-47.771046,2.9698257,-64.15999
UncalGyro,1676593952912,121456542966624,-0.5311473,1.9187278,0.8216137,0.0005149175,-0.0008599693,-0.0031783793
UncalAccel,1676593952917,121456547447277,2.9880373,2.3814569,9.256036,0.006110925,-0.043260336,-0.038735468
OrientationDeg,1676593952916,121456547447277,170.0,-2.0,-25.0
UncalMag,1676593952919,121456550010998,-50.569,-32.3422,-90.585,-47.771046,2.9698257,-64.15999
UncalGyro,1676593952920,121456551950634,-0.4961753,1.6807957,0.946383,0.0005149175,-0.0008599692,-0.0031783793
UncalAccel,1676593952925,121456556438488,2.248655,3.0616167,8.479566,0.006110925,-0.043260336,-0.038735468
OrientationDeg,1676593952926,121456556438488,169.0,-2.0,-25.0
UncalMag,1676593952930,121456560010998,-47.6532,-30.5122,-90.365395,-47.771046,2.9698257,-64.15999
UncalGyro,1676593952930,121456560932200,-0.49220467,1.2379184,1.0158689,0.0005149175,-0.0008599692,-0.0031783793
UncalAccel,1676593952934,121456565418163,2.2121646,3.2536407,8.52802,0.006110925,-0.043260336,-0.038735468
OrientationDeg,1676593952935,121456565418163,169.0,-2.0,-25.0
UncalGyro,1676593952939,121456569910289,-0.5155703,0.9265299,0.9859365,0.0005149175,-0.0008599692,-0.0031783793
UncalMag,1676593952939,121456569998790,-49.8248,-31.0856,-93.0616,-47.771046,2.9698257,-64.15999
UncalAccel,1676593952944,121456574397838,2.053042,3.07717,8.550154,0.006110925,-0.043260336,-0.038735468
OrientationDeg,1676593952944,121456574397838,168.0,-2.0,-24.0
UncalGyro,1676593952948,121456578888805,-0.52564955,0.7405214,0.8790351,0.0005149175,-0.0008599692,-0.0031783793
UncalMag,1676593952949,121456580010753,-49.8248,-31.0856,-93.0616,-47.771046,2.9698257,-64.15999
UncalAccel,1676593952953,121456583377391,2.1314068,3.1292138,8.179266,0.006110925,-0.043260336,-0.038735468
OrientationDeg,1676593952952,121456583377391,168.0,-1.0,-24.0
UncalGyro,1676593952957,121456587869152,-0.49938235,0.5693264,0.72295904,0.0005149175,-0.0008599692,-0.0031783793
UncalMag,1676593952960,121456590010753,-49.5564,-30.6098,-92.5492,-47.771046,2.9698257,-64.15999
UncalAccel,1676593952961,121456592357921,2.1385853,3.3355947,8.103892,0.006110925,-0.043260336,-0.038735468
OrientationDeg,1676593952961,121456592357921,167.0,-1.0,-24.0
UncalGyro,1676593952966,121456596848888,-0.4474588,0.4605924,0.55878896,0.0005149175,-0.0008599692,-0.0031783793
UncalMag,1676593952969,121456600010998,-50.8984,-31.183199,-96.7704,-47.771046,2.9698257,-64.15999
UncalAccel,1676593952970,121456601337840,1.814956,3.5389848,8.279764,0.006110925,-0.043260336,-0.038735468
OrientationDeg,1676593952971,121456601337840,167.0,-1.0,-24.0
UncalGyro,1676593952974,121456605829723,-0.36285394,0.37400225,0.40454552,0.0005149175,-0.0008599692,-0.0031783793
UncalMag,1676593952979,121456610010998,-52.0696,-31.231998,-97.2706,-47.771046,2.9698257,-64.15999
UncalAccel,1676593952979,121456610317699,1.538585,3.5072799,8.182856,0.006110925,-0.043260336,-0.038735468
OrientationDeg,1676593952980,121456610317699,167.0,-1.0,-23.0
UncalGyro,1676593952983,121456614810009,-0.24663684,0.22678372,0.27183503,0.0005149175,-0.0008599692,-0.0031783793
UncalAccel,1676593952988,121456619297130,1.3471591,3.249453,7.975876,0.006110925,-0.043260336,-0.038735468
UncalMag,1676593952990,121456620000988,-50.312798,-30.9636,-94.184,-47.771046,2.9698257,-64.15999
OrientationDeg,1676593952988,121456619297130,167.0,-1.0,-23.0
UncalGyro,1676593952992,121456623788768,-0.09865474,0.02397646,0.16355917,0.0005149175,-0.0008599692,-0.0031783793
UncalAccel,1676593952997,121456628276622,1.4973087,2.7206392,7.6019974,0.006110925,-0.043260336,-0.038735468
UncalMag,1676593952999,121456630010998,-50.629997,-30.414598,-94.9282,-47.771046,2.9698257,-64.15999
OrientationDeg,1676593952998,121456628276622,167.0,-1.0,-23.0
UncalGyro,1676593953002,121456632768016,0.049632803,-0.19700404,0.095753126,0.0005149175,-0.0008599692,-0.0031783793
UncalAccel,1676593953006,121456637257152,1.2496517,2.1182463,7.5553374,0.006110925,-0.043260336,-0.038735468
OrientationDeg,1676593953006,121456637257152,167.0,-2.0,-23.0
UncalMag,1676593953010,121456640010998,-50.325,-30.5366,-94.2816,-47.771046,2.9698257,-64.15999
UncalGyro,1676593953010,121456641748912,0.16722436,-0.38423425,0.114689946,0.0005149175,-0.0008599692,-0.0031783793
UncalAccel,1676593953016,121456646236583,1.372882,1.8101703,7.2299137,0.006110925,-0.043260336,-0.038735468
OrientationDeg,1676593953015,121456646236583,167.0,-2.0,-24.0
UncalMag,1676593953020,121456650010998,-51.1424,-30.744,-94.549995,-47.771046,2.9698257,-64.15999
UncalGyro,1676593953020,121456650727977,0.24220806,-0.5681047,0.1947133,0.0005149175,-0.0008599692,-0.0031783793
OrientationDeg,1676593953024,121456655216503,166.0,-2.0,-24.0
UncalAccel,1676593953024,121456655216503,1.5290136,1.5218352,7.0672016,0.006110925,-0.043260336,-0.038735468
UncalGyro,1676593953028,121456659707775,0.28023443,-0.72509706,0.313832,0.0005149175,-0.0008599692,-0.0031783793
UncalMag,1676593953028,121456659998790,-51.325397,-30.8294,-94.3548,-47.771046,2.9698257,-64.15999
UncalAccel,1676593953034,121456664193431,1.6809579,1.4823537,7.1772714,0.006110925,-0.043260336,-0.038735468
OrientationDeg,1676593953033,121456664193431,166.0,-3.0,-24.0
UncalGyro,1676593953037,121456668675487,0.27488935,-0.81382525,0.43172902,0.0005149175,-0.0008599692,-0.0031783793
UncalMag,1676593953039,121456670010753,-52.155,-31.183199,-93.9522,-47.771046,2.9698257,-64.15999
UncalAccel,1676593953043,121456673176708,1.7617157,1.625923,7.440482,0.006110925,-0.043260336,-0.038735468
OrientationDeg,1676593953042,121456673176708,166.0,-3.0,-24.0
UncalGyro,1676593953047,121456677668407,0.23518312,-0.8335256,0.5346598,0.0005149175,-0.0008599692,-0.0031783793
UncalMag,1676593953050,121456680010753,-51.911,-31.2076,-93.6594,-47.771046,2.9698257,-64.15999
UncalAccel,1676593953051,121456682159252,2.2971098,1.7521443,7.32443,0.006110925,-0.043260336,-0.038735468
OrientationDeg,1676593953051,121456682159252,166.0,-4.0,-24.0
UncalGyro,1676593953055,121456686648143,0.17531833,-0.8889617,0.61162883,0.0005149175,-0.0008599692,-0.0031783793
UncalMag,1676593953059,121456690011242,-53.3628,-30.866,-94.428,-47.771046,2.9698257,-64.15999
UncalAccel,1676593953060,121456691136241,2.705086,1.9363917,7.012765,0.006110925,-0.043260336,-0.038735468
OrientationDeg,1676593953061,121456691136241,165.0,-5.0,-24.0
UncalGyro,1676593953065,121456695616710,0.10873401,-0.9783007,0.6452264,0.0005149175,-0.0008599692,-0.0031783793
UncalMag,1676593953069,121456700010753,-52.5332,-30.6586,-93.8302,-47.771046,2.9698257,-64.15999
UncalAccel,1676593953069,121456700113170,2.9252257,2.1894326,7.2436724,0.006110925,-0.043260336,-0.038735468
OrientationDeg,1676593953070,121456700113170,165.0,-5.0,-24.0
UncalGyro,1676593953074,121456704594432,0.07162395,-1.0392345,0.6458373,0.0005149175,-0.0008599692,-0.0031783793
UncalAccel,1676593953078,121456709098643,3.2554352,2.364707,7.2987075,0.006110925,-0.043260336,-0.038735468
UncalMag,1676593953080,121456710011974,-54.6438,-31.231998,-93.159195,-47.771046,2.9698257,-64.15999
OrientationDeg,1676593953079,121456709098643,164.0,-6.0,-24.0
Status,0,30,0,6,2,1176450050,35.92,90.0,78.0,1,1,1,31.818432
Status,0,30,1,6,2,1575420030,42.16,90.0,78.0,1,1,1,37.955353
Status,0,30,2,3,17,1604249980,39.27,297.0,74.0,1,1,1,35.071167
Status,0,30,3,1,11,1176450050,40.26,141.0,73.0,1,1,1,36.16006
Status,0,30,4,1,11,1575420030,45.02,141.0,73.0,1,1,1,40.824368
Status,0,30,5,3,15,1602000000,39.79,326.0,71.0,1,1,1,35.58737
Status,0,30,6,6,36,1176450050,42.10,57.0,66.0,1,1,1,38.00103
Status,0,30,7,6,36,1575420030,41.69,57.0,66.0,1,1,1,37.487976
Status,0,30,8,1,12,1575420030,41.57,324.0,60.0,1,1,1,37.365345
Status,0,30,9,6,34,1575420030,41.95,203.0,55.0,1,1,1,37.750465
Status,0,30,10,6,34,1176450050,37.88,203.0,55.0,1,1,1,33.782513
Status,0,30,11,3,14,1598062460,44.19,149.0,51.0,1,1,1,39.99334
Status,0,30,12,1,6,1575420030,47.38,51.0,49.0,1,1,1,43.18279
Status,0,30,13,1,6,1176450050,42.75,51.0,49.0,1,1,1,38.648663
Status,0,30,14,6,30,1575420030,37.07,315.0,42.0,0,1,1,32.87427
Status,0,30,15,1,24,1176450050,40.00,223.0,42.0,1,1,1,35.90192
Status,0,30,16,6,30,1176450050,35.89,315.0,42.0,1,1,1,31.78781
Status,0,30,17,1,24,1575420030,44.54,223.0,42.0,1,1,1,40.33551
Status,0,30,18,3,24,1603124990,48.75,32.0,35.0,1,1,1,44.545467
Status,0,30,19,3,18,1600312450,37.14,234.0,32.0,1,1,1,32.943424
Status,0,30,20,1,25,1176450050,35.96,311.0,30.0,1,1,1,31.860489
Status,0,30,21,1,25,1575420030,38.17,311.0,30.0,1,1,1,33.9658
Status,0,30,22,6,25,1176450050,37.76,123.0,29.0,1,1,1,33.66494
Status,0,30,23,1,19,1575420030,46.82,57.0,29.0,1,1,1,42.62351
Status,0,30,24,6,25,1575420030,43.81,123.0,29.0,1,1,1,39.60912
Status,0,30,25,1,20,1575420030,45.37,145.0,22.0,1,1,1,41.172245
Status,0,30,26,6,11,1575420030,41.36,40.0,17.0,1,1,1,37.158375
Status,0,30,27,3,16,1601437440,41.35,328.0,17.0,1,1,1,37.150837
Status,0,30,28,6,11,1176450050,39.65,40.0,17.0,1,1,1,35.547794
Status,0,30,29,1,29,1575420030,38.04,261.0,12.0,1,1,1,33.840725
UncalGyro,1676593953082,121456713587291,0.078343466,-1.0983357,0.6377433,0.0005149175,-0.0008599692,-0.0031783793
OrientationDeg,1676593953087,121456718078563,164.0,-7.0,-24.0
OrientationDeg,1676593953097,121456727055492,164.0,-8.0,-24.0
UncalAccel,1676593953088,121456718078563,3.365505,2.4071796,7.2089763,0.006110925,-0.043260336,-0.038735468
UncalMag,1676593953089,121456720010509,-53.6068,-30.987999,-93.7082,-47.771046,2.9698257,-64.15999
UncalGyro,1676593953091,121456722566600,0.12843442,-1.1739303,0.6385069,0.0005149175,-0.0008599692,-0.0031783793
UncalAccel,1676593953096,121456727055492,3.3403804,2.321038,7.3322067,0.006110925,-0.043260336,-0.038735468
UncalMag,1676593953099,121456730010998,-54.289997,-30.719599,-92.7444,-47.771046,2.9698257,-64.15999
Fix,GPS,37.4312727934,-122.1550370977,-18.78820685564196,0.22601476,2.7884798,123.83301,1676593952000,0.11422687,180.0,121456592436000,3.0
Raw,1676593952000,591539000000,,,-1360628578461009112,0.0,6.51876731666411,292.0,1.0,17,6,0.0,16431,433969928912609,15,41.08108139038086,489.0611997529588,0.15,16,273128.86901711195,340282346638528860000000000000000000000,1575420030,,,,1,,1,,36.881080627441406,0.320142130558394,1.0,0.320142130558394,1.0,C,121456592436000
Raw,1676593952000,591539000000,,,-1360628578461009112,0.0,6.51876731666411,292.0,1.0,17,11,0.0,16431,433969931789004,11,45.02436828613281,-55.087644890101046,0.15,16,-52821.61839673078,340282346638528860000000000000000000000,1575420030,,,,0,,1,,40.82436752319336,-0.20372681261465636,1.0,-0.20372681261465636,1.0,C,121456592436000
Raw,1676593952000,591539000000,,,-1360628578461009112,0.0,6.51876731666411,292.0,1.0,17,12,0.0,16431,433969930825452,18,39.1246452331543,-225.35338998233317,0.15,16,-144838.98417062254,340282346638528860000000000000000000000,1575420030,,,,0,,1,,34.924644470214844,-0.6984919076624261,1.0,-0.6984919076624261,1.0,C,121456592436000
Raw,1676593952000,591539000000,,,-1360628578461009112,0.0,6.51876731666411,292.0,1.0,17,19,0.0,16431,433969924676358,17,39.78279113769531,583.4934961231661,0.15,16,341866.53309406864,340282346638528860000000000000000000000,1575420030,,,,0,,1,,35.58279037475586,0.0,1.0,0.0,1.0,C,121456592436000
Raw,1676593952000,591539000000,,,-1360628578461009112,0.0,6.51876731666411,292.0,1.0,17,20,0.0,16431,433969921862779,11,45.37224578857422,-472.3075251772366,0.15,16,-282443.7596151569,340282346638528860000000000000000000000,1575420030,,,,0,,1,,41.172245025634766,0.0,1.0,0.0,1.0,C,121456592436000
Raw,1676593952000,591539000000,,,-1360628578461009112,0.0,6.51876731666411,292.0,1.0,17,24,0.0,16431,433969926418059,11,44.5355110168457,552.7107667110681,0.15,16,313144.0818823052,340282346638528860000000000000000000000,1575420030,,,,0,,1,,40.33551025390625,-0.20372681261465636,1.0,-0.20372681261465636,1.0,C,121456592436000
Raw,1676593952000,591539000000,,,-1360628578461009112,0.0,6.51876731666411,292.0,1.0,17,25,0.0,16431,433969925434409,26,34.71672821044922,-469.8109852369407,0.5773256600009926,16,-282689.7548811517,340282346638528860000000000000000000000,1575420030,,,,0,,1,,30.5167293548584,-2.0372682255564105,1.0,-2.0372682255564105,1.0,C,121456592436000
Raw,1676593952000,591539000000,,,-1360628578461009112,0.0,6.51876731666411,292.0,1.0,17,29,0.0,16423,433969917452387,29,33.376487731933594,-424.2654397819874,0.6397564660058421,16,-178797.7901352934,340282346638528860000000000000000000000,1575420030,,,,0,,1,,29.176488876342773,-0.6984919076624261,1.0,-0.6984919076624261,1.0,C,121456592436000
Raw,1676593952000,591539000000,,,-1360628578461009112,0.0,6.51876731666411,292.0,1.0,17,6,0.0,81921,433969928913179,13,35.78938293457031,488.9126343249759,0.5252184766740109,16,274429.25469754846,340282346638528860000000000000000000000,1176450050,,,,0,,1,,31.68938446044922,1.9208527336454408,1.3610399877866548,1.9208527336454408,1.0,Q,121456592436000
Raw,1676593952000,591539000000,,,-1360628578461009112,0.0,6.51876731666411,292.0,1.0,17,11,0.0,81921,433969931789548,16,35.84768295288086,-54.884845753176194,0.523114084685621,16,-53195.324926745416,340282346638528860000000000000000000000,1176450050,,,,0,,1,,31.747684478759766,0.0,1.3610399877866548,0.0,1.0,Q,121456592436000
Raw,1676593952000,591539000000,,,-1360628578461009112,0.0,6.51876731666411,292.0,1.0,17,24,0.0,81921,433969926418606,7,40.00191879272461,552.90776330977,0.15,16,314695.99137346284,340282346638528860000000000000000000000,1176450050,,,,0,,1,,35.901920318603516,3.5215636101095664,1.3610399877866548,3.5215636101095664,1.0,Q,121456592436000
Raw,1676593952000,591539000000,,,-1360628578461009112,0.0,6.51876731666411,292.0,1.0,17,25,0.0,81921,433969925434952,64,24.79694366455078,-470.1975143763659,1.0189104147952306,16,-284270.8034133974,340282346638528860000000000000000000000,1176450050,,,,0,,1,,20.696943283081055,1.0186341127782053,1.3610399877866548,1.0186341127782053,1.0,Q,121456592436000
Raw,1676593952000,591539000000,,,-1360628578461009112,0.0,6.51876731666411,292.0,1.0,17,14,0.0,32995,12751932611191,33,43.5977897644043,582.3177877029552,0.15,16,323262.16669313575,340282346638528860000000000000000000000,1598062460,,,,0,,3,,39.397789001464844,50.29141902923584,2.0000000474974513,50.29141902923584,2.0000000474974513,C,121456592436000
Raw,1676593952000,591539000000,,,-1360628578461009112,0.0,6.51876731666411,292.0,1.0,17,18,0.0,32995,12751928180334,51,35.00142288208008,-465.8385385993811,0.5650173666200011,16,-289560.5071251084,340282346638528860000000000000000000000,1600312450,,,,0,,3,,30.801422119140625,50.29141902923584,2.0000000474974513,50.29141902923584,2.0000000474974513,C,121456592436000
Raw,1676593952000,591539000000,,,-1360628578461009112,0.0,6.51876731666411,292.0,1.0,17,16,0.0,32995,12751923390353,79,29.644115447998047,-672.2568234174778,0.8050676965821149,16,-400163.78972459363,340282346638528860000000000000000000000,1601437440,,,,0,,3,,25.444116592407227,50.29141902923584,2.0000000474974513,50.29141902923584,2.0000000474974513,C,121456592436000
Raw,1676593952000,591539000000,,,-1360628578461009112,0.0,6.51876731666411,292.0,1.0,17,15,0.0,32995,12751935309387,43,37.2372932434082,-173.84874854033387,0.15,16,-125278.34095179889,340282346638528860000000000000000000000,1602000000,,,,0,,3,,33.03729248046875,50.29141902923584,2.0000000474974513,50.29141902923584,2.0000000474974513,C,121456592436000
Raw,1676593952000,591539000000,,,-1360628578461009112,0.0,6.51876731666411,292.0,1.0,17,24,0.0,32995,12751929049234,33,43.30708312988281,703.2839922077574,0.15,16,409190.0338571445,340282346638528860000000000000000000000,1603124990,,,,0,,3,,39.10708236694336,50.29141902923584,2.0000000474974513,50.29141902923584,2.0000000474974513,C,121456592436000
Raw,1676593952000,591539000000,,,-1360628578461009112,0.0,6.51876731666411,292.0,1.0,17,17,0.0,32995,12751936110229,36,39.27116775512695,105.2037244502904,0.15,16,41389.88270583505,340282346638528860000000000000000000000,1604249980,,,,0,,3,,35.0711669921875,50.29141902923584,2.0000000474974513,50.29141902923584,2.0000000474974513,C,121456592436000
Raw,1676593952000,591539000000,,,-1360628578461009112,0.0,6.51876731666411,292.0,1.0,17,2,0.0,85026,433969922179765,20,38.03293991088867,138.7449089604479,0.15,16,72769.18532478441,340282346638528860000000000000000000000,1575420030,,,,0,,6,,33.83293914794922,-6.024492904543876,1.5000000237487257,-6.024492904543876,1.5000000237487257,C,121456592436000
Raw,1676593952000,591539000000,,,-1360628578461009112,0.0,6.51876731666411,292.0,1.0,17,11,0.0,85026,433969910575518,22,36.49945831298828,607.1441988482138,0.15,16,355620.8255532453,340282346638528860000000000000000000000,1575420030,,,,1,,6,,32.29945755004883,-6.024492904543876,1.5000000237487257,-6.024492904543876,1.5000000237487257,C,121456592436000
Raw,1676593952000,591539000000,,,-1360628578461009112,0.0,6.51876731666411,292.0,1.0,17,25,0.0,85026,433969912621558,13,43.44886016845703,502.6674957986256,0.15,16,290168.87793473684,340282346638528860000000000000000000000,1575420030,,,,0,,6,,39.24885940551758,-6.024492904543876,1.5000000237487257,-6.024492904543876,1.5000000237487257,C,121456592436000
Raw,1676593952000,591539000000,,,-1360628578461009112,0.0,6.51876731666411,292.0,1.0,17,30,0.0,85026,433969915576992,43,28.630619049072266,-291.52098586957595,0.8513966720334691,16,-178251.95417624622,340282346638528860000000000000000000000,1575420030,,,,0,,6,,24.430618286132812,-6.024492904543876,1.5000000237487257,-6.024492904543876,1.5000000237487257,C,121456592436000
Raw,1676593952000,591539000000,,,-1360628578461009112,0.0,6.51876731666411,292.0,1.0,17,34,0.0,85026,433969919382494,22,36.67275619506836,-267.2287831478559,0.15,16,-169198.34016524407,340282346638528860000000000000000000000,1575420030,,,,1,,6,,32.472755432128906,-6.024492904543876,1.5000000237487257,-6.024492904543876,1.5000000237487257,C,121456592436000
Raw,1676593952000,591539000000,,,-1360628578461009112,0.0,6.51876731666411,292.0,1.0,17,36,0.0,85026,433969921028916,21,37.26304626464844,263.3380832822662,0.15,16,143256.8548943719,340282346638528860000000000000000000000,1575420030,,,,0,,6,,33.063045501708984,-6.024492904543876,1.5000000237487257,-6.024492904543876,1.5000000237487257,C,121456592436000
Raw,1676593952000,591539000000,,,-1360628578461009112,0.0,6.51876731666411,292.0,1.0,17,2,0.0,84003,433969922180318,39,27.479177474975586,138.70287677094115,0.9013055036310806,16,72668.73674439667,340282346638528860000000000000000000000,1176450050,,,,0,,6,,23.37917709350586,-3.808038309216499,1.8610400115353805,-3.808038309216499,1.5000000237487257,Q,121456592436000
Raw,1676593952000,591539000000,,,-1360628578461009112,0.0,6.51876731666411,292.0,1.0,17,11,0.0,84003,433969910576068,12,36.47968673706055,607.0424286330367,0.15,16,357205.92210407194,340282346638528860000000000000000000000,1176450050,,,,0,,6,,32.37968826293945,5.057780072093007,1.8610400115353805,5.057780072093007,1.5000000237487257,Q,121456592436000
Raw,1676593952000,591539000000,,,-1360628578461009112,0.0,6.51876731666411,292.0,1.0,17,25,0.0,84003,433969912622078,11,33.09920120239258,502.6389347000595,0.6468600620662301,16,289517.9463966175,340282346638528860000000000000000000000,1176450050,,,,0,,6,,28.999202728271484,-8.979765698313711,1.8610400115353805,-8.979765698313711,1.5000000237487257,Q,121456592436000
Raw,1676593952000,591539000000,,,-1360628578461009112,0.0,6.51876731666411,292.0,1.0,17,30,0.0,84003,433969915577582,18,32.497920989990234,-295.7021534708813,0.6744305726723532,16,-179588.4529573698,340282346638528860000000000000000000000,1176450050,,,,0,,6,,28.39792251586914,-8.425652049481869,1.8610400115353805,-8.425652049481869,1.5000000237487257,Q,121456592436000
Raw,1676593952000,591539000000,,,-1360628578461009112,0.0,6.51876731666411,292.0,1.0,17,34,0.0,84003,433969919383033,13,37.882511138916016,-267.2364517005735,0.15,16,-169922.91420226352,340282346638528860000000000000000000000,1176450050,,,,0,,6,,33.78251266479492,-11.011515744030472,1.8610400115353805,-11.011515744030472,1.5000000237487257,Q,121456592436000
Raw,1676593952000,591539000000,,,-1360628578461009112,0.0,6.51876731666411,292.0,1.0,17,36,0.0,84003,433969921029454,10,37.50776672363281,263.2220154765778,0.15,16,143294.16181703357,340282346638528860000000000000000000000,1176450050,,,,0,,6,,33.40776824951172,-11.750333942472933,1.8610400115353805,-11.750333942472933,1.5000000237487257,Q,121456592436000
UncalGyro,1676593953101,121456731545909,0.21090123,-1.204779,0.624457,0.0005149175,-0.0008599692,-0.0031783793
Fix,FLP,37.4312703000,-122.1550184000,-15.80000114440918,0.4689544,5.264,127.871414,1676593952956,,,121456587869152,2.9769223
UncalAccel,1676593953105,121456736032726,3.2817562,2.2737796,7.564909,0.006110925,-0.043260336,-0.038735468
OrientationDeg,1676593953106,121456736032726,163.0,-8.0,-24.0
UncalMag,1676593953110,121456740010753,-56.5958,-31.732199,-92.988396,-47.771046,2.9698257,-64.15999
UncalGyro,1676593953109,121456740526561,0.29184088,-1.1270463,0.58169645,0.0005149175,-0.0008599692,-0.0031783793
UncalAccel,1676593953114,121456745015636,2.9270203,2.0889342,7.6624165,0.006110925,-0.043260336,-0.038735468
OrientationDeg,1676593953115,121456745015636,163.0,-9.0,-24.0
UncalGyro,1676593953118,121456749508189,0.3567453,-0.9896017,0.54901516,0.0005149175,-0.0008599692,-0.0031783793
UncalMag,1676593953119,121456750006359,-57.083797,-31.7566,-92.781,-47.771046,2.9698257,-64.15999
UncalAccel,1676593953122,121456753992137,2.690131,1.9411774,7.1653075,0.006110925,-0.043260336,-0.038735468
OrientationDeg,1676593953123,121456753992137,163.0,-10.0,-24.0
UncalGyro,1676593953128,121456758474559,0.3894266,-0.9283624,0.5546656,0.0005149175,-0.0008599692,-0.0031783793
UncalMag,1676593953130,121456760010509,-57.8036,-31.854198,-93.696,-47.771046,2.9698257,-64.15999
UncalAccel,1676593953132,121456762972118,2.6129622,1.8598214,6.278168,0.006110925,-0.043260336,-0.038735468
OrientationDeg,1676593953132,121456762972118,162.0,-10.0,-24.0
UncalGyro,1676593953137,121456767455577,0.39767328,-1.0195341,0.6000224,0.0005149175,-0.0008599692,-0.0031783793
UncalMag,1676593953140,121456770010753,-61.2318,-32.4642,-95.184395,-47.771046,2.9698257,-64.15999
UncalAccel,1676593953140,121456771957897,2.801397,1.791626,5.6590257,0.006110925,-0.043260336,-0.038735468
OrientationDeg,1676593953141,121456771957897,162.0,-11.0,-25.0
UncalGyro,1676593953145,121456776445751,0.37934732,-1.2043208,0.6737844,0.0005149175,-0.0008599692,-0.0031783793
UncalMag,1676593953150,121456780010509,-59.657997,-32.0738,-93.6838,-47.771046,2.9698257,-64.15999
UncalAccel,1676593953149,121456780937633,2.8827531,1.6947167,5.449055,0.006110925,-0.043260336,-0.038735468
OrientationDeg,1676593953150,121456780937633,161.0,-12.0,-25.0
UncalGyro,1676593953155,121456785426342,0.3472769,-1.3881912,0.77350813,0.0005149175,-0.0008599692,-0.0031783793
UncalAccel,1676593953159,121456789913341,2.594418,1.672583,5.8672013,0.006110925,-0.043260336,-0.038735468
UncalMag,1676593953159,121456790001964,-60.3778,-32.024998,-92.1466,-47.771046,2.9698257,-64.15999
OrientationDeg,1676593953158,121456789913341,161.0,-13.0,-25.0
UncalGyro,1676593953163,121456794405651,0.32162055,-1.4779885,0.90667677,0.0005149175,-0.0008599692,-0.0031783793
UncalAccel,1676593953167,121456798893993,2.243271,1.6558332,6.4420767,0.006110925,-0.043260336,-0.038735468
OrientationDeg,1676593953167,121456798893993,160.0,-14.0,-25.0
UncalMag,1676593953170,121456800010753,-59.657997,-31.842,-91.7928,-47.771046,2.9698257,-64.15999
UncalGyro,1676593953172,121456803385753,0.3222314,-1.4555391,1.0709995,0.0005149175,-0.0008599692,-0.0031783793
UncalAccel,1676593953176,121456807874157,2.143969,1.5176477,7.05105,0.006110925,-0.043260336,-0.038735468
OrientationDeg,1676593953176,121456807874157,160.0,-15.0,-25.0
UncalMag,1676593953179,121456810007091,-60.438797,-31.732199,-92.0124,-47.771046,2.9698257,-64.15999
UncalGyro,1676593953181,121456812365245,0.35613444,-1.348485,1.2707524,0.0005149175,-0.0008599692,-0.0031783793
UncalAccel,1676593953185,121456816854442,2.3569303,1.3202399,7.0839515,0.006110925,-0.043260336,-0.038735468
OrientationDeg,1676593953185,121456816854442,159.0,-16.0,-25.0
UncalMag,1676593953189,121456820003429,-60.4144,-31.305199,-91.2316,-47.771046,2.9698257,-64.15999
UncalGyro,1676593953191,121456821346141,0.43860126,-1.2925909,1.5066991,0.0005149175,-0.0008599692,-0.0031783793
UncalAccel,1676593953194,121456825833934,2.981457,1.0426725,6.6281185,0.006110925,-0.043260336,-0.038735468
OrientationDeg,1676593953194,121456825833934,158.0,-17.0,-25.0
UncalMag,1676593953199,121456830010753,-62.366398,-31.305199,-91.4024,-47.771046,2.9698257,-64.15999
UncalGyro,1676593953200,121456830321849,0.581391,-1.3677273,1.7585284,0.0005149175,-0.0008599692,-0.0031783793
UncalAccel,1676593953204,121456834801708,3.4827533,0.6556334,5.9084773,0.006110925,-0.043260336,-0.038735468
OrientationDeg,1676593953203,121456834801708,157.0,-19.0,-25.0
UncalGyro,1676593953209,121456839305919,0.816116,-1.6632334,2.000889,0.0005149175,-0.0008599692,-0.0031783793
UncalMag,1676593953210,121456840011242,-62.378597,-31.219799,-88.6086,-47.771046,2.9698257,-64.15999
UncalAccel,1676593953213,121456843793956,3.8500516,0.8452646,5.215755,0.006110925,-0.043260336,-0.038735468
OrientationDeg,1676593953212,121456843793956,155.0,-20.0,-25.0
UncalGyro,1676593953217,121456848287914,1.0858129,-2.0260873,2.176971,0.0005149175,-0.0008599692,-0.0031783793
UncalMag,1676593953220,121456850010753,-64.9406,-31.6468,-90.2434,-47.771046,2.9698257,-64.15999
UncalAccel,1676593953222,121456852773571,3.879962,1.7611175,5.4017973,0.006110925,-0.043260336,-0.038735468
OrientationDeg,1676593953221,121456852773571,154.0,-22.0,-25.0
UncalGyro,1676593953227,121456857265331,1.2490667,-2.302351,2.2290473,0.0005149175,-0.0008599692,-0.0031783793
UncalMag,1676593953229,121456860010753,-66.4534,-31.414999,-89.584595,-47.771046,2.9698257,-64.15999
UncalAccel,1676593953230,121456861753551,3.5724843,2.0452652,4.3962135,0.006110925,-0.043260336,-0.038735468
OrientationDeg,1676593953231,121456861753551,152.0,-24.0,-25.0
UncalGyro,1676593953235,121456866244335,1.276403,-2.592054,2.23989,0.0005149175,-0.0008599692,-0.0031783793
UncalMag,1676593953239,121456870010753,-67.649,-31.4882,-88.791595,-47.771046,2.9698257,-64.15999
UncalAccel,1676593953239,121456870733165,4.0295134,1.2843475,3.3122647,0.006110925,-0.043260336,-0.038735468
OrientationDeg,1676593953240,121456870733165,151.0,-26.0,-25.0
UncalGyro,1676593953245,121456875221263,1.1565206,-2.8567114,2.3628268,0.0005149175,-0.0008599692,-0.0031783793
UncalAccel,1676593953248,121456879701183,4.6845484,0.40259242,2.5196424,0.006110925,-0.043260336,-0.038735468
OrientationDeg,1676593953249,121456879701183,149.0,-28.0,-25.0
UncalMag,1676593953248,121456879999035,-68.9056,-31.781,-87.2056,-47.771046,2.9698257,-64.15999
UncalGyro,1676593953253,121456884204235,0.9256136,-3.1108313,2.5864034,0.0005149175,-0.0008599692,-0.0031783793
UncalAccel,1676593953257,121456888693126,5.226523,0.22671995,2.5357938,0.006110925,-0.043260336,-0.038735468
OrientationDeg,1676593953258,121456888693126,148.0,-31.0,-24.0
UncalMag,1676593953259,121456890010753,-69.7596,-30.7318,-85.4854,-47.771046,2.9698257,-64.15999
UncalGyro,1676593953263,121456893188244,0.6186538,-3.303254,2.8107438,0.0005149175,-0.0008599692,-0.0031783793
UncalAccel,1676593953266,121456897672680,6.0376897,0.5054838,3.7657046,0.006110925,-0.043260336,-0.038735468
OrientationDeg,1676593953267,121456897672680,146.0,-33.0,-24.0
UncalMag,1676593953269,121456899999035,-72.0166,-30.560999,-84.899796,-47.771046,2.9698257,-64.15999
UncalGyro,1676593953272,121456902163585,0.29626966,-3.3055446,2.9848404,0.0005149175,-0.0008599692,-0.0031783793
UncalAccel,1676593953275,121456906652721,6.9338017,0.67836523,6.000601,0.006110925,-0.043260336,-0.038735468
OrientationDeg,1676593953275,121456906652721,145.0,-35.0,-23.0
UncalMag,1676593953279,121456910010753,-73.1024,-29.9876,-83.033195,-47.771046,2.9698257,-64.15999
UncalGyro,1676593953281,121456911144664,0.037415497,-3.0418036,3.1070135,0.0005149175,-0.0008599692,-0.0031783793
UncalAccel,1676593953285,121456915632335,8.196015,0.7531409,7.3459654,0.006110925,-0.043260336,-0.038735468
OrientationDeg,1676593953285,121456915632335,144.0,-37.0,-22.0
UncalMag,1676593953290,121456920012951,-75.0056,-28.5968,-84.0336,-47.771046,2.9698257,-64.15999
UncalGyro,1676593953289,121456920120799,-0.14492778,-2.6919305,3.1574097,0.0005149175,-0.0008599692,-0.0031783793
UncalAccel,1676593953294,121456924601757,8.946764,0.7920243,7.911868,0.006110925,-0.043260336,-0.038735468
OrientationDeg,1676593953293,121456924601757,142.0,-39.0,-21.0
UncalGyro,1676593953299,121456929104503,-0.259465,-2.3790147,3.1312952,0.0005149175,-0.0008599692,-0.0031783793
UncalMag,1676593953300,121456930010753,-77.7018,-28.9384,-81.935196,-47.771046,2.9698257,-64.15999
UncalAccel,1676593953302,121456933589305,9.237492,0.99661064,8.181061,0.006110925,-0.043260336,-0.038735468
OrientationDeg,1676593953302,121456933589305,141.0,-41.0,-20.0
UncalGyro,1676593953307,121456938074168,-0.3032946,-2.1245892,3.058144,0.0005149175,-0.0008599692,-0.0031783793
UncalMag,1676593953310,121456940010753,-80.227196,-28.730999,-84.0214,-47.771046,2.9698257,-64.15999
UncalAccel,1676593953311,121456942569591,9.090333,0.8673982,7.8604226,0.006110925,-0.043260336,-0.038735468
OrientationDeg,1676593953311,121456942569591,140.0,-42.0,-18.0
UncalGyro,1676593953317,121456947053661,-0.28603765,-1.9625573,3.007595,0.0005149175,-0.0008599692,-0.0031783793
UncalMag,1676593953320,121456950010509,-81.2398,-27.4744,-84.0214,-47.771046,2.9698257,-64.15999
OrientationDeg,1676593953320,121456951554882,139.0,-43.0,-17.0
UncalAccel,1676593953321,121456951554882,9.02154,0.46959144,6.6717877,0.006110925,-0.043260336,-0.038735468
UncalGyro,1676593953325,121456956042919,-0.29611692,-1.9581286,3.0402763,0.0005149175,-0.0008599692,-0.0031783793
UncalMag,1676593953330,121456960010753,-82.3378,-26.6936,-83.813995,-47.771046,2.9698257,-64.15999
UncalAccel,1676593953330,121456960534556,9.35833,0.59641105,5.334798,0.006110925,-0.043260336,-0.038735468
OrientationDeg,1676593953329,121456960534556,138.0,-45.0,-16.0
UncalGyro,1676593953334,121456965023937,-0.37843102,-2.0621283,3.084106,0.0005149175,-0.0008599692,-0.0031783793
UncalAccel,1676593953339,121456969511913,9.84168,0.65084773,4.946563,0.006110925,-0.043260336,-0.038735468
UncalMag,1676593953340,121456970000011,-82.9722,-25.498,-82.0816,-47.771046,2.9698257,-64.15999
OrientationDeg,1676593953338,121456969511913,137.0,-46.0,-15.0
UncalGyro,1676593953343,121456974002574,-0.5288566,-2.1375701,3.0998356,0.0005149175,-0.0008599692,-0.0031783793
UncalAccel,1676593953348,121456978491405,10.547563,0.71365935,5.050052,0.006110925,-0.043260336,-0.038735468
OrientationDeg,1676593953347,121456978491405,136.0,-47.0,-13.0
UncalMag,1676593953350,121456980010998,-83.997,-24.765999,-80.0076,-47.771046,2.9698257,-64.15999
UncalGyro,1676593953351,121456982983532,-0.6995934,-2.174833,3.073263,0.0005149175,-0.0008599692,-0.0031783793
UncalAccel,1676593953356,121456987471446,10.932208,1.3639089,5.369494,0.006110925,-0.043260336,-0.038735468
OrientationDeg,1676593953356,121456987471446,136.0,-49.0,-12.0
UncalMag,1676593953360,121456990010998,-84.7778,-23.0458,-80.154,-47.771046,2.9698257,-64.15999
UncalGyro,1676593953360,121456991962596,-0.8524625,-2.1717787,2.9675834,0.0005149175,-0.0008599692,-0.0031783793
UncalAccel,1676593953366,121456996451122,11.319247,1.2658032,5.9904313,0.006110925,-0.043260336,-0.038735468
OrientationDeg,1676593953365,121456996451122,136.0,-50.0,-10.0
UncalMag,1676593953370,121457000010998,-87.693596,-22.7652,-80.6298,-47.771046,2.9698257,-64.15999
UncalGyro,1676593953369,121457000943309,-1.0172434,-2.0346394,2.82403,0.0005149175,-0.0008599692,-0.0031783793
UncalAccel,1676593953375,121457005431041,10.547563,0.3499503,6.41097,0.006110925,-0.043260336,-0.038735468
OrientationDeg,1676593953374,121457005431041,135.0,-51.0,-9.0
UncalGyro,1676593953378,121457009922130,-1.1849259,-1.8234328,2.762638,0.0005149175,-0.0008599692,-0.0031783793
UncalMag,1676593953379,121457010007335,-88.3768,-22.0088,-80.3248,-47.771046,2.9698257,-64.15999
UncalAccel,1676593953384,121457014410839,9.84826,-0.7920243,6.3158555,0.006110925,-0.043260336,-0.038735468
OrientationDeg,1676593953384,121457014410839,135.0,-52.0,-7.0
UncalGyro,1676593953387,121457018901989,-1.2486086,-1.6801848,2.8341093,0.0005149175,-0.0008599692,-0.0031783793
UncalMag,1676593953389,121457020000499,-90.182396,-21.2158,-79.9832,-47.771046,2.9698257,-64.15999
UncalAccel,1676593953392,121457023390636,10.024133,-1.8335004,5.725426,0.006110925,-0.043260336,-0.038735468
OrientationDeg,1676593953393,121457023390636,135.0,-53.0,-6.0
UncalGyro,1676593953397,121457027881969,-1.1962268,-1.6777414,2.9674306,0.0005149175,-0.0008599692,-0.0031783793
UncalMag,1676593953400,121457030010753,-89.5114,-19.276,-78.1898,-47.771046,2.9698257,-64.15999
UncalAccel,1676593953402,121457032370860,10.358529,-1.4763715,5.218746,0.006110925,-0.043260336,-0.038735468
OrientationDeg,1676593953402,121457032370860,135.0,-54.0,-4.0
UncalGyro,1676593953406,121457036862987,-1.0980303,-1.7652478,3.042567,0.0005149175,-0.0008599692,-0.0031783793
UncalMag,1676593953410,121457040010753,-91.756195,-18.5928,-79.775795,-47.771046,2.9698257,-64.15999
UncalAccel,1676593953410,121457041347301,10.466207,-0.25902304,4.5248275,0.006110925,-0.043260336,-0.038735468
OrientationDeg,1676593953410,121457041347301,135.0,-55.0,-2.0
UncalGyro,1676593953415,121457045829845,-1.0751228,-1.8420641,3.0282118,0.0005149175,-0.0008599692,-0.0031783793
UncalMag,1676593953419,121457050010753,-92.683395,-15.847799,-76.506195,-47.771046,2.9698257,-64.15999
UncalAccel,1676593953419,121457050330455,10.5685,-0.51445687,3.7615173,0.006110925,-0.043260336,-0.038735468
OrientationDeg,1676593953419,121457050330455,134.0,-56.0,-1.0
UncalGyro,1676593953424,121457054822521,-1.1841623,-1.866346,2.9741502,0.0005149175,-0.0008599692,-0.0031783793
UncalAccel,1676593953429,121457059313121,10.095917,-0.65024954,3.65384,0.006110925,-0.043260336,-0.038735468
UncalMag,1676593953429,121457059999279,-91.805,-13.8104,-76.6282,-47.771046,2.9698257,-64.15999
OrientationDeg,1676593953428,121457059313121,134.0,-57.0,0.0
UncalGyro,1676593953433,121457063800853,-1.3712398,-1.8387043,2.9153545,0.0005149175,-0.0008599692,-0.0031783793
UncalAccel,1676593953437,121457068289745,9.8428755,-1.0947163,3.9840498,0.006110925,-0.043260336,-0.038735468
OrientationDeg,1676593953438,121457068289745,134.0,-58.0,1.0
UncalMag,1676593953439,121457070010753,-92.695595,-12.8344,-75.2374,-47.771046,2.9698257,-64.15999
UncalGyro,1676593953441,121457072782177,-1.5425875,-1.7852536,2.867096,0.0005149175,-0.0008599692,-0.0031783793
UncalAccel,1676593953446,121457077270030,9.498908,-2.0464616,4.6642094,0.006110925,-0.043260336,-0.038735468
OrientationDeg,1676593953446,121457077270030,134.0,-59.0,3.0
UncalMag,1676593953450,121457080010753,-93.3544,-11.8828,-73.8832,-47.771046,2.9698257,-64.15999
UncalGyro,1676593953451,121457081760997,-1.6614008,-1.7139351,2.8411343,0.0005149175,-0.0008599692,-0.0031783793
UncalAccel,1676593953456,121457086249339,8.769096,-2.8761728,5.4616175,0.006110925,-0.043260336,-0.038735468
OrientationDeg,1676593953455,121457086249339,134.0,-60.0,5.0
UncalMag,1676593953459,121457090010998,-95.0502,-10.736,-73.81,-47.771046,2.9698257,-64.15999
UncalGyro,1676593953460,121457090740428,-1.7058412,-1.6181821,2.864958,0.0005149175,-0.0008599692,-0.0031783793
UncalAccel,1676593953465,121457095229686,7.8000035,-4.0307097,5.889933,0.006110925,-0.043260336,-0.038735468
OrientationDeg,1676593953465,121457095229686,134.0,-60.0,7.0
UncalGyro,1676593953468,121457099720653,-1.7201965,-1.5021176,2.974761,0.0005149175,-0.0008599692,-0.0031783793
UncalMag,1676593953469,121457099999035,-96.4898,-9.4672,-74.4566,-47.771046,2.9698257,-64.15999
UncalAccel,1676593953473,121457104209789,6.663413,-5.2749777,6.250053,0.006110925,-0.043260336,-0.038735468
OrientationDeg,1676593953474,121457104209789,134.0,-61.0,8.0
UncalGyro,1676593953477,121457108701488,-1.7348573,-1.3663528,3.1784847,0.0005149175,-0.0008599692,-0.0031783793
UncalMag,1676593953480,121457110010998,-96.8314,-7.442,-74.4444,-47.771046,2.9698257,-64.15999
UncalAccel,1676593953482,121457113188915,5.729614,-6.170491,6.6795645,0.006110925,-0.043260336,-0.038735468
OrientationDeg,1676593953482,121457113188915,134.0,-62.0,10.0
UncalGyro,1676593953486,121457117680370,-1.7453947,-1.2174544,3.4472654,0.0005149175,-0.0008599692,-0.0031783793
UncalMag,1676593953489,121457119995373,-96.257996,-6.2952,-72.284996,-47.771046,2.9698257,-64.15999
UncalAccel,1676593953492,121457122169139,5.180461,-7.0402822,6.5677,0.006110925,-0.043260336,-0.038735468
OrientationDeg,1676593953491,121457122169139,134.0,-62.0,13.0
UncalGyro,1676593953495,121457126661449,-1.7252362,-1.1566733,3.7568212,0.0005149175,-0.0008599692,-0.0031783793
UncalMag,1676593953500,121457130010753,-96.6118,-4.2822,-72.614395,-47.771046,2.9698257,-64.15999
UncalAccel,1676593953500,121457131146434,5.237889,-7.6923265,6.450452,0.006110925,-0.043260336,-0.038735468
OrientationDeg,1676593953500,121457131146434,134.0,-63.0,15.0
UncalGyro,1676593953504,121457135629405,-1.6403259,-1.2269229,4.024075,0.0005149175,-0.0008599692,-0.0031783793
UncalMag,1676593953510,121457140010753,-95.330795,-2.0983999,-70.0768,-47.771046,2.9698257,-64.15999
UncalAccel,1676593953510,121457140126170,5.5501523,-8.16431,6.2919273,0.006110925,-0.043260336,-0.038735468
OrientationDeg,1676593953510,121457140126170,134.0,-63.0,17.0
UncalGyro,1676593953513,121457144609325,-1.4958563,-1.4170547,4.2508583,0.0005149175,-0.0008599692,-0.0031783793
UncalAccel,1676593953518,121457149111522,6.047859,-8.881559,6.743572,0.006110925,-0.043260336,-0.038735468
UncalMag,1676593953518,121457149999523,-96.562996,-0.57339996,-69.7474,-47.771046,2.9698257,-64.15999
OrientationDeg,1676593953518,121457149111522,133.0,-64.0,20.0
UncalGyro,1676593953522,121457153595286,-1.3162619,-1.6102408,4.4808493,0.0005149175,-0.0008599692,-0.0031783793
UncalAccel,1676593953527,121457158073497,6.2847486,-9.687941,7.6887374,0.006110925,-0.043260336,-0.038735468
OrientationDeg,1676593953527,121457158073497,133.0,-65.0,22.0
UncalMag,1676593953529,121457159999035,-96.733795,2.2814,-70.9674,-47.771046,2.9698257,-64.15999
UncalGyro,1676593953531,121457162579784,-1.1117748,-1.7652478,4.7757444,0.0005149175,-0.0008599692,-0.0031783793
UncalAccel,1676593953536,121457167067577,6.203991,-9.783055,8.402397,0.006110925,-0.043260336,-0.038735468
OrientationDeg,1676593953536,121457167067577,132.0,-65.0,25.0
UncalMag,1676593953540,121457170010998,-97.819595,3.0377998,-68.4908,-47.771046,2.9698257,-64.15999
UncalGyro,1676593953540,121457171563975,-0.914618,-1.9149098,5.1857877,0.0005149175,-0.0008599692,-0.0031783793
UncalAccel,1676593953545,121457176048473,6.870392,-9.892527,9.482158,0.006110925,-0.043260336,-0.038735468
OrientationDeg,1676593953546,121457176048473,131.0,-66.0,27.0
UncalMag,1676593953550,121457180010753,-99.4056,4.9776,-74.4078,-47.771046,2.9698257,-64.15999
UncalGyro,1676593953549,121457180540721,-0.7432703,-1.9504927,5.5633025,0.0005149175,-0.0008599692,-0.0031783793
UncalAccel,1676593953554,121457185028270,8.14457,-10.613963,10.894522,0.006110925,-0.043260336,-0.038735468
OrientationDeg,1676593953554,121457185028270,131.0,-66.0,30.0
UncalGyro,1676593953559,121457189519237,-0.605062,-1.7860173,5.8291817,0.0005149175,-0.0008599692,-0.0031783793
UncalMag,1676593953558,121457189999279,-97.8806,8.259399,-67.5148,-47.771046,2.9698257,-64.15999
UncalAccel,1676593953563,121457194008007,9.909277,-11.414961,12.376277,0.006110925,-0.043260336,-0.038735468
OrientationDeg,1676593953563,121457194008007,130.0,-67.0,33.0
UncalGyro,1676593953568,121457198500194,-0.4905248,-1.372156,5.882327,0.0005149175,-0.0008599692,-0.0031783793
UncalMag,1676593953570,121457200010509,-99.991196,9.9796,-66.5876,-47.771046,2.9698257,-64.15999
UncalAccel,1676593953571,121457202985118,11.193027,-11.532807,12.900904,0.006110925,-0.043260336,-0.038735468
OrientationDeg,1676593953572,121457202985118,129.0,-67.0,36.0
UncalGyro,1676593953576,121457207467540,-0.3753767,-0.929126,5.8006234,0.0005149175,-0.0008599692,-0.0031783793
UncalMag,1676593953579,121457210010998,-96.3556,13.724999,-67.2586,-47.771046,2.9698257,-64.15999
UncalAccel,1676593953580,121457211967968,11.627323,-11.324033,13.185051,0.006110925,-0.043260336,-0.038735468
OrientationDeg,1676593953581,121457211967968,128.0,-66.0,39.0
UncalGyro,1676593953586,121457216459911,-0.26083946,-0.4147775,5.721211,0.0005149175,-0.0008599692,-0.0031783793
UncalMag,1676593953590,121457220010509,-95.5992,15.7624,-66.3314,-47.771046,2.9698257,-64.15999
UncalAccel,1676593953589,121457220950573,11.789437,-10.654641,12.178869,0.006110925,-0.043260336,-0.038735468
OrientationDeg,1676593953589,121457220950573,127.0,-65.0,41.0
UncalGyro,1676593953594,121457225438671,-0.2275473,-0.00061086525,5.785505,0.0005149175,-0.0008599692,-0.0031783793
UncalAccel,1676593953598,121457229927440,11.255837,-9.495916,11.057832,0.006110925,-0.043260336,-0.038735468
UncalMag,1676593953598,121457229993908,-95.806595,18.226799,-66.9414,-47.771046,2.9698257,-64.15999
OrientationDeg,1676593953598,121457229927440,125.0,-64.0,44.0
UncalGyro,1676593953603,121457234418651,-0.2490803,0.18203785,5.952271,0.0005149175,-0.0008599692,-0.0031783793
UncalAccel,1676593953607,121457238907360,11.877972,-8.92463,10.467402,0.006110925,-0.043260336,-0.038735468
OrientationDeg,1676593953607,121457238907360,123.0,-63.0,47.0
UncalMag,1676593953610,121457240010509,-96.0506,20.678999,-62.463997,-47.771046,2.9698257,-64.15999
UncalGyro,1676593953613,121457243398082,-0.19685133,0.06414085,6.0501623,0.0005149175,-0.0008599692,-0.0031783793
UncalAccel,1676593953616,121457247887401,13.236497,-8.740981,10.741381,0.006110925,-0.043260336,-0.038735468
UncalMag,1676593953619,121457250010753,-94.5012,22.9848,-62.378597,-47.771046,2.9698257,-64.15999
OrientationDeg,1676593953617,121457247887401,121.0,-61.0,50.0
UncalGyro,1676593953621,121457252378550,0.049938235,-0.20295998,6.010303,0.0005149175,-0.0008599692,-0.0031783793
UncalAccel,1676593953625,121457256864025,14.327623,-8.53161,11.167303,0.006110925,-0.043260336,-0.038735468
OrientationDeg,1676593953625,121457256864025,119.0,-59.0,52.0
UncalMag,1676593953629,121457260010509,-92.829796,25.778599,-61.3904,-47.771046,2.9698257,-64.15999
UncalGyro,1676593953630,121457261358104,0.4989242,-0.5627596,5.8658333,0.0005149175,-0.0008599692,-0.0031783793
UncalAccel,1676593953634,121457265846874,14.733207,-7.73779,11.387443,0.006110925,-0.043260336,-0.038735468
OrientationDeg,1676593953635,121457265846874,115.0,-57.0,55.0
UncalMag,1676593953639,121457270010753,-92.7444,27.681799,-61.683197,-47.771046,2.9698257,-64.15999
UncalGyro,1676593953639,121457270339854,1.1386528,-1.0810788,5.6086593,0.0005149175,-0.0008599692,-0.0031783793
UncalAccel,1676593953643,121457274824474,14.801403,-6.626324,10.864612,0.006110925,-0.043260336,-0.038735468
OrientationDeg,1676593953643,121457274824474,111.0,-54.0,56.0
UncalGyro,1676593953648,121457279308361,2.002569,-1.7996091,5.220149,0.0005149175,-0.0008599692,-0.0031783793
UncalMag,1676593953649,121457280012462,-87.4496,30.8538,-60.5242,-47.771046,2.9698257,-64.15999
OrientationDeg,1676593953653,121457283806774,107.0,-51.0,58.0
