# 
# Header Description:
# 
# Version: v3.0.5.6 Platform: 13 Manufacturer: Google Model: Pixel 6
# 
# Raw,utcTimeMillis,TimeNanos,LeapSecond,TimeUncertaintyNanos,FullBiasNanos,BiasNanos,BiasUncertaintyNanos,DriftNanosPerSecond,DriftUncertaintyNanosPerSecond,HardwareClockDiscontinuityCount,Svid,TimeOffsetNanos,State,ReceivedSvTimeNanos,ReceivedSvTimeUncertaintyNanos,Cn0DbHz,PseudorangeRateMetersPerSecond,PseudorangeRateUncertaintyMetersPerSecond,AccumulatedDeltaRangeState,AccumulatedDeltaRangeMeters,AccumulatedDeltaRangeUncertaintyMeters,CarrierFrequencyHz,CarrierCycles,CarrierPhase,CarrierPhaseUncertainty,MultipathIndicator,SnrInDb,ConstellationType,AgcDb,BasebandCn0DbHz,FullInterSignalBiasNanos,FullInterSignalBiasUncertaintyNanos,SatelliteInterSignalBiasNanos,SatelliteInterSignalBiasUncertaintyNanos,CodeType,ChipsetElapsedRealtimeNanos
# 
# UncalAccel,utcTimeMillis,elapsedRealtimeNanos,UncalAccelXMps2,UncalAccelYMps2,UncalAccelZMps2,BiasXMps2,BiasYMps2,BiasZMps2
# 
# Accel,utcTimeMillis,elapsedRealtimeNanos,AccelXMps2,AccelYMps2,AccelZMps2
# 
# UncalGyro,utcTimeMillis,elapsedRealtimeNanos,UncalGyroXRadPerSec,UncalGyroYRadPerSec,UncalGyroZRadPerSec,DriftXRadPerSec,DriftYRadPerSec,DriftZRadPerSec
# 
# Gyro,utcTimeMillis,elapsedRealtimeNanos,GyroXRadPerSec,GyroYRadPerSec,GyroZRadPerSec
# 
# UncalMag,utcTimeMillis,elapsedRealtimeNanos,UncalMagXMicroT,UncalMagYMicroT,UncalMagZMicroT,BiasXMicroT,BiasYMicroT,BiasZMicroT
# 
# Mag,utcTimeMillis,elapsedRealtimeNanos,MagXMicroT,MagYMicroT,MagZMicroT
# 
# OrientationDeg,utcTimeMillis,elapsedRealtimeNanos,yawDeg,rollDeg,pitchDeg
# 
# Fix,Provider,LatitudeDegrees,LongitudeDegrees,AltitudeMeters,SpeedMps,AccuracyMeters,BearingDegrees,UnixTimeMillis,SpeedAccuracyMps,BearingAccuracyDegrees,elapsedRealtimeNanos,VerticalAccuracyMeters
# 
# Nav,Svid,Type,Status,MessageId,Sub-messageId,Data(Bytes)
# 
# Status,UnixTimeMillis,SignalCount,SignalIndex,ConstellationType,Svid,CarrierFrequencyHz,Cn0DbHz,AzimuthDegrees,ElevationDegrees,UsedInFix,HasAlmanacData,HasEphemerisData,BasebandCn0DbHz
# 
UncalGyro,1676592782336,120285966824962,-0.2780964,-0.38973203,0.2264783,0.0006379188,-0.0009500619,-0.0033521333
UncalAccel,1676592782336,120285966824962,0.721436,1.0671989,10.074382,0.006110925,-0.043260336,-0.038735468
UncalMag,1676592782337,120285967866466,-63.305798,-25.4858,-104.9322,-48.275375,2.3914185,-62.760414
OrientationDeg,1676592782336,120285966824962,156.0,-3.0,-11.0
Fix,FLP,37.4308067000,-122.1550712000,-16.100000381469727,0.0797277,3.758,,1676592781850,,,120285481897593,3.2518263
UncalGyro,1676592782344,120285975804088,-0.43676865,-0.17684549,0.300393,0.0006379188,-0.0009500619,-0.0033521333
UncalAccel,1676592782344,120285975804088,0.24646074,0.9936196,10.586446,0.006110925,-0.043260336,-0.038735468
OrientationDeg,1676592782344,120285975804088,156.0,-3.0,-11.0
UncalMag,1676592782346,120285977870373,-64.1232,-25.132,-106.091194,-48.275375,2.3914185,-62.760414
UncalGyro,1676592782353,120285984784740,-0.529162,0.0870483,0.36911532,0.0006379188,-0.0009500619,-0.0033521333
UncalAccel,1676592782353,120285984784740,0.17048861,1.2143575,10.920842,0.006110925,-0.043260336,-0.038735468
OrientationDeg,1676592782353,120285984784740,155.0,-3.0,-11.0
UncalMag,1676592782356,120285987868908,-63.257,-24.644,-106.9574,-48.275375,2.3914185,-62.760414
UncalGyro,1676592782362,120285993765452,-0.51893,0.33078352,0.4063781,0.0006379188,-0.0009500619,-0.0033521333
UncalAccel,1676592782362,120285993765452,0.44745782,1.2412767,10.807781,0.006110925,-0.043260336,-0.038735468
OrientationDeg,1676592782362,120285993765452,155.0,-2.0,-11.0
UncalMag,1676592782367,120285997868175,-60.499798,-23.948599,-105.0054,-48.275375,2.3914185,-62.760414
UncalGyro,1676592782372,120286002747021,-0.4259258,0.46181414,0.41920626,0.0006379188,-0.0009500619,-0.0033521333
UncalAccel,1676592782372,120286002747021,0.7543373,1.3692927,10.643275,0.006110925,-0.043260336,-0.038735468
OrientationDeg,1676592782371,120286002747021,155.0,-2.0,-10.0
UncalMag,1676592782377,120286007864513,-60.9146,-23.680199,-105.603195,-48.275375,2.3914185,-62.760414
UncalGyro,1676592782381,120286011730846,-0.23014349,0.45173484,0.40393466,0.0006379188,-0.0009500619,-0.0033521333
UncalAccel,1676592782381,120286011730846,1.1036894,1.5397813,10.573883,0.006110925,-0.043260336,-0.038735468
OrientationDeg,1676592782380,120286011730846,155.0,-2.0,-10.0
UncalMag,1676592782387,120286017864269,-61.7198,-24.143799,-105.273796,-48.275375,2.3914185,-62.760414
UncalGyro,1676592782390,120286020704967,0.078343466,0.3098614,0.35369098,0.0006379188,-0.0009500619,-0.0033521333
UncalAccel,1676592782390,120286020704967,1.2765709,1.6390835,10.551749,0.006110925,-0.043260336,-0.038735468
OrientationDeg,1676592782390,120286020704967,154.0,-2.0,-10.0
UncalMag,1676592782397,120286027866955,-60.4632,-23.1922,-104.737,-48.275375,2.3914185,-62.760414
UncalGyro,1676592782399,120286029692455,0.5140431,0.04795292,0.28863382,0.0006379188,-0.0009500619,-0.0033521333
UncalAccel,1676592782399,120286029692455,1.2819548,1.8646071,10.719247,0.006110925,-0.043260336,-0.038735468
OrientationDeg,1676592782398,120286029692455,154.0,-2.0,-11.0
UncalMag,1676592782407,120286037866222,-60.109398,-23.362999,-104.3954,-48.275375,2.3914185,-62.760414
UncalGyro,1676592782407,120286038667125,1.0601566,-0.28328875,0.19242255,0.0006379188,-0.0009500619,-0.0033521333
UncalAccel,1676592782408,120286038667125,1.7288144,2.3461626,10.809576,0.006110925,-0.043260336,-0.038735468
OrientationDeg,1676592782407,120286038667125,154.0,-2.0,-11.0
UncalGyro,1676592782416,120286047652477,1.6417004,-0.6436992,0.01160644,0.0006379188,-0.0009500619,-0.0033521333
UncalAccel,1676592782417,120286047652477,2.2301106,3.0143583,10.672587,0.006110925,-0.043260336,-0.038735468
UncalMag,1676592782417,120286047866466,-60.731598,-24.1682,-104.688194,-48.275375,2.3914185,-62.760414
OrientationDeg,1676592782416,120286047652477,154.0,-3.0,-12.0
UncalGyro,1676592782426,120286056626842,2.2084305,-1.1230757,-0.2527455,0.0006379188,-0.0009500619,-0.0033521333
UncalAccel,1676592782425,120286056626842,2.3838496,2.8935208,10.267602,0.006110925,-0.043260336,-0.038735468
UncalMag,1676592782427,120286057864513,-62.281,-25.01,-103.8098,-48.275375,2.3914185,-62.760414
OrientationDeg,1676592782426,120286056626842,154.0,-3.0,-13.0
UncalGyro,1676592782434,120286065610973,2.611449,-1.8800905,-0.5484043,0.0006379188,-0.0009500619,-0.0033521333
UncalAccel,1676592782434,120286065610973,2.7870402,3.0053852,8.873783,0.006110925,-0.043260336,-0.038735468
OrientationDeg,1676592782434,120286065610973,154.0,-4.0,-15.0
UncalMag,1676592782437,120286067869152,-59.9996,-24.997799,-103.456,-48.275375,2.3914185,-62.760414
UncalGyro,1676592782443,120286074589855,2.6887233,-3.0549371,-0.87109387,0.0006379188,-0.0009500619,-0.0033521333
UncalAccel,1676592782443,120286074589855,3.940979,4.134199,6.706484,0.006110925,-0.043260336,-0.038735468
OrientationDeg,1676592782444,120286074589855,155.0,-6.0,-16.0
UncalMag,1676592782447,120286077865001,-63.0374,-26.8888,-102.174995,-48.275375,2.3914185,-62.760414
UncalGyro,1676592782452,120286083568553,2.5677722,-4.287205,-1.2750285,0.0006379188,-0.0009500619,-0.0033521333
UncalAccel,1676592782453,120286083568553,5.171488,4.755137,7.5732837,0.006110925,-0.043260336,-0.038735468
OrientationDeg,1676592782452,120286083568553,155.0,-8.0,-17.0
UncalMag,1676592782456,120286087865734,-64.3428,-28.182,-106.859795,-48.275375,2.3914185,-62.760414
UncalGyro,1676592782462,120286092547557,2.4802656,-4.9469395,-1.75975,0.0006379188,-0.0009500619,-0.0033521333
UncalAccel,1676592782461,120286092547557,6.303891,4.3130627,9.172886,0.006110925,-0.043260336,-0.038735468
OrientationDeg,1676592782461,120286092547557,156.0,-10.0,-19.0
UncalMag,1676592782467,120286097865734,-65.8434,-30.451199,-98.7346,-48.275375,2.3914185,-62.760414
UncalGyro,1676592782471,120286101531994,2.4147503,-5.042387,-2.256078,0.0006379188,-0.0009500619,-0.0033521333
UncalAccel,1676592782470,120286101531994,6.7854466,3.6729827,10.143773,0.006110925,-0.043260336,-0.038735468
OrientationDeg,1676592782470,120286101531994,157.0,-12.0,-20.0
UncalMag,1676592782477,120286107872081,-64.294,-30.4268,-98.6736,-48.275375,2.3914185,-62.760414
UncalGyro,1676592782479,120286110514110,2.317928,-4.671134,-2.6784914,0.0006379188,-0.0009500619,-0.0033521333
UncalAccel,1676592782479,120286110514110,6.3194447,3.1435707,11.049457,0.006110925,-0.043260336,-0.038735468
OrientationDeg,1676592782479,120286110514110,158.0,-15.0,-22.0
UncalMag,1676592782487,120286117864269,-65.6726,-32.183598,-97.3316,-48.275375,2.3914185,-62.760414
UncalGyro,1676592782488,120286119490794,1.9285016,-3.653127,-2.9283352,0.0006379188,-0.0009500619,-0.0033521333
UncalAccel,1676592782488,120286119490794,5.243273,2.2779672,12.412169,0.006110925,-0.043260336,-0.038735468
OrientationDeg,1676592782488,120286119490794,159.0,-16.0,-23.0
UncalMag,1676592782496,120286127866222,-64.5502,-32.7326,-94.867195,-48.275375,2.3914185,-62.760414
UncalGyro,1676592782498,120286128470409,1.5286902,-2.4718661,-3.0451632,0.0006379188,-0.0009500619,-0.0033521333
UncalAccel,1676592782498,120286128470409,4.161717,1.8526429,11.580664,0.006110925,-0.043260336,-0.038735468
OrientationDeg,1676592782497,120286128470409,161.0,-17.0,-24.0
UncalGyro,1676592782506,120286137451793,1.1481212,-1.2137892,-2.961933,0.0006379188,-0.0009500619,-0.0033521333
UncalAccel,1676592782507,120286137451793,2.9401808,1.3369896,11.033903,0.006110925,-0.043260336,-0.038735468
UncalMag,1676592782507,120286137865001,-63.6474,-32.9888,-94.489,-48.275375,2.3914185,-62.760414
OrientationDeg,1676592782506,120286137451793,162.0,-17.0,-25.0
UncalGyro,1676592782515,120286146431895,0.821461,-0.057421334,-2.7931814,0.0006379188,-0.0009500619,-0.0033521333
UncalAccel,1676592782516,120286146431895,1.8418752,1.6833507,10.063614,0.006110925,-0.043260336,-0.038735468
UncalMag,1676592782517,120286147864269,-62.610397,-33.916,-94.7696,-48.275375,2.3914185,-62.760414
OrientationDeg,1676592782516,120286146431895,163.0,-16.0,-26.0
UncalGyro,1676592782524,120286155409557,0.5175556,0.90285885,-2.5608997,0.0006379188,-0.0009500619,-0.0033521333
UncalAccel,1676592782524,120286155409557,-0.33379877,2.487339,8.780462,0.006110925,-0.043260336,-0.038735468
OrientationDeg,1676592782524,120286155409557,165.0,-15.0,-27.0
UncalMag,1676592782527,120286157865001,-62.3176,-34.7212,-94.5134,-48.275375,2.3914185,-62.760414
UncalGyro,1676592782534,120286164393321,0.21517728,1.5532776,-1.7719674,0.0006379188,-0.0009500619,-0.0033521333
UncalAccel,1676592782534,120286164393321,-10.398609,3.9038901,7.34118,0.006110925,-0.043260336,-0.038735468
OrientationDeg,1676592782534,120286164393321,166.0,-13.0,-27.0
UncalMag,1676592782537,120286167866222,-60.2558,-34.355198,-94.6232,-48.275375,2.3914185,-62.760414
UncalGyro,1676592782542,120286173372447,-0.07147124,1.5676329,-0.38621956,0.0006379188,-0.0009500619,-0.0033521333
UncalAccel,1676592782543,120286173372447,-12.5019,4.9992046,5.4502516,0.006110925,-0.043260336,-0.038735468
OrientationDeg,1676592782543,120286173372447,166.0,-12.0,-27.0
UncalMag,1676592782547,120286177876232,-60.4144,-34.16,-96.2214,-48.275375,2.3914185,-62.760414
UncalGyro,1676592782552,120286182356029,-0.43478334,1.1594223,0.53893584,0.0006379188,-0.0009500619,-0.0033521333
UncalAccel,1676592782551,120286182356029,-4.878367,3.5336008,3.8901315,0.006110925,-0.043260336,-0.038735468
OrientationDeg,1676592782551,120286182356029,166.0,-12.0,-27.0
UncalMag,1676592782556,120286187865246,-59.78,-34.2454,-97.5512,-48.275375,2.3914185,-62.760414
UncalGyro,1676592782561,120286191332165,-0.7304421,0.6748534,0.88499105,0.0006379188,-0.0009500619,-0.0033521333
UncalAccel,1676592782560,120286191332165,0.5617151,1.5690935,4.552943,0.006110925,-0.043260336,-0.038735468
OrientationDeg,1676592782560,120286191332165,165.0,-12.0,-26.0
UncalMag,1676592782566,120286197869396,-59.3042,-33.196198,-97.1364,-48.275375,2.3914185,-62.760414
UncalGyro,1676592782569,120286200312389,-0.7715228,0.11453723,1.0103711,0.0006379188,-0.0009500619,-0.0033521333
UncalAccel,1676592782569,120286200312389,2.4861426,1.265205,5.413163,0.006110925,-0.043260336,-0.038735468
OrientationDeg,1676592782570,120286200312389,165.0,-12.0,-26.0
UncalMag,1676592782577,120286207865001,-61.3782,-33.916,-98.027,-48.275375,2.3914185,-62.760414
UncalGyro,1676592782579,120286209295909,-0.5887214,-0.40546182,1.0763446,0.0006379188,-0.0009500619,-0.0033521333
UncalAccel,1676592782579,120286209295909,3.2602208,1.5780666,7.4386873,0.006110925,-0.043260336,-0.038735468
OrientationDeg,1676592782578,120286209295909,164.0,-12.0,-25.0
UncalMag,1676592782587,120286217875988,-62.4762,-34.0014,-92.7688,-48.275375,2.3914185,-62.760414
UncalGyro,1676592782588,120286218273937,-0.27091873,-0.7452556,1.1061243,0.0006379188,-0.0009500619,-0.0033521333
UncalAccel,1676592782588,120286218273937,3.4522448,2.210968,9.129815,0.006110925,-0.043260336,-0.038735468
OrientationDeg,1676592782587,120286218273937,164.0,-13.0,-25.0
UncalGyro,1676592782597,120286227266856,0.0795652,-0.82451534,1.1163563,0.0006379188,-0.0009500619,-0.0033521333
UncalAccel,1676592782597,120286227266856,3.6251264,2.2869403,9.950553,0.006110925,-0.043260336,-0.038735468
UncalMag,1676592782596,120286227864513,-61.6954,-33.6842,-92.219795,-48.275375,2.3914185,-62.760414
OrientationDeg,1676592782597,120286227266856,163.0,-14.0,-25.0
UncalGyro,1676592782606,120286236247874,0.41126502,-0.7182248,1.1782063,0.0006379188,-0.0009500619,-0.0033521333
UncalAccel,1676592782605,120286236247874,3.8733816,1.7383857,9.934999,0.006110925,-0.043260336,-0.038735468
OrientationDeg,1676592782606,120286236247874,162.0,-14.0,-25.0
UncalMag,1676592782607,120286237876232,-62.4762,-33.3182,-92.7078,-48.275375,2.3914185,-62.760414
UncalGyro,1676592782614,120286245209483,0.6614143,-0.46563202,1.2834278,0.0006379188,-0.0009500619,-0.0033521333
UncalAccel,1676592782614,120286245209483,4.0384865,2.000998,9.784252,0.006110925,-0.043260336,-0.038735468
OrientationDeg,1676592782615,120286245209483,161.0,-15.0,-25.0
UncalMag,1676592782617,120286247876232,-63.562,-33.7818,-91.585396,-48.275375,2.3914185,-62.760414
UncalGyro,1676592782623,120286254207103,0.7733554,-0.1518,1.4181237,0.0006379188,-0.0009500619,-0.0033521333
UncalAccel,1676592782624,120286254207103,3.2177482,2.0871396,9.02812,0.006110925,-0.043260336,-0.038735468
OrientationDeg,1676592782624,120286254207103,161.0,-15.0,-25.0
UncalMag,1676592782626,120286257875988,-61.7808,-32.5618,-89.9994,-48.275375,2.3914185,-62.760414
UncalGyro,1676592782633,120286263183299,0.7228063,0.021380283,1.536937,0.0006379188,-0.0009500619,-0.0033521333
UncalAccel,1676592782632,120286263183299,2.5525436,2.7092733,7.68455,0.006110925,-0.043260336,-0.038735468
OrientationDeg,1676592782632,120286263183299,160.0,-16.0,-25.0
UncalMag,1676592782637,120286267871349,-64.9284,-33.6232,-90.768,-48.275375,2.3914185,-62.760414
UncalGyro,1676592782641,120286272167125,0.50320023,0.086132,1.5392277,0.0006379188,-0.0009500619,-0.0033521333
UncalAccel,1676592782641,120286272167125,2.9192436,4.1694937,7.055238,0.006110925,-0.043260336,-0.038735468
OrientationDeg,1676592782642,120286272167125,159.0,-16.0,-25.0
UncalMag,1676592782647,120286277876232,-64.5624,-33.7086,-90.768,-48.275375,2.3914185,-62.760414
UncalGyro,1676592782650,120286281150097,0.1947133,0.12415836,1.3663528,0.0006379188,-0.0009500619,-0.0033521333
UncalAccel,1676592782650,120286281150097,3.3583267,5.221139,6.652645,0.006110925,-0.043260336,-0.038735468
OrientationDeg,1676592782651,120286281150097,158.0,-17.0,-25.0
UncalMag,1676592782656,120286287876232,-64.172,-32.4398,-90.4142,-48.275375,2.3914185,-62.760414
UncalGyro,1676592782660,120286290124706,-0.093767814,0.20906863,1.0989466,0.0006379188,-0.0009500619,-0.0033521333
UncalAccel,1676592782659,120286290124706,3.5742788,5.608776,6.9559355,0.006110925,-0.043260336,-0.038735468
OrientationDeg,1676592782659,120286290124706,157.0,-17.0,-25.0
UncalMag,1676592782667,120286297876232,-67.783195,-34.9652,-93.451996,-48.275375,2.3914185,-62.760414
UncalGyro,1676592782668,120286299107616,-0.3191771,0.41798455,0.7707592,0.0006379188,-0.0009500619,-0.0033521333
UncalAccel,1676592782668,120286299107616,4.272983,5.7583275,7.550552,0.006110925,-0.043260336,-0.038735468
OrientationDeg,1676592782669,120286299107616,157.0,-17.0,-25.0
UncalMag,1676592782677,120286307876232,-65.819,-32.818,-89.877396,-48.275375,2.3914185,-62.760414
UncalGyro,1676592782677,120286308084972,-0.45723262,0.6760751,0.42348233,0.0006379188,-0.0009500619,-0.0033521333
UncalAccel,1676592782677,120286308084972,4.276572,5.4370914,8.287541,0.006110925,-0.043260336,-0.038735468
OrientationDeg,1676592782677,120286308084972,157.0,-16.0,-24.0
UncalGyro,1676592782686,120286317058727,-0.5112942,0.8889617,0.124005646,0.0006379188,-0.0009500619,-0.0033521333
UncalAccel,1676592782686,120286317058727,4.2610188,4.818547,8.536993,0.006110925,-0.043260336,-0.038735468
UncalMag,1676592782687,120286317875499,-65.3066,-32.5984,-90.987595,-48.275375,2.3914185,-62.760414
OrientationDeg,1676592782687,120286317058727,157.0,-16.0,-24.0
UncalGyro,1676592782696,120286326052929,-0.513585,0.90667677,-0.074830994,0.0006379188,-0.0009500619,-0.0033521333
UncalAccel,1676592782695,120286326052929,3.9188452,4.091727,8.17448,0.006110925,-0.043260336,-0.038735468
UncalMag,1676592782696,120286327876232,-64.9528,-32.94,-91.146194,-48.275375,2.3914185,-62.760414
OrientationDeg,1676592782696,120286326052929,157.0,-15.0,-24.0
UncalGyro,1676592782704,120286335029308,-0.49586987,0.6740898,-0.160963,0.0006379188,-0.0009500619,-0.0033521333
UncalAccel,1676592782704,120286335029308,3.5557344,3.2787652,8.130213,0.006110925,-0.043260336,-0.038735468
OrientationDeg,1676592782705,120286335029308,157.0,-15.0,-24.0
UncalMag,1676592782706,120286337875988,-64.7332,-32.7936,-91.2316,-48.275375,2.3914185,-62.760414
UncalGyro,1676592782713,120286344009654,-0.45478916,0.46960264,-0.14187345,0.0006379188,-0.0009500619,-0.0033521333
UncalAccel,1676592782713,120286344009654,3.3254254,2.2259233,8.700303,0.006110925,-0.043260336,-0.038735468
OrientationDeg,1676592782714,120286344009654,157.0,-15.0,-23.0
UncalMag,1676592782717,120286347876232,-66.0508,-32.952198,-92.390594,-48.275375,2.3914185,-62.760414
UncalGyro,1676592782721,120286352990001,-0.36178493,0.41813725,-0.009162978,0.0006379188,-0.0009500619,-0.0033521333
UncalAccel,1676592782721,120286352990001,2.7726831,1.3950156,9.346365,0.006110925,-0.043260336,-0.038735468
OrientationDeg,1676592782722,120286352990001,157.0,-14.0,-23.0
UncalMag,1676592782727,120286357864269,-63.696198,-31.854198,-91.5,-48.275375,2.3914185,-62.760414
UncalGyro,1676592782730,120286361968761,-0.2302962,0.5305365,0.20295998,0.0006379188,-0.0009500619,-0.0033521333
UncalAccel,1676592782731,120286361968761,2.2528424,1.1682956,9.952946,0.006110925,-0.043260336,-0.038735468
OrientationDeg,1676592782730,120286361968761,157.0,-14.0,-23.0
UncalMag,1676592782736,120286367875744,-65.7214,-32.696,-92.476,-48.275375,2.3914185,-62.760414
UncalGyro,1676592782740,120286370950633,-0.09605856,0.6458373,0.42531493,0.0006379188,-0.0009500619,-0.0033521333
UncalAccel,1676592782740,120286370950633,1.8783658,1.6737795,9.382257,0.006110925,-0.043260336,-0.038735468
OrientationDeg,1676592782739,120286370950633,157.0,-14.0,-23.0
UncalMag,1676592782747,120286377875988,-64.0744,-31.6346,-92.841995,-48.275375,2.3914185,-62.760414
UncalGyro,1676592782748,120286379933787,0.0067195175,0.5861252,0.55924714,0.0006379188,-0.0009500619,-0.0033521333
UncalAccel,1676592782749,120286379933787,1.9914266,2.7128627,8.353942,0.006110925,-0.043260336,-0.038735468
OrientationDeg,1676592782748,120286379933787,157.0,-14.0,-23.0
UncalMag,1676592782756,120286387876232,-64.3184,-31.927399,-92.293,-48.275375,2.3914185,-62.760414
UncalGyro,1676592782758,120286388906932,0.063988134,0.41920626,0.5355761,0.0006379188,-0.0009500619,-0.0033521333
UncalAccel,1676592782758,120286388906932,2.2552354,3.1860433,7.838289,0.006110925,-0.043260336,-0.038735468
OrientationDeg,1676592782758,120286388906932,156.0,-14.0,-23.0
UncalMag,1676592782766,120286397876232,-64.0744,-32.0128,-91.561,-48.275375,2.3914185,-62.760414
UncalGyro,1676592782766,120286397895580,0.10354166,0.2078469,0.38927388,0.0006379188,-0.0009500619,-0.0033521333
UncalAccel,1676592782767,120286397895580,2.737389,3.1543384,7.620542,0.006110925,-0.043260336,-0.038735468
OrientationDeg,1676592782767,120286397895580,156.0,-14.0,-23.0
UncalGyro,1676592782775,120286406869273,0.14263703,0.0154243475,0.25809056,0.0006379188,-0.0009500619,-0.0033521333
UncalAccel,1676592782776,120286406869273,3.0580273,2.644069,7.5816584,0.006110925,-0.043260336,-0.038735468
UncalMag,1676592782777,120286407864513,-64.8918,-31.9762,-92.207596,-48.275375,2.3914185,-62.760414
OrientationDeg,1676592782775,120286406869273,156.0,-14.0,-23.0
UncalGyro,1676592782785,120286415849681,0.16691893,-0.13439035,0.21655174,0.0006379188,-0.0009500619,-0.0033521333
UncalAccel,1676592782785,120286415849681,3.199204,1.9046868,7.688139,0.006110925,-0.043260336,-0.038735468
UncalMag,1676592782786,120286417867199,-65.88,-32.3788,-92.903,-48.275375,2.3914185,-62.760414
OrientationDeg,1676592782785,120286415849681,156.0,-14.0,-23.0
UncalGyro,1676592782794,120286424835888,0.14844026,-0.22388211,0.2507602,0.0006379188,-0.0009500619,-0.0033521333
UncalAccel,1676592782793,120286424835888,3.3756745,1.2801601,7.7904325,0.006110925,-0.043260336,-0.038735468
OrientationDeg,1676592782793,120286424835888,156.0,-14.0,-23.0
UncalMag,1676592782797,120286427875744,-65.5628,-32.3056,-93.7082,-48.275375,2.3914185,-62.760414
UncalGyro,1676592782803,120286433807872,0.08124508,-0.25442538,0.32788193,0.0006379188,-0.0009500619,-0.0033521333
UncalAccel,1676592782802,120286433807872,3.5820556,1.125823,8.119446,0.006110925,-0.043260336,-0.038735468
OrientationDeg,1676592782803,120286433807872,155.0,-14.0,-23.0
UncalMag,1676592782807,120286437862560,-65.6482,-32.0494,-92.171,-48.275375,2.3914185,-62.760414
UncalGyro,1676592782811,120286442782237,-0.04596761,-0.22021692,0.39538252,0.0006379188,-0.0009500619,-0.0033521333
UncalAccel,1676592782812,120286442782237,3.8757744,0.9613165,8.253444,0.006110925,-0.043260336,-0.038735468
OrientationDeg,1676592782811,120286442782237,155.0,-15.0,-23.0
UncalMag,1676592782816,120286447864513,-65.6848,-32.183598,-91.927,-48.275375,2.3914185,-62.760414
UncalGyro,1676592782821,120286451774852,-0.19624045,-0.17760907,0.4662429,0.0006379188,-0.0009500619,-0.0033521333
UncalAccel,1676592782820,120286451774852,3.6107693,0.6125626,8.292925,0.006110925,-0.043260336,-0.038735468
OrientationDeg,1676592782820,120286451774852,155.0,-15.0,-23.0
UncalMag,1676592782827,120286457876232,-65.7458,-32.1592,-91.8416,-48.275375,2.3914185,-62.760414
UncalGyro,1676592782829,120286460754649,-0.30573806,-0.1516473,0.5590944,0.0006379188,-0.0009500619,-0.0033521333
UncalAccel,1676592782829,120286460754649,3.3074791,0.66699934,8.053643,0.006110925,-0.043260336,-0.038735468
OrientationDeg,1676592782830,120286460754649,155.0,-15.0,-22.0
UncalMag,1676592782836,120286467875988,-66.062996,-31.9152,-91.756195,-48.275375,2.3914185,-62.760414
UncalGyro,1676592782838,120286469734752,-0.33765575,-0.22204952,0.63224554,0.0006379188,-0.0009500619,-0.0033521333
UncalAccel,1676592782839,120286469734752,3.2039895,0.7585248,7.920243,0.006110925,-0.043260336,-0.038735468
OrientationDeg,1676592782838,120286469734752,154.0,-15.0,-22.0
UncalMag,1676592782847,120286477875988,-66.855995,-31.9884,-92.695595,-48.275375,2.3914185,-62.760414
UncalGyro,1676592782848,120286478715038,-0.2863431,-0.364992,0.7145596,0.0006379188,-0.0009500619,-0.0033521333
UncalAccel,1676592782848,120286478715038,2.8905299,0.30029923,7.963912,0.006110925,-0.043260336,-0.038735468
OrientationDeg,1676592782847,120286478715038,154.0,-16.0,-22.0
UncalGyro,1676592782857,120286487695506,-0.17470746,-0.48166725,0.8410087,0.0006379188,-0.0009500619,-0.0033521333
UncalAccel,1676592782857,120286487695506,2.838486,-0.12622139,8.176275,0.006110925,-0.043260336,-0.038735468
UncalMag,1676592782857,120286487864025,-65.4042,-31.073399,-92.6468,-48.275375,2.3914185,-62.760414
OrientationDeg,1676592782856,120286487695506,154.0,-16.0,-22.0
UncalGyro,1676592782865,120286496675731,-0.050396383,-0.5832236,0.9980011,0.0006379188,-0.0009500619,-0.0033521333
UncalAccel,1676592782865,120286496675731,2.909074,-0.3469593,7.9944205,0.006110925,-0.043260336,-0.038735468
UncalMag,1676592782866,120286497875744,-65.9898,-30.7684,-91.890396,-48.275375,2.3914185,-62.760414
OrientationDeg,1676592782865,120286496675731,153.0,-16.0,-21.0
UncalGyro,1676592782874,120286505657481,0.049632803,-0.7414377,1.1530081,0.0006379188,-0.0009500619,-0.0033521333
UncalAccel,1676592782875,120286505657481,3.2219357,-0.33499518,7.4045897,0.006110925,-0.043260336,-0.038735468
OrientationDeg,1676592782875,120286505657481,152.0,-17.0,-21.0
UncalMag,1676592782877,120286507862804,-66.9658,-30.987999,-91.9758,-48.275375,2.3914185,-62.760414
UncalGyro,1676592782883,120286514636608,0.12904528,-0.93233305,1.280679,0.0006379188,-0.0009500619,-0.0033521333
UncalAccel,1676592782884,120286514636608,3.6436708,-0.12143575,7.312466,0.006110925,-0.043260336,-0.038735468
OrientationDeg,1676592782884,120286514636608,152.0,-18.0,-21.0
UncalMag,1676592782886,120286517875744,-69.015396,-31.3906,-93.0494,-48.275375,2.3914185,-62.760414
UncalGyro,1676592782892,120286523616893,0.19639318,-1.1065824,1.3952162,0.0006379188,-0.0009500619,-0.0033521333
UncalAccel,1676592782893,120286523616893,4.1204405,-0.07178468,7.4010005,0.006110925,-0.043260336,-0.038735468
OrientationDeg,1676592782893,120286523616893,151.0,-19.0,-21.0
UncalMag,1676592782897,120286527876232,-68.6738,-30.7684,-92.1344,-48.275375,2.3914185,-62.760414
UncalGyro,1676592782901,120286532585704,0.24633141,-1.236544,1.476614,0.0006379188,-0.0009500619,-0.0033521333
UncalAccel,1676592782902,120286532585704,4.666602,-0.22313072,7.5786676,0.006110925,-0.043260336,-0.038735468
OrientationDeg,1676592782902,120286532585704,150.0,-20.0,-21.0
UncalMag,1676592782907,120286537875988,-70.0158,-30.6342,-92.390594,-48.275375,2.3914185,-62.760414
UncalGyro,1676592782910,120286541578563,0.25045475,-1.2925909,1.5879441,0.0006379188,-0.0009500619,-0.0033521333
UncalAccel,1676592782910,120286541578563,4.5224347,-0.8650054,7.722835,0.006110925,-0.043260336,-0.038735468
OrientationDeg,1676592782910,120286541578563,149.0,-21.0,-20.0
UncalMag,1676592782916,120286547875988,-71.4554,-29.8778,-92.7078,-48.275375,2.3914185,-62.760414
UncalGyro,1676592782919,120286550557994,0.1788308,-1.2191343,1.7090483,0.0006379188,-0.0009500619,-0.0033521333
UncalAccel,1676592782920,120286550557994,4.2077785,-1.2227324,8.215158,0.006110925,-0.043260336,-0.038735468
OrientationDeg,1676592782920,120286550557994,148.0,-22.0,-20.0
UncalMag,1676592782927,120286557875988,-71.2236,-29.401999,-93.0738,-48.275375,2.3914185,-62.760414
UncalGyro,1676592782928,120286559538341,0.0364992,-0.93676186,1.813659,0.0006379188,-0.0009500619,-0.0033521333
UncalAccel,1676592782928,120286559538341,3.269194,-0.84765744,8.612965,0.006110925,-0.043260336,-0.038735468
OrientationDeg,1676592782928,120286559538341,147.0,-22.0,-20.0
UncalMag,1676592782936,120286567876232,-73.1146,-29.1946,-93.7082,-48.275375,2.3914185,-62.760414
UncalGyro,1676592782937,120286568519786,-0.14477506,-0.6215554,1.9097174,0.0006379188,-0.0009500619,-0.0033521333
UncalAccel,1676592782937,120286568519786,3.2500513,-0.6658029,7.941778,0.006110925,-0.043260336,-0.038735468
OrientationDeg,1676592782938,120286568519786,146.0,-23.0,-19.0
UncalGyro,1676592782946,120286577500194,-0.3222314,-0.5172501,2.021353,0.0006379188,-0.0009500619,-0.0033521333
UncalAccel,1676592782947,120286577500194,4.252644,-1.5780666,7.2508507,0.006110925,-0.043260336,-0.038735468
UncalMag,1676592782947,120286577864757,-74.054,-28.9506,-94.9648,-48.275375,2.3914185,-62.760414
OrientationDeg,1676592782947,120286577500194,146.0,-24.0,-19.0
UncalGyro,1676592782956,120286586479503,-0.41248676,-0.49968776,2.1308508,0.0006379188,-0.0009500619,-0.0033521333
UncalAccel,1676592782955,120286586479503,4.9286165,-1.797608,8.0817585,0.006110925,-0.043260336,-0.038735468
UncalMag,1676592782956,120286587875988,-73.5782,-27.755,-95.660194,-48.275375,2.3914185,-62.760414
OrientationDeg,1676592782955,120286586479503,145.0,-24.0,-18.0
UncalGyro,1676592782964,120286595455333,-0.40011674,-0.43967026,2.1917844,0.0006379188,-0.0009500619,-0.0033521333
UncalAccel,1676592782964,120286595455333,5.2809596,-1.2669996,8.962915,0.006110925,-0.043260336,-0.038735468
OrientationDeg,1676592782964,120286595455333,144.0,-25.0,-17.0
UncalMag,1676592782966,120286597876232,-74.42,-27.3646,-95.952995,-48.275375,2.3914185,-62.760414
UncalGyro,1676592782973,120286604440074,-0.34513888,-0.3474296,2.1760547,0.0006379188,-0.0009500619,-0.0033521333
UncalAccel,1676592782974,120286604440074,5.7314086,-0.9529416,8.995218,0.006110925,-0.043260336,-0.038735468
OrientationDeg,1676592782974,120286604440074,143.0,-25.0,-17.0
UncalMag,1676592782977,120286607876232,-76.188995,-26.9986,-94.7452,-48.275375,2.3914185,-62.760414
UncalGyro,1676592782983,120286613425426,-0.33124167,-0.2938262,2.1497874,0.0006379188,-0.0009500619,-0.0033521333
UncalAccel,1676592782982,120286613425426,5.9210396,-1.1515459,7.9800634,0.006110925,-0.043260336,-0.038735468
OrientationDeg,1676592782982,120286613425426,142.0,-26.0,-16.0
UncalMag,1676592782986,120286617871593,-77.7872,-26.669199,-95.1112,-48.275375,2.3914185,-62.760414
UncalGyro,1676592782992,120286622391063,-0.3747658,-0.3998113,2.1558962,0.0006379188,-0.0009500619,-0.0033521333
UncalAccel,1676592782992,120286622391063,5.9024954,-1.2430713,6.6735826,0.006110925,-0.043260336,-0.038735468
OrientationDeg,1676592782991,120286622391063,141.0,-26.0,-15.0
UncalMag,1676592782997,120286627875988,-77.738396,-25.7298,-94.3426,-48.275375,2.3914185,-62.760414
UncalGyro,1676592783001,120286631381297,-0.40530908,-0.6632469,2.174833,0.0006379188,-0.0009500619,-0.0033521333
UncalAccel,1676592783001,120286631381297,5.896513,-1.0606186,6.2691956,0.006110925,-0.043260336,-0.038735468
OrientationDeg,1676592783001,120286631381297,140.0,-27.0,-14.0
UncalMag,1676592783007,120286637875988,-79.8612,-25.6688,-95.099,-48.275375,2.3914185,-62.760414
UncalGyro,1676592783010,120286640359569,-0.3932445,-0.96974856,2.196824,0.0006379188,-0.0009500619,-0.0033521333
UncalAccel,1676592783009,120286640359569,6.0825553,-0.93738824,6.390033,0.006110925,-0.043260336,-0.038735468
OrientationDeg,1676592783009,120286640359569,139.0,-28.0,-14.0
UncalMag,1676592783017,120286647875988,-79.141396,-25.0222,-93.012794,-48.275375,2.3914185,-62.760414
UncalGyro,1676592783018,120286649343456,-0.3904956,-1.2906055,2.2062926,0.0006379188,-0.0009500619,-0.0033521333
UncalAccel,1676592783019,120286649343456,6.6514487,-0.86919284,6.2309103,0.006110925,-0.043260336,-0.038735468
OrientationDeg,1676592783019,120286649343456,138.0,-29.0,-13.0
UncalMag,1676592783026,120286657875988,-79.8978,-23.8632,-92.061195,-48.275375,2.3914185,-62.760414
UncalGyro,1676592783028,120286658324474,-0.42562035,-1.605812,2.175444,0.0006379188,-0.0009500619,-0.0033521333
UncalAccel,1676592783028,120286658324474,7.4530444,-0.80159557,6.1250277,0.006110925,-0.043260336,-0.038735468
OrientationDeg,1676592783027,120286658324474,137.0,-30.0,-12.0
UncalGyro,1676592783037,120286667286144,-0.50808716,-1.8180877,2.0602958,0.0006379188,-0.0009500619,-0.0033521333
UncalAccel,1676592783036,120286667286144,8.368299,-0.70648086,6.2919273,0.006110925,-0.043260336,-0.038735468
UncalMag,1676592783036,120286667865246,-80.2638,-23.1556,-91.3292,-48.275375,2.3914185,-62.760414
OrientationDeg,1676592783037,120286667286144,136.0,-31.0,-11.0
UncalGyro,1676592783046,120286676282970,-0.64843345,-1.8727602,1.8736764,0.0006379188,-0.0009500619,-0.0033521333
UncalAccel,1676592783045,120286676282970,8.835498,-1.0013963,6.769295,0.006110925,-0.043260336,-0.038735468
OrientationDeg,1676592783046,120286676282970,136.0,-32.0,-11.0
UncalMag,1676592783047,120286677875988,-81.6668,-22.4968,-91.5,-48.275375,2.3914185,-62.760414
UncalGyro,1676592783054,120286685264598,-0.8126035,-1.8432859,1.7479908,0.0006379188,-0.0009500619,-0.0033521333
UncalAccel,1676592783054,120286685264598,8.221739,-2.0721843,6.81775,0.006110925,-0.043260336,-0.038735468
OrientationDeg,1676592783055,120286685264598,135.0,-33.0,-10.0
UncalMag,1676592783056,120286687875744,-81.788795,-21.5696,-90.768,-48.275375,2.3914185,-62.760414
UncalGyro,1676592783063,120286694243785,-0.97127575,-1.9275852,1.7849482,0.0006379188,-0.0009500619,-0.0033521333
UncalAccel,1676592783063,120286694243785,7.375876,-3.5150564,6.04427,0.006110925,-0.043260336,-0.038735468
OrientationDeg,1676592783063,120286694243785,134.0,-34.0,-9.0
UncalMag,1676592783067,120286697875988,-83.631,-21.411,-89.6456,-48.275375,2.3914185,-62.760414
Status,0,29,0,6,2,1575420030,40.03,50.0,79.0,1,1,1,35.82971
Status,0,29,1,6,2,1176450050,37.95,50.0,79.0,1,1,1,33.851772
Status,0,29,2,3,17,1604249980,41.18,257.0,72.0,1,1,1,36.976494
Status,0,29,3,6,36,1575420030,44.03,74.0,70.0,1,1,1,39.831066
Status,0,29,4,6,36,1176450050,35.10,74.0,70.0,1,1,1,31.003048
Status,0,29,5,1,11,1575420030,42.37,158.0,65.0,1,1,1,38.172043
Status,0,29,6,1,11,1176450050,40.75,158.0,65.0,1,1,1,36.64554
Status,0,29,7,3,14,1598062460,44.64,138.0,61.0,1,1,1,40.43893
Status,0,29,8,3,15,1602000000,38.70,331.0,60.0,1,1,1,34.49658
Status,0,29,9,1,6,1176450050,40.09,60.0,56.0,1,1,1,35.991673
Status,0,29,10,1,6,1575420030,44.37,60.0,56.0,1,1,1,40.173977
Status,0,29,11,1,12,1575420030,37.78,319.0,52.0,1,1,1,33.584072
Status,0,29,12,1,24,1176450050,39.17,232.0,49.0,1,1,1,35.06662
Status,0,29,13,1,24,1575420030,38.43,232.0,49.0,1,1,1,34.234444
Status,0,29,14,6,34,1575420030,39.44,199.0,47.0,1,1,1,35.24363
Status,0,29,15,6,34,1176450050,33.67,199.0,47.0,1,1,1,29.570671
Status,0,29,16,3,24,1603124990,45.61,29.0,45.0,1,1,1,41.406094
Status,0,29,17,6,30,1176450050,33.22,313.0,36.0,1,1,1,29.116747
Status,0,29,18,1,19,1575420030,49.00,52.0,36.0,1,1,1,44.795162
Status,0,29,19,6,30,1575420030,36.06,313.0,36.0,1,1,1,31.858608
Status,0,29,20,6,25,1575420030,39.11,117.0,34.0,1,1,1,34.90984
Status,0,29,21,6,25,1176450050,37.33,117.0,34.0,1,1,1,33.234573
Status,0,29,22,3,18,1600312450,43.39,226.0,23.0,1,1,1,39.193405
Status,0,29,23,1,25,1575420030,38.37,308.0,23.0,1,1,1,34.169403
Status,0,29,24,6,11,1176450050,37.50,41.0,23.0,1,1,1,33.403248
Status,0,29,25,6,11,1575420030,43.14,41.0,23.0,1,1,1,38.94369
Status,0,29,26,1,25,1176450050,36.07,308.0,23.0,1,1,1,31.966002
Status,0,29,27,1,20,1575420030,39.56,150.0,15.0,1,1,1,35.36026
Status,0,29,28,1,17,1575420030,43.79,63.0,10.0,1,1,1,39.5897
UncalGyro,1676592783072,120286703224254,-1.075581,-2.1771238,1.9057468,0.0006379188,-0.0009500619,-0.0033521333
UncalAccel,1676592783072,120286703224254,7.259824,-4.8909297,5.2695937,0.006110925,-0.043260336,-0.038735468
UncalMag,1676592783076,120286707875011,-85.583,-20.996199,-89.8042,-48.275375,2.3914185,-62.760414
OrientationDeg,1676592783072,120286703224254,134.0,-35.0,-8.0
Fix,GPS,37.4308003815,-122.1550615331,-15.603541583982585,0.17203146,3.1767104,136.8277,1676592782000,0.13073692,30.431334,120286573051000,3.0
Raw,1676592782000,741697000000,,,-1360627258303384721,0.0,7.7644896058117245,285.0,1.0,15,6,0.0,16431,432799930629900,24,35.76406478881836,367.364812699612,0.5311626701069423,16,241555.33969984512,340282346638528860000000000000000000000,1575420030,,,,0,,1,,31.564064025878906,0.320142130558394,1.0,0.320142130558394,1.0,C,120286573051000
Raw,1676592782000,741697000000,,,-1360627258303384721,0.0,7.7644896058117245,285.0,1.0,15,11,0.0,16431,432799931338218,14,41.75943374633789,-195.01700442085792,0.15,16,-174442.23542159927,340282346638528860000000000000000000000,1575420030,,,,0,,1,,37.55943298339844,-0.20372681261465636,1.0,-0.20372681261465636,1.0,C,120286573051000
Raw,1676592782000,741697000000,,,-1360627258303384721,0.0,7.7644896058117245,285.0,1.0,15,12,0.0,16431,432799929831224,35,31.18201446533203,-300.43845612403015,0.7370686692428512,16,-235747.21335476328,340282346638528860000000000000000000000,1575420030,,,,0,,1,,26.98201560974121,-0.6984919076624261,1.0,-0.6984919076624261,1.0,C,120286573051000
Raw,1676592782000,741697000000,,,-1360627258303384721,0.0,7.7644896058117245,285.0,1.0,15,17,0.0,16431,432799917592242,19,38.64793395996094,588.655693153024,0.15,16,439960.88297799113,340282346638528860000000000000000000000,1575420030,,,,0,,1,,34.447933197021484,-0.7858034271858065,1.0,-0.7858034271858065,1.0,C,120286573051000
Raw,1676592782000,741697000000,,,-1360627258303384721,0.0,7.7644896058117245,285.0,1.0,15,19,0.0,16431,432799926937156,11,47.64446258544922,553.5000823216799,0.15,16,402768.7413126542,340282346638528860000000000000000000000,1575420030,,,,0,,1,,43.444461822509766,0.0,1.0,0.0,1.0,C,120286573051000
Raw,1676592782000,741697000000,,,-1360627258303384721,0.0,7.7644896058117245,285.0,1.0,15,20,0.0,16431,432799920012260,18,39.423484802246094,-490.63113994776904,0.15,16,-362683.18617768114,340282346638528860000000000000000000000,1575420030,,,,0,,1,,35.22348403930664,0.0,1.0,0.0,1.0,C,120286573051000
Raw,1676592782000,741697000000,,,-1360627258303384721,0.0,7.7644896058117245,285.0,1.0,15,24,0.0,16431,432799928414870,22,36.94198989868164,446.65655716132164,0.15,16,303708.2453490287,340282346638528860000000000000000000000,1575420030,,,,0,,1,,32.74198913574219,-0.20372681261465636,1.0,-0.20372681261465636,1.0,C,120286573051000
Raw,1676592782000,741697000000,,,-1360627258303384721,0.0,7.7644896058117245,285.0,1.0,15,25,0.0,16431,432799923568744,28,33.886138916015625,-503.3467250746687,0.6143407388326163,16,-376914.3943074497,340282346638528860000000000000000000000,1575420030,,,,0,,1,,29.686140060424805,-2.0372682255564105,1.0,-2.0372682255564105,1.0,C,120286573051000
Raw,1676592782000,741697000000,,,-1360627258303384721,0.0,7.7644896058117245,285.0,1.0,15,6,0.0,81921,432799930630448,14,33.20431137084961,367.11941901264777,0.6417751193145418,16,242414.71800104144,340282346638528860000000000000000000000,1176450050,,,,0,,1,,29.104310989379883,1.9208527336454408,1.3798503687448072,1.9208527336454408,1.0,Q,120286573051000
Raw,1676592782000,741697000000,,,-1360627258303384721,0.0,7.7644896058117245,285.0,1.0,15,11,0.0,81921,432799931338752,9,39.96236801147461,-194.76123262588249,0.15,16,-175331.88272348384,340282346638528860000000000000000000000,1176450050,,,,0,,1,,35.862369537353516,0.0,1.3798503687448072,0.0,1.0,Q,120286573051000
Raw,1676592782000,741697000000,,,-1360627258303384721,0.0,7.7644896058117245,285.0,1.0,15,24,0.0,81921,432799928415420,13,35.607086181640625,446.6639871368436,0.5333265732596513,16,304836.211565537,340282346638528860000000000000000000000,1176450050,,,,0,,1,,31.50708770751953,3.5215636101095664,1.3798503687448072,3.5215636101095664,1.0,Q,120286573051000
Raw,1676592782000,741697000000,,,-1360627258303384721,0.0,7.7644896058117245,285.0,1.0,15,25,0.0,81921,432799923569254,6,34.65321350097656,-503.2298904137085,0.5753495431956486,16,-378485.01214075915,340282346638528860000000000000000000000,1176450050,,,,0,,1,,30.553213119506836,1.0186341127782053,1.3798503687448072,1.0186341127782053,1.0,Q,120286573051000
Raw,1676592782000,741697000000,,,-1360627258303384721,0.0,7.7644896058117245,285.0,1.0,15,14,0.0,32995,11581934633424,33,44.53003692626953,432.1908719744322,0.15,16,284930.59666806634,340282346638528860000000000000000000000,1598062460,,,,0,,3,,40.33003616333008,50.29141902923584,2.0000000474974513,50.29141902923584,2.0000000474974513,C,120286573051000
Raw,1676592782000,741697000000,,,-1360627258303384721,0.0,7.7644896058117245,285.0,1.0,15,18,0.0,32995,11581926206785,33,41.8300666809082,-562.5582449566602,0.15,16,-435655.2642725704,340282346638528860000000000000000000000,1600312450,,,,0,,3,,37.63006591796875,50.29141902923584,2.0000000474974513,50.29141902923584,2.0000000474974513,C,120286573051000
Raw,1676592782000,741697000000,,,-1360627258303384721,0.0,7.7644896058117245,285.0,1.0,15,15,0.0,32995,11581934375221,45,36.590389251708984,-318.5549518062735,0.15,16,-264517.9161522481,340282346638528860000000000000000000000,1602000000,,,,0,,3,,32.39038848876953,50.29141902923584,2.0000000474974513,50.29141902923584,2.0000000474974513,C,120286573051000
Raw,1676592782000,741697000000,,,-1360627258303384721,0.0,7.7644896058117245,285.0,1.0,15,24,0.0,32995,11581931715965,33,44.994712829589844,638.0720513601859,0.15,16,454104.86513737694,340282346638528860000000000000000000000,1603124990,,,,0,,3,,40.79471206665039,50.29141902923584,2.0000000474974513,50.29141902923584,2.0000000474974513,C,120286573051000
Raw,1676592782000,741697000000,,,-1360627258303384721,0.0,7.7644896058117245,285.0,1.0,15,17,0.0,32995,11581936271709,33,40.27425003051758,-44.627751764171734,0.15,16,-68318.82320939304,340282346638528860000000000000000000000,1604249980,,,,0,,3,,36.074249267578125,50.29141902923584,2.0000000474974513,50.29141902923584,2.0000000474974513,C,120286573051000
Raw,1676592782000,741697000000,,,-1360627258303384721,0.0,7.7644896058117245,285.0,1.0,15,2,0.0,85026,432799922626485,17,40.02970886230469,71.47674794901292,0.15,16,39996.828301229485,340282346638528860000000000000000000000,1575420030,,,,0,,6,,35.829708099365234,-5.5588316172361365,1.5000000237487257,-5.5588316172361365,1.5000000237487257,C,120286573051000
Raw,1676592782000,741697000000,,,-1360627258303384721,0.0,7.7644896058117245,285.0,1.0,15,11,0.0,85026,432799912920711,15,41.74718475341797,572.157125764375,0.15,16,414418.014100878,340282346638528860000000000000000000000,1575420030,,,,0,,6,,37.547183990478516,-5.5588316172361365,1.5000000237487257,-5.5588316172361365,1.5000000237487257,C,120286573051000
Raw,1676592782000,741697000000,,,-1360627258303384721,0.0,7.7644896058117245,285.0,1.0,15,25,0.0,85026,432799914524963,21,37.1368522644043,452.7061931941205,0.15,16,324957.04309224675,340282346638528860000000000000000000000,1575420030,,,,0,,6,,32.936851501464844,-5.5588316172361365,1.5000000237487257,-5.5588316172361365,1.5000000237487257,C,120286573051000
Raw,1676592782000,741697000000,,,-1360627258303384721,0.0,7.7644896058117245,285.0,1.0,15,30,0.0,85026,432799914409093,28,33.7514762878418,-320.669188831753,0.6209072699335785,16,-240606.2958167169,340282346638528860000000000000000000000,1575420030,,,,0,,6,,29.551477432250977,-5.5588316172361365,1.5000000237487257,-5.5588316172361365,1.5000000237487257,C,120286573051000
Raw,1676592782000,741697000000,,,-1360627258303384721,0.0,7.7644896058117245,285.0,1.0,15,34,0.0,85026,432799918223017,21,37.16453170776367,-345.40978035148714,0.15,16,-271318.3411258678,340282346638528860000000000000000000000,1575420030,,,,0,,6,,32.96453094482422,-5.5588316172361365,1.5000000237487257,-5.5588316172361365,1.5000000237487257,C,120286573051000
Raw,1676592782000,741697000000,,,-1360627258303384721,0.0,7.7644896058117245,285.0,1.0,15,36,0.0,85026,432799921913036,16,40.39588928222656,168.1562455282093,0.15,16,102159.60294745595,340282346638528860000000000000000000000,1575420030,,,,0,,6,,36.19588851928711,-5.5588316172361365,1.5000000237487257,-5.5588316172361365,1.5000000237487257,C,120286573051000
Raw,1676592782000,741697000000,,,-1360627258303384721,0.0,7.7644896058117245,285.0,1.0,15,2,0.0,84003,432799922627036,11,31.758127212524414,71.33602148603023,0.7089663524938361,16,39961.04970154487,340282346638528860000000000000000000000,1176450050,,,,0,,6,,27.658126831054688,-3.896490670740604,1.8798503924935328,-3.896490670740604,1.5000000237487257,Q,120286573051000
Raw,1676592782000,741697000000,,,-1360627258303384721,0.0,7.7644896058117245,285.0,1.0,15,11,0.0,84003,432799912921256,8,34.04719924926758,572.1673505013318,0.6042834851972798,16,415673.1457992616,340282346638528860000000000000000000000,1176450050,,,,0,,6,,29.94719886779785,4.599918611347673,1.8798503924935328,4.599918611347673,1.5000000237487257,Q,120286573051000
Raw,1676592782000,741697000000,,,-1360627258303384721,0.0,7.7644896058117245,285.0,1.0,15,25,0.0,84003,432799914525489,10,35.63373947143555,452.66686203929316,0.5332271882838924,16,324621.3990809608,340282346638528860000000000000000000000,1176450050,,,,0,,6,,31.53373908996582,-8.329399861395357,1.8798503924935328,-8.329399861395357,1.5000000237487257,Q,120286573051000
Raw,1676592782000,741697000000,,,-1360627258303384721,0.0,7.7644896058117245,285.0,1.0,15,30,0.0,84003,432799914409650,56,25.17622184753418,-321.11710047537576,1.0034690649714606,16,-240288.15445881052,340282346638528860000000000000000000000,1176450050,,,,0,,6,,21.076221466064453,-7.959990762174129,1.8798503924935328,-7.959990762174129,1.5000000237487257,Q,120286573051000
Raw,1676592782000,741697000000,,,-1360627258303384721,0.0,7.7644896058117245,285.0,1.0,15,34,0.0,84003,432799918223556,22,30.338550567626953,-345.535783193252,0.7720109755525857,16,-272421.44655707106,340282346638528860000000000000000000000,1176450050,,,,0,,6,,26.238550186157227,-9.62233170866966,1.8798503924935328,-9.62233170866966,1.5000000237487257,Q,120286573051000
Raw,1676592782000,741697000000,,,-1360627258303384721,0.0,7.7644896058117245,285.0,1.0,15,36,0.0,84003,432799921913560,36,27.15219497680664,168.00101697997616,0.9159615590415702,16,102306.910274413,340282346638528860000000000000000000000,1176450050,,,,0,,6,,23.052194595336914,-10.545854456722733,1.8798503924935328,-10.545854456722733,1.5000000237487257,Q,120286573051000
UncalGyro,1676592783081,120286712204540,-1.1258247,-2.565634,2.1138992,0.0006379188,-0.0009500619,-0.0033521333
UncalAccel,1676592783082,120286712204540,6.626922,-5.750551,4.666602,0.006110925,-0.043260336,-0.038735468
UncalMag,1676592783087,120286717875988,-89.4626,-20.7888,-91.4634,-48.275375,2.3914185,-62.760414
OrientationDeg,1676592783082,120286712204540,133.0,-37.0,-6.0
Fix,FLP,37.4308045000,-122.1550706000,-16.100000381469727,0.094314806,3.722,,1676592782928,,,120286559538341,2.9007096
UncalGyro,1676592783091,120286721186351,-1.1281154,-2.9072604,2.4231498,0.0006379188,-0.0009500619,-0.0033521333
UncalAccel,1676592783090,120286721186351,6.2518473,-6.6305118,5.022535,0.006110925,-0.043260336,-0.038735468
OrientationDeg,1676592783090,120286721186351,133.0,-38.0,-5.0
UncalMag,1676592783097,120286727876232,-89.9262,-19.239399,-92.2564,-48.275375,2.3914185,-62.760414
UncalGyro,1676592783099,120286730153575,-1.1042917,-3.1789427,2.8226557,0.0006379188,-0.0009500619,-0.0033521333
UncalAccel,1676592783099,120286730153575,6.1453667,-7.420741,5.0416775,0.006110925,-0.043260336,-0.038735468
OrientationDeg,1676592783099,120286730153575,132.0,-40.0,-4.0
UncalMag,1676592783106,120286737876232,-93.086,-18.2878,-90.987595,-48.275375,2.3914185,-62.760414
UncalGyro,1676592783108,120286739142284,-1.0816896,-3.365562,3.2438471,0.0006379188,-0.0009500619,-0.0033521333
UncalAccel,1676592783109,120286739142284,6.843473,-8.230113,5.355137,0.006110925,-0.043260336,-0.038735468
OrientationDeg,1676592783109,120286739142284,132.0,-42.0,-2.0
UncalMag,1676592783116,120286747875988,-94.074196,-17.409399,-89.0478,-48.275375,2.3914185,-62.760414
UncalGyro,1676592783118,120286748127087,-1.0709995,-3.41886,3.5628715,0.0006379188,-0.0009500619,-0.0033521333
UncalAccel,1676592783118,120286748127087,8.09133,-8.367103,5.3407803,0.006110925,-0.043260336,-0.038735468
OrientationDeg,1676592783118,120286748127087,131.0,-44.0,0.0
UncalGyro,1676592783126,120286757110485,-1.081995,-3.4574974,3.756974,0.0006379188,-0.0009500619,-0.0033521333
UncalAccel,1676592783126,120286757110485,9.089137,-8.3013,5.1266227,0.006110925,-0.043260336,-0.038735468
UncalMag,1676592783126,120286757864513,-95.1112,-15.6282,-88.3036,-48.275375,2.3914185,-62.760414
OrientationDeg,1676592783127,120286757110485,130.0,-46.0,1.0
UncalGyro,1676592783136,120286766084239,-1.1230757,-3.498578,3.9190059,0.0006379188,-0.0009500619,-0.0033521333
UncalAccel,1676592783135,120286766084239,9.75135,-8.4682,5.000401,0.006110925,-0.043260336,-0.038735468
OrientationDeg,1676592783135,120286766084239,129.0,-47.0,3.0
UncalMag,1676592783136,120286767875988,-99.234795,-15.1768,-88.2548,-48.275375,2.3914185,-62.760414
UncalGyro,1676592783144,120286775067149,-1.0823005,-3.6679404,3.9342775,0.0006379188,-0.0009500619,-0.0033521333
UncalAccel,1676592783144,120286775067149,11.002198,-8.255239,4.8735814,0.006110925,-0.043260336,-0.038735468
OrientationDeg,1676592783145,120286775067149,128.0,-49.0,4.0
UncalMag,1676592783147,120286777875988,-97.038795,-12.4928,-85.2658,-48.275375,2.3914185,-62.760414
UncalGyro,1676592783153,120286784047496,-0.9796751,-3.930307,3.9907827,0.0006379188,-0.0009500619,-0.0033521333
UncalAccel,1676592783153,120286784047496,10.407582,-8.165507,4.718646,0.006110925,-0.043260336,-0.038735468
OrientationDeg,1676592783153,120286784047496,128.0,-51.0,6.0
UncalMag,1676592783156,120286787876232,-95.587,-9.4916,-83.4114,-48.275375,2.3914185,-62.760414
UncalGyro,1676592783163,120286793029186,-0.8904888,-4.0996695,4.196186,0.0006379188,-0.0009500619,-0.0033521333
UncalAccel,1676592783163,120286793029186,10.136595,-8.298309,5.359923,0.006110925,-0.043260336,-0.038735468
OrientationDeg,1676592783163,120286793029186,127.0,-53.0,8.0
UncalMag,1676592783167,120286797864513,-95.282,-7.7348,-79.5074,-48.275375,2.3914185,-62.760414
UncalGyro,1676592783171,120286802008312,-0.96593064,-4.0921865,4.369061,0.0006379188,-0.0009500619,-0.0033521333
UncalAccel,1676592783172,120286802008312,11.903694,-8.448459,4.471587,0.006110925,-0.043260336,-0.038735468
OrientationDeg,1676592783172,120286802008312,127.0,-55.0,11.0
UncalMag,1676592783177,120286807864513,-98.148994,-6.8441997,-78.1532,-48.275375,2.3914185,-62.760414
UncalGyro,1676592783179,120286810976268,-1.1391109,-3.9935315,4.5407143,0.0006379188,-0.0009500619,-0.0033521333
UncalAccel,1676592783179,120286810976268,10.22154,-9.396614,5.788238,0.006110925,-0.043260336,-0.038735468
OrientationDeg,1676592783180,120286810976268,126.0,-57.0,13.0
UncalMag,1676592783187,120286817864513,-100.1254,-5.1972,-77.3968,-48.275375,2.3914185,-62.760414
UncalGyro,1676592783189,120286819969005,-1.2916746,-3.8496728,4.831028,0.0006379188,-0.0009500619,-0.0033521333
UncalAccel,1676592783188,120286819969005,9.49472,-10.336994,5.832505,0.006110925,-0.043260336,-0.038735468
OrientationDeg,1676592783188,120286819969005,126.0,-59.0,15.0
UncalMag,1676592783197,120286827881847,-98.8322,-2.3302,-74.468796,-48.275375,2.3914185,-62.760414
UncalGyro,1676592783197,120286828946544,-1.4014776,-3.6766453,5.1844134,0.0006379188,-0.0009500619,-0.0033521333
UncalAccel,1676592783197,120286828946544,9.753743,-11.383256,6.7244296,0.006110925,-0.043260336,-0.038735468
OrientationDeg,1676592783198,120286828946544,125.0,-60.0,18.0
UncalMag,1676592783207,120286837875988,-102.5898,-1.7567999,-72.6266,-48.275375,2.3914185,-62.760414
UncalGyro,1676592783207,120286837927073,-1.4401149,-3.464675,5.48221,0.0006379188,-0.0009500619,-0.0033521333
UncalAccel,1676592783207,120286837927073,11.15175,-12.019148,7.408777,0.006110925,-0.043260336,-0.038735468
OrientationDeg,1676592783207,120286837927073,125.0,-62.0,21.0
UncalGyro,1676592783216,120286846913768,-1.3753631,-3.3006577,5.7097573,0.0006379188,-0.0009500619,-0.0033521333
UncalAccel,1676592783215,120286846913768,11.853445,-12.421741,7.576873,0.006110925,-0.043260336,-0.038735468
UncalMag,1676592783216,120286847864269,-99.0884,3.1109998,-72.1752,-48.275375,2.3914185,-62.760414
OrientationDeg,1676592783216,120286846913768,125.0,-63.0,24.0
UncalGyro,1676592783225,120286855881420,-1.1837041,-3.2986724,5.935167,0.0006379188,-0.0009500619,-0.0033521333
UncalAccel,1676592783225,120286855881420,12.351152,-12.808182,7.5774713,0.006110925,-0.043260336,-0.038735468
OrientationDeg,1676592783225,120286855881420,124.0,-65.0,27.0
UncalMag,1676592783227,120286857875744,-99.9302,5.3192,-68.551796,-48.275375,2.3914185,-62.760414
UncalGyro,1676592783233,120286864872081,-0.9109528,-3.4309247,6.169892,0.0006379188,-0.0009500619,-0.0033521333
UncalAccel,1676592783234,120286864872081,12.908082,-12.95534,7.4883385,0.006110925,-0.043260336,-0.038735468
OrientationDeg,1676592783234,120286864872081,123.0,-66.0,30.0
UncalMag,1676592783236,120286867876232,-97.844,8.8328,-67.624596,-48.275375,2.3914185,-62.760414
UncalGyro,1676592783242,120286873851024,-0.57635134,-3.588986,6.4020205,0.0006379188,-0.0009500619,-0.0033521333
UncalAccel,1676592783243,120286873851024,13.01217,-13.214363,8.240283,0.006110925,-0.043260336,-0.038735468
OrientationDeg,1676592783242,120286873851024,122.0,-67.0,33.0
UncalMag,1676592783246,120286877876232,-96.416595,11.565599,-64.0866,-48.275375,2.3914185,-62.760414
UncalGyro,1676592783252,120286882831188,-0.19318613,-3.6325102,6.682713,0.0006379188,-0.0009500619,-0.0033521333
UncalAccel,1676592783251,120286882831188,13.051651,-13.823337,9.023932,0.006110925,-0.043260336,-0.038735468
OrientationDeg,1676592783251,120286882831188,121.0,-68.0,37.0
UncalMag,1676592783256,120286887864269,-95.3796,14.310599,-60.438797,-48.275375,2.3914185,-62.760414
UncalGyro,1676592783261,120286891811717,0.19715676,-3.5996761,7.0222015,0.0006379188,-0.0009500619,-0.0033521333
UncalAccel,1676592783260,120286891811717,13.383656,-14.913865,9.520443,0.006110925,-0.043260336,-0.038735468
OrientationDeg,1676592783261,120286891811717,119.0,-69.0,40.0
UncalMag,1676592783267,120286897875988,-95.940796,17.1166,-60.670597,-48.275375,2.3914185,-62.760414
UncalGyro,1676592783270,120286900793468,0.6203337,-3.5818083,7.402465,0.0006379188,-0.0009500619,-0.0033521333
UncalAccel,1676592783269,120286900793468,14.431711,-16.01277,9.924232,0.006110925,-0.043260336,-0.038735468
OrientationDeg,1676592783270,120286900793468,118.0,-69.0,43.0
UncalMag,1676592783276,120286907876232,-94.403595,20.191,-57.620598,-48.275375,2.3914185,-62.760414
UncalGyro,1676592783279,120286909772594,1.1542299,-3.5877643,7.7877684,0.0006379188,-0.0009500619,-0.0033521333
UncalAccel,1676592783278,120286909772594,15.511473,-16.508083,10.670195,0.006110925,-0.043260336,-0.038735468
OrientationDeg,1676592783278,120286909772594,115.0,-69.0,47.0
UncalMag,1676592783287,120286917859142,-93.476395,22.875,-58.194,-48.275375,2.3914185,-62.760414
UncalGyro,1676592783288,120286918752879,1.8449658,-3.6086864,8.105418,0.0006379188,-0.0009500619,-0.0033521333
UncalAccel,1676592783288,120286918752879,16.737196,-16.217953,11.010573,0.006110925,-0.043260336,-0.038735468
OrientationDeg,1676592783287,120286918752879,112.0,-68.0,51.0
UncalGyro,1676592783296,120286927730540,2.6481009,-3.6383133,8.262564,0.0006379188,-0.0009500619,-0.0033521333
UncalAccel,1676592783296,120286927730540,18.180666,-15.330216,10.583454,0.006110925,-0.043260336,-0.038735468
UncalMag,1676592783297,120286927864513,-90.6094,26.535,-56.998398,-48.275375,2.3914185,-62.760414
OrientationDeg,1676592783297,120286927730540,107.0,-66.0,54.0
UncalGyro,1676592783305,120286936700267,3.438255,-3.6279287,8.218886,0.0006379188,-0.0009500619,-0.0033521333
UncalAccel,1676592783305,120286936700267,20.234905,-14.1009035,9.612567,0.006110925,-0.043260336,-0.038735468
UncalMag,1676592783306,120286937864269,-87.5228,30.6708,-56.5958,-48.275375,2.3914185,-62.760414
OrientationDeg,1676592783306,120286936700267,101.0,-63.0,57.0
UncalGyro,1676592783315,120286945684886,4.1092906,-3.5401168,7.9491897,0.0006379188,-0.0009500619,-0.0033521333
UncalAccel,1676592783315,120286945684886,22.387249,-12.19203,8.236095,0.006110925,-0.043260336,-0.038735468
OrientationDeg,1676592783314,120286945684886,94.0,-58.0,59.0
UncalMag,1676592783317,120286947864513,-83.1552,34.208797,-55.4246,-48.275375,2.3914185,-62.760414
UncalGyro,1676592783323,120286954665110,4.6240973,-3.4794884,7.4711876,0.0006379188,-0.0009500619,-0.0033521333
UncalAccel,1676592783323,120286954665110,23.738596,-10.455439,6.5922265,0.006110925,-0.043260336,-0.038735468
OrientationDeg,1676592783324,120286954665110,86.0,-53.0,61.0
UncalMag,1676592783327,120286957875988,-81.557,36.8684,-57.0228,-48.275375,2.3914185,-62.760414
UncalGyro,1676592783333,120286963654857,4.972443,-3.3956473,6.83772,0.0006379188,-0.0009500619,-0.0033521333
UncalAccel,1676592783333,120286963654857,23.90011,-9.108877,5.7900324,0.006110925,-0.043260336,-0.038735468
OrientationDeg,1676592783332,120286963654857,77.0,-47.0,62.0
UncalMag,1676592783337,120286967876232,-78.055595,39.100998,-54.045998,-48.275375,2.3914185,-62.760414
UncalGyro,1676592783342,120286972622631,5.164713,-3.1607695,6.1485114,0.0006379188,-0.0009500619,-0.0033521333
UncalAccel,1676592783342,120286972622631,23.032713,-8.169097,5.328816,0.006110925,-0.043260336,-0.038735468
OrientationDeg,1676592783342,120286972622631,68.0,-40.0,62.0
UncalMag,1676592783347,120286977875744,-76.128,41.48,-56.913,-48.275375,2.3914185,-62.760414
UncalGyro,1676592783350,120286981615123,5.2369475,-2.7768407,5.484959,0.0006379188,-0.0009500619,-0.0033521333
UncalAccel,1676592783350,120286981615123,22.007387,-7.731808,5.0596237,0.006110925,-0.043260336,-0.038735468
OrientationDeg,1676592783350,120286981615123,60.0,-34.0,62.0
UncalMag,1676592783356,120286987875988,-72.8096,43.309998,-58.864998,-48.275375,2.3914185,-62.760414
UncalGyro,1676592783359,120286990597240,5.253594,-2.2869267,4.869665,0.0006379188,-0.0009500619,-0.0033521333
UncalAccel,1676592783359,120286990597240,21.054447,-7.768897,4.950152,0.006110925,-0.043260336,-0.038735468
OrientationDeg,1676592783360,120286990597240,53.0,-29.0,61.0
UncalMag,1676592783367,120286997876232,-71.2846,44.322598,-60.0118,-48.275375,2.3914185,-62.760414
UncalGyro,1676592783368,120286999564464,5.224425,-1.7252362,4.2949934,0.0006379188,-0.0009500619,-0.0033521333
UncalAccel,1676592783369,120286999564464,19.935802,-7.8203425,4.5302114,0.006110925,-0.043260336,-0.038735468
OrientationDeg,1676592783369,120286999564464,47.0,-24.0,60.0
UncalMag,1676592783377,120287007876232,-67.6856,47.116398,-65.135796,-48.275375,2.3914185,-62.760414
UncalGyro,1676592783378,120287008557872,5.167462,-1.1667526,3.7662897,0.0006379188,-0.0009500619,-0.0033521333
UncalAccel,1676592783377,120287008557872,18.856638,-7.929216,3.7812579,0.006110925,-0.043260336,-0.038735468
OrientationDeg,1676592783377,120287008557872,41.0,-20.0,58.0
UncalGyro,1676592783387,120287017533458,5.0955324,-0.72204274,3.281568,0.0006379188,-0.0009500619,-0.0033521333
UncalAccel,1676592783387,120287017533458,17.6692,-8.118847,2.6404798,0.006110925,-0.043260336,-0.038735468
UncalMag,1676592783386,120287017864269,-64.3306,48.7024,-65.941,-48.275375,2.3914185,-62.760414
OrientationDeg,1676592783386,120287017533458,37.0,-17.0,56.0
UncalGyro,1676592783395,120287026516735,5.0207014,-0.4700608,2.8487701,0.0006379188,-0.0009500619,-0.0033521333
UncalAccel,1676592783396,120287026516735,16.32623,-8.216953,1.2711871,0.006110925,-0.043260336,-0.038735468
UncalMag,1676592783397,120287027868908,-63.549797,48.8,-67.283,-48.275375,2.3914185,-62.760414
OrientationDeg,1676592783395,120287026516735,33.0,-14.0,54.0
UncalGyro,1676592783405,120287035501109,4.9535065,-0.4280638,2.4825563,0.0006379188,-0.0009500619,-0.0033521333
UncalAccel,1676592783404,120287035501109,15.029319,-8.310273,0.21595225,0.006110925,-0.043260336,-0.038735468
OrientationDeg,1676592783404,120287035501109,30.0,-12.0,52.0
UncalMag,1676592783407,120287037875744,-61.524597,48.7268,-68.4908,-48.275375,2.3914185,-62.760414
UncalGyro,1676592783414,120287044477306,4.9032626,-0.48380527,2.167808,0.0006379188,-0.0009500619,-0.0033521333
UncalAccel,1676592783413,120287044477306,13.8245325,-8.351549,-0.09451649,0.006110925,-0.043260336,-0.038735468
OrientationDeg,1676592783414,120287044477306,28.0,-11.0,49.0
UncalMag,1676592783417,120287047875988,-61.4026,48.751198,-71.492,-48.275375,2.3914185,-62.760414
UncalGyro,1676592783423,120287053458507,4.8727193,-0.57742035,1.8926133,0.0006379188,-0.0009500619,-0.0033521333
UncalAccel,1676592783422,120287053458507,12.491133,-8.055437,-0.0035892338,0.006110925,-0.043260336,-0.038735468
OrientationDeg,1676592783422,120287053458507,26.0,-10.0,47.0
UncalMag,1676592783427,120287057876232,-60.939,48.4706,-73.4684,-48.275375,2.3914185,-62.760414
