# 
# Header Description:
# 
# Version: v3.0.5.6 Platform: 13 Manufacturer: Google Model: Pixel 6
# 
# Raw,utcTimeMillis,TimeNanos,LeapSecond,TimeUncertaintyNanos,FullBiasNanos,BiasNanos,BiasUncertaintyNanos,DriftNanosPerSecond,DriftUncertaintyNanosPerSecond,HardwareClockDiscontinuityCount,Svid,TimeOffsetNanos,State,ReceivedSvTimeNanos,ReceivedSvTimeUncertaintyNanos,Cn0DbHz,PseudorangeRateMetersPerSecond,PseudorangeRateUncertaintyMetersPerSecond,AccumulatedDeltaRangeState,AccumulatedDeltaRangeMeters,AccumulatedDeltaRangeUncertaintyMeters,CarrierFrequencyHz,CarrierCycles,CarrierPhase,CarrierPhaseUncertainty,MultipathIndicator,SnrInDb,ConstellationType,AgcDb,BasebandCn0DbHz,FullInterSignalBiasNanos,FullInterSignalBiasUncertaintyNanos,SatelliteInterSignalBiasNanos,SatelliteInterSignalBiasUncertaintyNanos,CodeType,ChipsetElapsedRealtimeNanos
# 
# UncalAccel,utcTimeMillis,elapsedRealtimeNanos,UncalAccelXMps2,UncalAccelYMps2,UncalAccelZMps2,BiasXMps2,BiasYMps2,BiasZMps2
# 
# Accel,utcTimeMillis,elapsedRealtimeNanos,AccelXMps2,AccelYMps2,AccelZMps2
# 
# UncalGyro,utcTimeMillis,elapsedRealtimeNanos,UncalGyroXRadPerSec,UncalGyroYRadPerSec,UncalGyroZRadPerSec,DriftXRadPerSec,DriftYRadPerSec,DriftZRadPerSec
# 
# Gyro,utcTimeMillis,elapsedRealtimeNanos,GyroXRadPerSec,GyroYRadPerSec,GyroZRadPerSec
# 
# UncalMag,utcTimeMillis,elapsedRealtimeNanos,UncalMagXMicroT,UncalMagYMicroT,UncalMagZMicroT,BiasXMicroT,BiasYMicroT,BiasZMicroT
# 
# Mag,utcTimeMillis,elapsedRealtimeNanos,MagXMicroT,MagYMicroT,MagZMicroT
# 
# OrientationDeg,utcTimeMillis,elapsedRealtimeNanos,yawDeg,rollDeg,pitchDeg
# 
# Fix,Provider,LatitudeDegrees,LongitudeDegrees,AltitudeMeters,SpeedMps,AccuracyMeters,BearingDegrees,UnixTimeMillis,SpeedAccuracyMps,BearingAccuracyDegrees,elapsedRealtimeNanos,VerticalAccuracyMeters
# 
# Nav,Svid,Type,Status,MessageId,Sub-messageId,Data(Bytes)
# 
# Status,UnixTimeMillis,SignalCount,SignalIndex,ConstellationType,Svid,CarrierFrequencyHz,Cn0DbHz,AzimuthDegrees,ElevationDegrees,UsedInFix,HasAlmanacData,HasEphemerisData,BasebandCn0DbHz
# 
UncalAccel,1676592322367,119825998578197,0.25782663,1.7012969,10.137193,0.006110925,-0.043260336,-0.038735468
UncalGyro,1676592322376,119826007558787,0.005955936,-0.33322698,-0.069485925,0.0006130879,-0.0007338356,-0.0031132763
UncalAccel,1676592322376,119826007558787,0.43848476,1.7431713,10.342976,0.006110925,-0.043260336,-0.038735468
UncalMag,1676592322376,119826007869884,-53.2042,-33.7696,-106.933,-47.646854,1.2478232,-64.42538
UncalGyro,1676592322385,119826016527172,0.028099801,-0.26160303,-0.059406646,0.0006130879,-0.0007338356,-0.0031132763
UncalAccel,1676592322385,119826016527172,0.6095716,1.7084754,10.453046,0.006110925,-0.043260336,-0.038735468
UncalMag,1676592322386,119826017858410,-50.2518,-32.5008,-105.0664,-47.646854,1.2478232,-64.42538
Fix,FLP,37.4307780000,-122.1550831000,-15.80000114440918,0.19990903,6.216,218.77809,1676592321810,,,119825441805064,3.1539514
OrientationDeg,1676592322385,119826016527172,180.0,-1.0,-13.0
UncalMag,1676592322397,119826027866222,-51.7402,-32.9156,-105.9936,-47.646854,1.2478232,-64.42538
UncalGyro,1676592322394,119826025506603,0.04016439,-0.14446963,-0.048716504,0.0006130879,-0.0007338356,-0.0031132763
UncalAccel,1676592322395,119826025506603,0.62751776,1.550549,10.375877,0.006110925,-0.043260336,-0.038735468
OrientationDeg,1676592322395,119826025506603,180.0,-1.0,-13.0
UncalGyro,1676592322404,119826034486949,0.03313944,-0.023518313,-0.033444874,0.0006130879,-0.0007338356,-0.0031132763
UncalAccel,1676592322404,119826034486949,0.50428736,1.4787644,10.098908,0.006110925,-0.043260336,-0.038735468
OrientationDeg,1676592322404,119826034486949,180.0,-1.0,-13.0
UncalMag,1676592322407,119826037866466,-51.1424,-32.952198,-103.029,-47.646854,1.2478232,-64.42538
UncalGyro,1676592322412,119826043468272,0.0010690142,0.07009678,-0.014202617,0.0006130879,-0.0007338356,-0.0031132763
UncalAccel,1676592322412,119826043468272,0.31106696,1.5182459,9.75494,0.006110925,-0.043260336,-0.038735468
OrientationDeg,1676592322412,119826043468272,180.0,-1.0,-13.0
UncalMag,1676592322417,119826047869152,-50.385998,-31.9518,-103.1754,-47.646854,1.2478232,-64.42538
UncalGyro,1676592322421,119826052445812,-0.06169739,0.13881913,0.019547688,0.0006130879,-0.0007338356,-0.0031132763
UncalAccel,1676592322421,119826052445812,0.14057833,1.4668003,9.401401,0.006110925,-0.043260336,-0.038735468
OrientationDeg,1676592322422,119826052445812,180.0,-1.0,-13.0
UncalMag,1676592322427,119826057865001,-51.057,-32.415398,-103.7732,-47.646854,1.2478232,-64.42538
UncalGyro,1676592322431,119826061428905,-0.15424347,0.17348573,0.064599,0.0006130879,-0.0007338356,-0.0031132763
UncalAccel,1676592322430,119826061428905,0.023330022,1.4189439,9.028718,0.006110925,-0.043260336,-0.038735468
OrientationDeg,1676592322430,119826061428905,180.0,-1.0,-12.0
UncalMag,1676592322437,119826067865490,-50.9106,-32.1592,-104.2246,-47.646854,1.2478232,-64.42538
UncalGyro,1676592322440,119826070411021,-0.2667954,0.17486018,0.11056661,0.0006130879,-0.0007338356,-0.0031132763
UncalAccel,1676592322440,119826070411021,0.023928227,1.4668003,8.895318,0.006110925,-0.043260336,-0.038735468
OrientationDeg,1676592322439,119826070411021,180.0,-1.0,-12.0
UncalMag,1676592322446,119826077865734,-50.9472,-31.8786,-103.761,-47.646854,1.2478232,-64.42538
UncalGyro,1676592322448,119826079386608,-0.36560285,0.15103643,0.15057829,0.0006130879,-0.0007338356,-0.0031132763
UncalAccel,1676592322449,119826079386608,0.15792629,1.5810575,9.020942,0.006110925,-0.043260336,-0.038735468
OrientationDeg,1676592322449,119826079386608,180.0,-1.0,-12.0
UncalMag,1676592322456,119826087865246,-50.690998,-31.8298,-103.7122,-47.646854,1.2478232,-64.42538
UncalGyro,1676592322458,119826088368969,-0.41996986,0.11148291,0.17012598,0.0006130879,-0.0007338356,-0.0031132763
UncalAccel,1676592322458,119826088368969,0.39541394,1.7096717,9.322437,0.006110925,-0.043260336,-0.038735468
OrientationDeg,1676592322457,119826088368969,180.0,-1.0,-12.0
UncalGyro,1676592322466,119826097349498,-0.4195117,0.08597928,0.15699236,0.0006130879,-0.0007338356,-0.0031132763
UncalAccel,1676592322467,119826097349498,0.6753742,1.8711873,9.829716,0.006110925,-0.043260336,-0.038735468
UncalMag,1676592322466,119826097864513,-50.6422,-31.0002,-103.7732,-47.646854,1.2478232,-64.42538
OrientationDeg,1676592322466,119826097349498,179.0,-1.0,-12.0
UncalGyro,1676592322476,119826106330883,-0.36361754,0.11209377,0.0917825,0.0006130879,-0.0007338356,-0.0031132763
UncalAccel,1676592322476,119826106330883,0.9062816,1.7880367,10.331012,0.006110925,-0.043260336,-0.038735468
UncalMag,1676592322477,119826107865246,-50.4348,-30.7806,-104.31,-47.646854,1.2478232,-64.42538
OrientationDeg,1676592322476,119826106330883,179.0,-1.0,-12.0
UncalGyro,1676592322484,119826115309459,-0.2910773,0.19165897,0.04230242,0.0006130879,-0.0007338356,-0.0031132763
UncalAccel,1676592322484,119826115309459,0.8111669,1.3429717,10.576276,0.006110925,-0.043260336,-0.038735468
OrientationDeg,1676592322485,119826115309459,179.0,-1.0,-11.0
UncalMag,1676592322487,119826117866955,-47.1774,-28.9628,-101.8456,-47.646854,1.2478232,-64.42538
UncalGyro,1676592322494,119826124287181,-0.22571471,0.32559118,0.052687127,0.0006130879,-0.0007338356,-0.0031132763
UncalAccel,1676592322494,119826124287181,0.5072784,0.8751749,10.562517,0.006110925,-0.043260336,-0.038735468
OrientationDeg,1676592322494,119826124287181,179.0,0.0,-11.0
UncalMag,1676592322497,119826127875499,-54.350998,-31.658998,-111.373795,-47.646854,1.2478232,-64.42538
UncalGyro,1676592322502,119826133279613,-0.1881465,0.45173484,0.11804971,0.0006130879,-0.0007338356,-0.0031132763
UncalAccel,1676592322502,119826133279613,0.03888337,0.64247286,10.363914,0.006110925,-0.043260336,-0.038735468
UncalMag,1676592322506,119826137862560,-50.8252,-29.511799,-105.0176,-47.646854,1.2478232,-64.42538
OrientationDeg,1676592322503,119826133279613,179.0,0.0,-11.0
UncalGyro,1676592322511,119826142249766,-0.18127427,0.5390886,0.2209805,0.0006130879,-0.0007338356,-0.0031132763
UncalAccel,1676592322512,119826142249766,-0.34157544,0.47258246,9.961321,0.006110925,-0.043260336,-0.038735468
OrientationDeg,1676592322512,119826142249766,179.0,0.0,-11.0
UncalMag,1676592322516,119826147875988,-49.775997,-28.9628,-103.895195,-47.646854,1.2478232,-64.42538
UncalGyro,1676592322520,119826151242564,-0.21548271,0.5635232,0.34223726,0.0006130879,-0.0007338356,-0.0031132763
UncalAccel,1676592322521,119826151242564,-0.43489552,0.4534399,9.531809,0.006110925,-0.043260336,-0.038735468
OrientationDeg,1676592322521,119826151242564,179.0,0.0,-11.0
UncalMag,1676592322527,119826157876232,-45.689,-26.6082,-101.564995,-47.646854,1.2478232,-64.42538
UncalGyro,1676592322530,119826160222423,-0.24877487,0.54061574,0.44165558,0.0006130879,-0.0007338356,-0.0031132763
UncalAccel,1676592322529,119826160222423,-0.30029923,0.5629115,9.437292,0.006110925,-0.043260336,-0.038735468
OrientationDeg,1676592322529,119826160222423,179.0,0.0,-11.0
UncalMag,1676592322537,119826167875988,-49.5442,-28.535799,-105.773994,-47.646854,1.2478232,-64.42538
UncalGyro,1676592322539,119826169200267,-0.26236662,0.5149594,0.50594914,0.0006130879,-0.0007338356,-0.0031132763
UncalAccel,1676592322539,119826169200267,-0.066400826,0.68135625,9.5868435,0.006110925,-0.043260336,-0.038735468
OrientationDeg,1676592322538,119826169200267,178.0,0.0,-11.0
UncalMag,1676592322547,119826177876232,-47.518997,-26.9132,-104.1148,-47.646854,1.2478232,-64.42538
UncalGyro,1676592322548,119826178178172,-0.25900686,0.5009095,0.53038377,0.0006130879,-0.0007338356,-0.0031132763
UncalAccel,1676592322548,119826178178172,0.29312077,0.91405827,9.618548,0.006110925,-0.043260336,-0.038735468
OrientationDeg,1676592322548,119826178178172,178.0,0.0,-10.0
UncalGyro,1676592322556,119826187160472,-0.24694228,0.4644103,0.51083606,0.0006130879,-0.0007338356,-0.0031132763
UncalAccel,1676592322557,119826187160472,0.7304091,1.2711871,9.440882,0.006110925,-0.043260336,-0.038735468
UncalMag,1676592322556,119826187864513,-48.0802,-26.6448,-104.3222,-47.646854,1.2478232,-64.42538
OrientationDeg,1676592322556,119826187160472,178.0,0.0,-10.0
UncalGyro,1676592322566,119826196143260,-0.22739458,0.35842517,0.4503604,0.0006130879,-0.0007338356,-0.0031132763
UncalAccel,1676592322565,119826196143260,1.1449656,1.666601,9.040084,0.006110925,-0.043260336,-0.038735468
OrientationDeg,1676592322565,119826196143260,178.0,0.0,-10.0
UncalMag,1676592322567,119826197864269,-48.2388,-26.522799,-105.2494,-47.646854,1.2478232,-64.42538
UncalGyro,1676592322575,119826205120738,-0.18753563,0.14614952,0.3539964,0.0006130879,-0.0007338356,-0.0031132763
UncalAccel,1676592322575,119826205120738,1.3298112,1.9292133,8.755937,0.006110925,-0.043260336,-0.038735468
OrientationDeg,1676592322574,119826205120738,178.0,0.0,-10.0
UncalMag,1676592322576,119826207864025,-49.300198,-26.437399,-102.2848,-47.646854,1.2478232,-64.42538
UncalGyro,1676592322583,119826214102550,-0.10415252,-0.09972375,0.2359467,0.0006130879,-0.0007338356,-0.0031132763
UncalAccel,1676592322584,119826214102550,1.2382857,1.9585253,8.956335,0.006110925,-0.043260336,-0.038735468
OrientationDeg,1676592322584,119826214102550,177.0,0.0,-10.0
UncalMag,1676592322586,119826217875744,-48.8488,-26.6936,-101.0404,-47.646854,1.2478232,-64.42538
UncalGyro,1676592322592,119826223080699,0.039095376,-0.35140023,0.13041973,0.0006130879,-0.0007338356,-0.0031132763
UncalAccel,1676592322593,119826223080699,1.1108679,1.7198412,9.302098,0.006110925,-0.043260336,-0.038735468
OrientationDeg,1676592322593,119826223080699,177.0,0.0,-10.0
UncalMag,1676592322597,119826227864269,-52.252598,-27.7306,-102.199394,-47.646854,1.2478232,-64.42538
UncalGyro,1676592322601,119826232060863,0.24373524,-0.54382277,0.056505036,0.0006130879,-0.0007338356,-0.0031132763
UncalAccel,1676592322601,119826232060863,1.0426725,1.3752748,10.091131,0.006110925,-0.043260336,-0.038735468
OrientationDeg,1676592322601,119826232060863,177.0,0.0,-10.0
UncalMag,1676592322607,119826237876232,-50.2152,-26.9986,-102.0652,-47.646854,1.2478232,-64.42538
UncalGyro,1676592322611,119826241039135,0.4905248,-0.5516113,0.014660766,0.0006130879,-0.0007338356,-0.0031132763
UncalAccel,1676592322611,119826241039135,0.9625129,1.0019945,11.180464,0.006110925,-0.043260336,-0.038735468
OrientationDeg,1676592322611,119826241039135,177.0,0.0,-10.0
UncalMag,1676592322616,119826247875988,-49.0562,-26.2788,-101.723595,-47.646854,1.2478232,-64.42538
UncalGyro,1676592322619,119826250022350,0.7652614,-0.3837761,0.016340645,0.0006130879,-0.0007338356,-0.0031132763
UncalAccel,1676592322619,119826250022350,0.95712906,0.6329016,11.783455,0.006110925,-0.043260336,-0.038735468
OrientationDeg,1676592322620,119826250022350,177.0,0.0,-11.0
UncalMag,1676592322627,119826257875988,-48.287598,-26.0958,-100.3816,-47.646854,1.2478232,-64.42538
UncalGyro,1676592322628,119826259003734,1.0386237,-0.1957823,0.0580322,0.0006130879,-0.0007338356,-0.0031132763
UncalAccel,1676592322628,119826259003734,0.9320044,0.44147578,11.711072,0.006110925,-0.043260336,-0.038735468
OrientationDeg,1676592322629,119826259003734,177.0,0.0,-11.0
UncalMag,1676592322636,119826267876232,-49.0806,-27.0474,-99.7228,-47.646854,1.2478232,-64.42538
UncalGyro,1676592322636,119826267967296,1.2660183,-0.05299256,0.108123146,0.0006130879,-0.0007338356,-0.0031132763
UncalAccel,1676592322636,119826267967296,0.90508515,0.54675996,11.472986,0.006110925,-0.043260336,-0.038735468
OrientationDeg,1676592322637,119826267967296,177.0,0.0,-12.0
UncalGyro,1676592322645,119826276962047,1.3927728,0.03940081,0.13820826,0.0006130879,-0.0007338356,-0.0031132763
UncalAccel,1676592322646,119826276962047,1.1252248,0.7896315,10.750952,0.006110925,-0.043260336,-0.038735468
UncalMag,1676592322647,119826277864513,-46.36,-26.3032,-98.771194,-47.646854,1.2478232,-64.42538
OrientationDeg,1676592322646,119826276962047,177.0,0.0,-13.0
UncalGyro,1676592322654,119826285946544,1.385137,-0.020616703,0.12370021,0.0006130879,-0.0007338356,-0.0031132763
UncalAccel,1676592322655,119826285946544,1.378864,1.2000005,9.3104725,0.006110925,-0.043260336,-0.038735468
OrientationDeg,1676592322655,119826285946544,177.0,0.0,-13.0
UncalMag,1676592322656,119826287875988,-49.9102,-28.3162,-101.1624,-47.646854,1.2478232,-64.42538
UncalGyro,1676592322664,119826294922435,1.2319624,-0.30695978,0.052381694,0.0006130879,-0.0007338356,-0.0031132763
UncalAccel,1676592322664,119826294922435,1.5397813,1.8987048,7.6941214,0.006110925,-0.043260336,-0.038735468
OrientationDeg,1676592322664,119826294922435,177.0,0.0,-14.0
UncalMag,1676592322666,119826297875988,-48.7146,-27.645199,-99.2714,-47.646854,1.2478232,-64.42538
UncalGyro,1676592322672,119826303902355,1.0259482,-0.6301075,-0.07422013,0.0006130879,-0.0007338356,-0.0031132763
UncalAccel,1676592322673,119826303902355,1.5302101,2.498107,7.5924263,0.006110925,-0.043260336,-0.038735468
OrientationDeg,1676592322672,119826303902355,177.0,-1.0,-15.0
UncalMag,1676592322677,119826307864269,-50.690998,-28.8774,-101.3332,-47.646854,1.2478232,-64.42538
Fix,FLP,37.4307787000,-122.1550812000,-15.0,0.23210485,6.498,222.28043,1676592322350,,,119825980619640,2.881417
UncalGyro,1676592322681,119826312882701,0.8596401,-0.81016004,-0.19074267,0.0006130879,-0.0007338356,-0.0031132763
UncalAccel,1676592322681,119826312882701,1.4386846,2.5992036,7.98784,0.006110925,-0.043260336,-0.038735468
OrientationDeg,1676592322682,119826312882701,177.0,-1.0,-15.0
UncalMag,1676592322687,119826317864513,-52.6308,-29.8168,-101.406395,-47.646854,1.2478232,-64.42538
Fix,NLP,37.4318848000,-122.1561056000,-15.0,,87.6,,1676592322651,,,119826282000000,9.585216
UncalGyro,1676592322691,119826321863902,0.7136433,-0.9744828,-0.29245174,0.0006130879,-0.0007338356,-0.0031132763
UncalAccel,1676592322691,119826321863902,2.1888344,1.9764715,7.6977105,0.006110925,-0.043260336,-0.038735468
OrientationDeg,1676592322690,119826321863902,177.0,-1.0,-15.0
UncalMag,1676592322697,119826327876232,-54.277798,-30.622,-100.9794,-47.646854,1.2478232,-64.42538
UncalGyro,1676592322700,119826330843090,0.6049093,-1.2118039,-0.39278635,0.0006130879,-0.0007338356,-0.0031132763
UncalAccel,1676592322699,119826330843090,2.4179473,1.7258233,8.19781,0.006110925,-0.043260336,-0.038735468
OrientationDeg,1676592322699,119826330843090,177.0,-2.0,-16.0
UncalMag,1676592322707,119826337875988,-52.2038,-30.073,-100.589,-47.646854,1.2478232,-64.42538
UncalGyro,1676592322709,119826339824230,0.56199604,-1.3947581,-0.45341474,0.0006130879,-0.0007338356,-0.0031132763
UncalAccel,1676592322708,119826339824230,2.271985,1.8466609,8.988638,0.006110925,-0.043260336,-0.038735468
OrientationDeg,1676592322709,119826339824230,178.0,-3.0,-16.0
UncalMag,1676592322716,119826347875988,-56.0346,-31.341799,-102.1262,-47.646854,1.2478232,-64.42538
UncalGyro,1676592322718,119826348803356,0.56489766,-1.5476271,-0.50671273,0.0006130879,-0.0007338356,-0.0031132763
UncalAccel,1676592322717,119826348803356,2.617748,2.3288147,9.22134,0.006110925,-0.043260336,-0.038735468
OrientationDeg,1676592322718,119826348803356,178.0,-3.0,-16.0
UncalGyro,1676592322726,119826357783641,0.62980205,-1.6887369,-0.59895337,0.0006130879,-0.0007338356,-0.0031132763
UncalAccel,1676592322727,119826357783641,3.2715867,3.0011978,9.12802,0.006110925,-0.043260336,-0.038735468
UncalMag,1676592322727,119826357871593,-51.911,-29.463,-100.65,-47.646854,1.2478232,-64.42538
OrientationDeg,1676592322726,119826357783641,178.0,-4.0,-17.0
UncalGyro,1676592322735,119826366763317,0.7851145,-1.7909042,-0.7328856,0.0006130879,-0.0007338356,-0.0031132763
UncalAccel,1676592322735,119826366763317,3.6352959,3.3637104,9.298509,0.006110925,-0.043260336,-0.038735468
UncalMag,1676592322737,119826367876232,-50.934998,-29.0604,-99.9546,-47.646854,1.2478232,-64.42538
OrientationDeg,1676592322736,119826366763317,179.0,-5.0,-17.0
UncalGyro,1676592322744,119826375736644,1.0230466,-1.8425223,-0.8868236,0.0006130879,-0.0007338356,-0.0031132763
UncalAccel,1676592322744,119826375736644,3.7274194,3.5162528,9.304491,0.006110925,-0.043260336,-0.038735468
OrientationDeg,1676592322744,119826375736644,179.0,-6.0,-18.0
UncalMag,1676592322746,119826377875988,-49.3124,-29.1336,-99.1982,-47.646854,1.2478232,-64.42538
UncalGyro,1676592322753,119826384722911,1.29198,-1.9236146,-1.0325149,0.0006130879,-0.0007338356,-0.0031132763
UncalAccel,1676592322754,119826384722911,3.6107693,3.6029928,8.903693,0.006110925,-0.043260336,-0.038735468
OrientationDeg,1676592322754,119826384722911,179.0,-7.0,-18.0
UncalMag,1676592322756,119826387876232,-49.4954,-29.646,-99.3568,-47.646854,1.2478232,-64.42538
UncalGyro,1676592322762,119826393705394,1.5222762,-2.0767891,-1.1572843,0.0006130879,-0.0007338356,-0.0031132763
UncalAccel,1676592322763,119826393705394,3.1740792,3.4857445,8.386844,0.006110925,-0.043260336,-0.038735468
OrientationDeg,1676592322762,119826393705394,180.0,-8.0,-19.0
UncalMag,1676592322767,119826397876232,-49.617397,-30.2072,-97.526794,-47.646854,1.2478232,-64.42538
UncalGyro,1676592322772,119826402673778,1.5925257,-2.1809416,-1.3080152,0.0006130879,-0.0007338356,-0.0031132763
UncalAccel,1676592322772,119826402673778,2.7026932,3.4983068,8.236693,0.006110925,-0.043260336,-0.038735468
OrientationDeg,1676592322771,119826402673778,180.0,-9.0,-20.0
UncalMag,1676592322777,119826407864269,-49.0928,-29.9998,-96.4654,-47.646854,1.2478232,-64.42538
UncalGyro,1676592322781,119826411664256,1.5190692,-1.9973767,-1.3865114,0.0006130879,-0.0007338356,-0.0031132763
UncalAccel,1676592322780,119826411664256,1.3974084,2.992823,8.27139,0.006110925,-0.043260336,-0.038735468
OrientationDeg,1676592322780,119826411664256,181.0,-10.0,-21.0
UncalMag,1676592322787,119826417875988,-52.5454,-31.903,-99.076195,-47.646854,1.2478232,-64.42538
UncalGyro,1676592322790,119826420644664,1.2925909,-1.4544702,-1.1647673,0.0006130879,-0.0007338356,-0.0031132763
UncalAccel,1676592322790,119826420644664,-1.3992031,2.4005992,7.954939,0.006110925,-0.043260336,-0.038735468
OrientationDeg,1676592322789,119826420644664,182.0,-10.0,-22.0
UncalMag,1676592322797,119826427875744,-51.423,-31.6346,-97.5512,-47.646854,1.2478232,-64.42538
UncalGyro,1676592322798,119826429622203,0.8901834,-0.8686504,-0.52778757,0.0006130879,-0.0007338356,-0.0031132763
UncalAccel,1676592322798,119826429622203,-4.653442,1.7623138,6.683752,0.006110925,-0.043260336,-0.038735468
OrientationDeg,1676592322799,119826429622203,182.0,-10.0,-22.0
UncalMag,1676592322806,119826437876232,-51.1058,-31.1954,-97.5756,-47.646854,1.2478232,-64.42538
UncalGyro,1676592322808,119826438606945,0.34422258,-0.51159966,0.29550606,0.0006130879,-0.0007338356,-0.0031132763
UncalAccel,1676592322807,119826438606945,-4.258626,0.67118675,6.117251,0.006110925,-0.043260336,-0.038735468
OrientationDeg,1676592322807,119826438606945,182.0,-11.0,-22.0
UncalGyro,1676592322817,119826447588878,-0.16462818,-0.2275473,0.92011577,0.0006130879,-0.0007338356,-0.0031132763
UncalAccel,1676592322816,119826447588878,-0.82313097,0.3152544,6.827321,0.006110925,-0.043260336,-0.038735468
UncalMag,1676592322817,119826447864269,-50.690998,-31.219799,-97.355995,-47.646854,1.2478232,-64.42538
OrientationDeg,1676592322817,119826447588878,181.0,-11.0,-22.0
UncalGyro,1676592322826,119826456551891,-0.4569272,0.0053450707,1.2728904,0.0006130879,-0.0007338356,-0.0031132763
UncalAccel,1676592322825,119826456551891,1.9375881,0.8602197,7.609774,0.006110925,-0.043260336,-0.038735468
UncalMag,1676592322826,119826457875988,-49.9102,-30.3902,-97.1242,-47.646854,1.2478232,-64.42538
OrientationDeg,1676592322825,119826456551891,180.0,-11.0,-22.0
UncalGyro,1676592322834,119826465546520,-0.5314528,0.110872045,1.4362969,0.0006130879,-0.0007338356,-0.0031132763
UncalAccel,1676592322834,119826465546520,3.8087754,1.07019,8.29113,0.006110925,-0.043260336,-0.038735468
OrientationDeg,1676592322834,119826465546520,180.0,-11.0,-21.0
UncalMag,1676592322836,119826467876232,-50.4836,-30.9026,-94.879395,-47.646854,1.2478232,-64.42538
UncalGyro,1676592322844,119826474525768,-0.4364632,0.071318515,1.5262468,0.0006130879,-0.0007338356,-0.0031132763
UncalAccel,1676592322843,119826474525768,4.683352,1.8323039,9.109476,0.006110925,-0.043260336,-0.038735468
OrientationDeg,1676592322843,119826474525768,179.0,-12.0,-21.0
UncalMag,1676592322847,119826477875988,-53.619,-31.500399,-97.050995,-47.646854,1.2478232,-64.42538
UncalGyro,1676592322852,119826483494029,-0.2576324,0.016035212,1.5505288,0.0006130879,-0.0007338356,-0.0031132763
UncalAccel,1676592322853,119826483494029,4.878367,2.9341989,9.873384,0.006110925,-0.043260336,-0.038735468
OrientationDeg,1676592322853,119826483494029,179.0,-12.0,-21.0
UncalMag,1676592322857,119826487876232,-51.8378,-31.2808,-95.2454,-47.646854,1.2478232,-64.42538
UncalGyro,1676592322862,119826492474193,-0.051159963,0.018020526,1.5651895,0.0006130879,-0.0007338356,-0.0031132763
UncalAccel,1676592322861,119826492474193,4.7024946,3.1896327,10.126426,0.006110925,-0.043260336,-0.038735468
OrientationDeg,1676592322861,119826492474193,178.0,-12.0,-20.0
UncalMag,1676592322866,119826497869396,-54.3998,-31.5126,-98.441795,-47.646854,1.2478232,-64.42538
UncalGyro,1676592322870,119826501463512,0.13316862,0.03313944,1.6410894,0.0006130879,-0.0007338356,-0.0031132763
UncalAccel,1676592322870,119826501463512,3.879962,2.7056842,9.953544,0.006110925,-0.043260336,-0.038735468
OrientationDeg,1676592322870,119826501463512,177.0,-13.0,-20.0
UncalMag,1676592322877,119826507864513,-55.2782,-31.7566,-98.0636,-47.646854,1.2478232,-64.42538
UncalGyro,1676592322880,119826510446727,0.2510656,0.13805555,1.8124372,0.0006130879,-0.0007338356,-0.0031132763
UncalAccel,1676592322879,119826510446727,2.6793633,1.6384853,10.114461,0.006110925,-0.043260336,-0.038735468
OrientationDeg,1676592322879,119826510446727,176.0,-13.0,-20.0
UncalMag,1676592322887,119826517875744,-56.1688,-31.4394,-98.6858,-47.646854,1.2478232,-64.42538
UncalGyro,1676592322888,119826519426342,0.28206703,0.33933565,2.1068742,0.0006130879,-0.0007338356,-0.0031132763
UncalAccel,1676592322888,119826519426342,1.5828521,-0.06699903,9.47139,0.006110925,-0.043260336,-0.038735468
OrientationDeg,1676592322889,119826519426342,175.0,-13.0,-20.0
UncalMag,1676592322897,119826527876232,-55.5588,-30.878199,-98.5516,-47.646854,1.2478232,-64.42538
UncalGyro,1676592322897,119826528408092,0.23808473,0.46883908,2.4569001,0.0006130879,-0.0007338356,-0.0031132763
UncalAccel,1676592322897,119826528408092,1.5768701,-0.03888337,7.856235,0.006110925,-0.043260336,-0.038735468
OrientationDeg,1676592322897,119826528408092,173.0,-13.0,-20.0
UncalGyro,1676592322906,119826537387950,0.12690726,0.52106804,2.7531698,0.0006130879,-0.0007338356,-0.0031132763
UncalAccel,1676592322907,119826537387950,1.8580267,0.6017949,6.878767,0.006110925,-0.043260336,-0.038735468
UncalMag,1676592322907,119826537864513,-55.3148,-30.5122,-99.6496,-47.646854,1.2478232,-64.42538
OrientationDeg,1676592322907,119826537387950,172.0,-14.0,-20.0
UncalGyro,1676592322916,119826546365733,-0.014049901,0.48838675,2.9423852,0.0006130879,-0.0007338356,-0.0031132763
UncalAccel,1676592322916,119826546365733,2.3892334,1.8257236,6.387042,0.006110925,-0.043260336,-0.038735468
OrientationDeg,1676592322915,119826546365733,170.0,-14.0,-19.0
UncalMag,1676592322916,119826547876232,-52.9968,-29.2678,-97.3926,-47.646854,1.2478232,-64.42538
UncalGyro,1676592322924,119826555347118,-0.11789699,0.41615194,2.9901853,0.0006130879,-0.0007338356,-0.0031132763
UncalAccel,1676592322925,119826555347118,3.1597223,2.9575288,6.5252275,0.006110925,-0.043260336,-0.038735468
OrientationDeg,1676592322924,119826555347118,169.0,-14.0,-19.0
UncalMag,1676592322926,119826557876232,-56.0468,-29.706999,-98.7102,-47.646854,1.2478232,-64.42538
UncalGyro,1676592322934,119826564327526,-0.13652839,0.32528573,2.894585,0.0006130879,-0.0007338356,-0.0031132763
UncalAccel,1676592322934,119826564327526,3.3810585,3.671188,7.2496543,0.006110925,-0.043260336,-0.038735468
OrientationDeg,1676592322933,119826564327526,168.0,-14.0,-18.0
UncalMag,1676592322936,119826567876476,-59.096798,-30.2316,-99.686195,-47.646854,1.2478232,-64.42538
UncalGyro,1676592322943,119826573310070,-0.06841691,0.29978213,2.6459627,0.0006130879,-0.0007338356,-0.0031132763
UncalAccel,1676592322943,119826573310070,4.05404,4.223332,7.9274216,0.006110925,-0.043260336,-0.038735468
OrientationDeg,1676592322943,119826573310070,166.0,-15.0,-18.0
UncalMag,1676592322946,119826577863048,-61.9516,-30.4634,-102.0774,-47.646854,1.2478232,-64.42538
UncalGyro,1676592322951,119826582287975,0.07223482,0.28787026,2.2785273,0.0006130879,-0.0007338356,-0.0031132763
UncalAccel,1676592322952,119826582287975,4.622335,4.464409,8.088339,0.006110925,-0.043260336,-0.038735468
OrientationDeg,1676592322952,119826582287975,165.0,-15.0,-18.0
UncalMag,1676592322957,119826587875744,-61.4636,-30.195,-102.345795,-47.646854,1.2478232,-64.42538
UncalGyro,1676592322960,119826591266490,0.24969117,0.23289238,1.8726074,0.0006130879,-0.0007338356,-0.0031132763
UncalAccel,1676592322961,119826591266490,4.6989055,4.401597,7.878967,0.006110925,-0.043260336,-0.038735468
OrientationDeg,1676592322960,119826591266490,164.0,-15.0,-18.0
UncalMag,1676592322966,119826597876232,-62.2444,-29.7192,-101.992,-47.646854,1.2478232,-64.42538
UncalGyro,1676592322970,119826600247570,0.45677447,0.06093381,1.4831808,0.0006130879,-0.0007338356,-0.0031132763
UncalAccel,1676592322969,119826600247570,4.575077,4.1144586,7.476374,0.006110925,-0.043260336,-0.038735468
OrientationDeg,1676592322969,119826600247570,163.0,-15.0,-18.0
UncalMag,1676592322977,119826607876476,-62.3298,-29.89,-100.6866,-47.646854,1.2478232,-64.42538
UncalGyro,1676592322978,119826609229381,0.68630713,-0.17195857,1.1424707,0.0006130879,-0.0007338356,-0.0031132763
UncalAccel,1676592322978,119826609229381,4.0642095,4.0552363,7.545168,0.006110925,-0.043260336,-0.038735468
OrientationDeg,1676592322979,119826609229381,163.0,-16.0,-18.0
UncalMag,1676592322986,119826617864269,-62.708,-30.170599,-101.4674,-47.646854,1.2478232,-64.42538
UncalGyro,1676592322988,119826618205516,0.9210321,-0.37232238,0.8738427,0.0006130879,-0.0007338356,-0.0031132763
UncalAccel,1676592322987,119826618205516,3.51386,3.5413775,8.135597,0.006110925,-0.043260336,-0.038735468
OrientationDeg,1676592322987,119826618205516,162.0,-16.0,-18.0
UncalGyro,1676592322997,119826627188610,1.0308352,-0.41905355,0.7309003,0.0006130879,-0.0007338356,-0.0031132763
UncalAccel,1676592322997,119826627188610,3.1794631,2.4023938,8.533403,0.006110925,-0.043260336,-0.038735468
UncalMag,1676592322997,119826627864513,-60.341198,-29.341,-98.3564,-47.646854,1.2478232,-64.42538
OrientationDeg,1676592322996,119826627188610,161.0,-17.0,-19.0
UncalGyro,1676592323005,119826636171642,1.1475104,-0.4970916,0.61819565,0.0006130879,-0.0007338356,-0.0031132763
UncalAccel,1676592323005,119826636171642,2.9126635,1.9244276,8.687142,0.006110925,-0.043260336,-0.038735468
OrientationDeg,1676592323006,119826636171642,161.0,-17.0,-19.0
UncalMag,1676592323006,119826637875988,-62.7324,-30.8294,-98.4052,-47.646854,1.2478232,-64.42538
UncalGyro,1676592323014,119826645138316,1.2515101,-0.4352415,0.5823073,0.0006130879,-0.0007338356,-0.0031132763
UncalAccel,1676592323014,119826645138316,2.8468606,1.5846468,8.971291,0.006110925,-0.043260336,-0.038735468
Status,0,29,0,6,2,1575420030,38.52,34.0,79.0,1,1,1,34.32342
Status,0,29,1,6,2,1176450050,39.70,34.0,79.0,1,1,1,35.595333
Status,0,29,2,6,36,1176450050,39.56,83.0,71.0,1,1,1,35.462822
Status,0,29,3,6,36,1575420030,43.95,83.0,71.0,1,1,1,39.74605
Status,0,29,4,3,17,1604249980,42.94,245.0,69.0,1,1,1,38.743183
Status,0,29,5,3,14,1598062460,41.37,132.0,65.0,1,1,1,37.166946
Status,0,29,6,1,11,1575420030,44.64,162.0,61.0,1,1,1,40.441235
Status,0,29,7,1,11,1176450050,42.89,162.0,61.0,1,1,1,38.79077
Status,0,29,8,1,6,1176450050,41.69,65.0,58.0,1,1,1,37.586914
Status,0,29,9,1,6,1575420030,38.83,65.0,58.0,1,1,1,34.625725
Status,0,29,10,3,15,1602000000,39.13,331.0,56.0,1,1,1,34.933823
Status,0,29,11,1,24,1176450050,41.66,237.0,51.0,1,1,1,37.55601
Status,0,29,12,1,24,1575420030,43.54,237.0,51.0,1,1,1,39.34003
Status,0,29,13,3,24,1603124990,44.52,28.0,49.0,1,1,1,40.320248
Status,0,29,14,1,12,1575420030,41.20,316.0,48.0,1,1,1,37.004017
Status,0,29,15,6,34,1176450050,34.36,198.0,44.0,1,1,1,30.263329
Status,0,29,16,6,34,1575420030,39.33,198.0,44.0,1,1,1,35.13344
Status,0,29,17,1,19,1575420030,44.86,49.0,39.0,1,1,1,40.65607
Status,0,29,18,6,25,1176450050,33.47,114.0,36.0,1,1,1,29.374651
Status,0,29,19,6,25,1575420030,40.51,114.0,36.0,1,1,1,36.306324
Status,0,29,20,6,30,1575420030,38.96,311.0,34.0,1,1,1,34.761776
Status,0,29,21,6,30,1176450050,37.63,311.0,34.0,1,1,1,33.528774
Status,0,29,22,6,11,1575420030,41.10,42.0,26.0,1,1,1,36.901745
Status,0,29,23,6,11,1176450050,38.08,42.0,26.0,1,1,1,33.984222
Status,0,29,24,3,18,1600312450,37.58,223.0,20.0,1,1,1,33.375896
Status,0,29,25,1,25,1575420030,40.15,307.0,20.0,1,1,1,35.94561
Status,0,29,26,1,25,1176450050,37.57,307.0,20.0,1,1,1,33.470707
Status,0,29,27,1,20,1575420030,42.25,152.0,13.0,1,1,1,38.045906
Status,0,29,28,1,17,1575420030,45.16,61.0,12.0,1,1,1,40.95693
UncalMag,1676592323016,119826647876232,-63.8304,-30.9758,-98.2222,-47.646854,1.2478232,-64.42538
OrientationDeg,1676592323015,119826645138316,160.0,-17.0,-19.0
Fix,GPS,37.4307908491,-122.1550240713,-17.865373439062335,0.23235047,3.5470998,117.57646,1676592321999,0.1420396,27.569818,119826565677000,3.0
Fix,FLP,37.4307794000,-122.1550800000,-15.0,0.26583272,6.747,224.69121,1676592322888,,,119826519426342,2.9644978
UncalGyro,1676592323023,119826654129039,1.3660474,-0.34391713,0.6246097,0.0006130879,-0.0007338356,-0.0031132763
UncalAccel,1676592323024,119826654129039,3.0789645,1.7700906,8.563314,0.006110925,-0.043260336,-0.038735468
Raw,1676592321999,281696000000,,,-1360627258303515815,0.0,8.467283822538429,289.0,1.0,15,6,0.0,16431,432339930153655,41,29.016407012939453,319.3649895504511,0.8345116772202261,16,84264.54120914737,340282346638528860000000000000000000000,1575420030,,,,0,,1,,24.816408157348633,0.320142130558394,1.0,0.320142130558394,1.0,C,119826565677000
Raw,1676592321999,281696000000,,,-1360627258303515815,0.0,8.467283822538429,289.0,1.0,15,11,0.0,16431,432339929999703,12,43.8498420715332,-245.55994118715307,0.15,16,-73236.41189479725,340282346638528860000000000000000000000,1575420030,,,,0,,1,,39.64984130859375,-0.20372681261465636,1.0,-0.20372681261465636,1.0,C,119826565677000
Raw,1676592321999,281696000000,,,-1360627258303515815,0.0,8.467283822538429,289.0,1.0,15,12,0.0,16431,432339928352538,32,32.226966857910156,-323.12315978385186,0.6898123447645061,16,-92510.79771030054,340282346638528860000000000000000000000,1575420030,,,,1,,1,,28.026968002319336,-0.6984919076624261,1.0,-0.6984919076624261,1.0,C,119826565677000
Raw,1676592321999,281696000000,,,-1360627258303515815,0.0,8.467283822538429,289.0,1.0,15,17,0.0,16431,432339917499308,18,39.24934005737305,594.0225894167579,0.15,16,167740.11453961395,340282346638528860000000000000000000000,1575420030,,,,0,,1,,35.049339294433594,-0.7858034271858065,1.0,-0.7858034271858065,1.0,C,119826565677000
Raw,1676592321999,281696000000,,,-1360627258303515815,0.0,8.467283822538429,289.0,1.0,15,19,0.0,16431,432339926776347,13,42.80966567993164,540.3799384358545,0.15,16,150921.9542264833,340282346638528860000000000000000000000,1575420030,,,,0,,1,,38.60966491699219,0.0,1.0,0.0,1.0,C,119826565677000
Raw,1676592321999,281696000000,,,-1360627258303515815,0.0,8.467283822538429,289.0,1.0,15,20,0.0,16431,432339918258967,15,41.51711654663086,-489.3973550216433,0.15,16,-137158.19476477543,340282346638528860000000000000000000000,1575420030,,,,0,,1,,37.317115783691406,0.0,1.0,0.0,1.0,C,119826565677000
Raw,1676592321999,281696000000,,,-1360627258303515815,0.0,8.467283822538429,289.0,1.0,15,24,0.0,16431,432339928064653,14,42.06913757324219,400.15772539742534,0.15,16,108633.19212282714,340282346638528860000000000000000000000,1575420030,,,,0,,1,,37.869136810302734,-0.20372681261465636,1.0,-0.20372681261465636,1.0,C,119826565677000
Raw,1676592321999,281696000000,,,-1360627258303515815,0.0,8.467283822538429,289.0,1.0,15,25,0.0,16431,432339921790584,29,33.2728271484375,-510.5148110007201,0.6416008461286498,16,-143918.23794696515,340282346638528860000000000000000000000,1575420030,,,,0,,1,,29.07282829284668,-2.0372682255564105,1.0,-2.0372682255564105,1.0,C,119826565677000
Raw,1676592321999,281696000000,,,-1360627258303515815,0.0,8.467283822538429,289.0,1.0,15,6,0.0,81921,432339930154149,37,29.053194046020508,315.4140489429574,0.8283605926254336,16,85158.54179280985,340282346638528860000000000000000000000,1176450050,,,,0,,1,,24.95319366455078,1.9208527336454408,1.616554136534512,1.9208527336454408,1.0,Q,119826565677000
Raw,1676592321999,281696000000,,,-1360627258303515815,0.0,8.467283822538429,289.0,1.0,15,11,0.0,81921,432339930000236,11,40.16318893432617,-245.9661870276767,0.15,16,-74103.38438227537,340282346638528860000000000000000000000,1176450050,,,,0,,1,,36.06319046020508,0.0,1.616554136534512,0.0,1.0,Q,119826565677000
Raw,1676592321999,281696000000,,,-1360627258303515815,0.0,8.467283822538429,289.0,1.0,15,24,0.0,81921,432339928065188,10,38.4640998840332,400.09825151079303,0.15,16,109778.5716055622,340282346638528860000000000000000000000,1176450050,,,,0,,1,,34.36410140991211,3.5215636101095664,1.616554136534512,3.5215636101095664,1.0,Q,119826565677000
Raw,1676592321999,281696000000,,,-1360627258303515815,0.0,8.467283822538429,289.0,1.0,15,25,0.0,81921,432339921791128,21,30.462478637695312,-510.31781440201826,0.7634823067788377,16,-145506.84670555475,340282346638528860000000000000000000000,1176450050,,,,0,,1,,26.362478256225586,1.0186341127782053,1.616554136534512,1.0186341127782053,1.0,Q,119826565677000
Raw,1676592321999,281696000000,,,-1360627258303515815,0.0,8.467283822538429,289.0,1.0,15,14,0.0,32995,11121934250549,37,39.090702056884766,371.4610468192625,0.15,16,99659.03835182558,340282346638528860000000000000000000000,1598062460,,,,0,,3,,34.89070129394531,50.29141902923584,2.0000000474974513,50.29141902923584,2.0000000474974513,C,119826565677000
Raw,1676592321999,281696000000,,,-1360627258303515815,0.0,8.467283822538429,289.0,1.0,15,18,0.0,32995,11121924318160,77,30.036575317382812,-594.0589894803243,0.7875861922124248,16,-169617.60371683087,340282346638528860000000000000000000000,1600312450,,,,0,,3,,25.83657455444336,50.29141902923584,2.0000000474974513,50.29141902923584,2.0000000474974513,C,119826565677000
Raw,1676592321999,281696000000,,,-1360627258303515815,0.0,8.467283822538429,289.0,1.0,15,15,0.0,32995,11121932848667,82,29.173084259033203,-366.2894430314043,0.827950870906883,16,-106914.14115188162,340282346638528860000000000000000000000,1602000000,,,,0,,3,,24.97308349609375,50.29141902923584,2.0000000474974513,50.29141902923584,2.0000000474974513,C,119826565677000
Raw,1676592321999,281696000000,,,-1360627258303515815,0.0,8.467283822538429,289.0,1.0,15,24,0.0,32995,11121931670434,33,40.80830001831055,605.5241233598585,0.15,16,167702.59519558834,340282346638528860000000000000000000000,1603124990,,,,0,,3,,36.608299255371094,50.29141902923584,2.0000000474974513,50.29141902923584,2.0000000474974513,C,119826565677000
Raw,1676592321999,281696000000,,,-1360627258303515815,0.0,8.467283822538429,289.0,1.0,15,17,0.0,32995,11121935157513,33,41.91204071044922,-103.96659092281129,0.15,16,-34350.8707148498,340282346638528860000000000000000000000,1604249980,,,,0,,3,,37.712039947509766,50.29141902923584,2.0000000474974513,50.29141902923584,2.0000000474974513,C,119826565677000
Raw,1676592321999,281696000000,,,-1360627258303515815,0.0,8.467283822538429,289.0,1.0,15,2,0.0,85026,432339921718485,24,35.616573333740234,49.14322140058812,0.5369117547897402,16,12161.376904435047,340282346638528860000000000000000000000,1575420030,,,,0,,6,,31.416574478149414,-6.024492904543876,1.5000000237487257,-6.024492904543876,1.5000000237487257,C,119826565677000
Raw,1676592321999,281696000000,,,-1360627258303515815,0.0,8.467283822538429,289.0,1.0,15,11,0.0,85026,432339912786035,22,36.74054718017578,555.7462866188157,0.15,16,154865.35230460155,340282346638528860000000000000000000000,1575420030,,,,0,,6,,32.54054641723633,-6.024492904543876,1.5000000237487257,-6.024492904543876,1.5000000237487257,C,119826565677000
Raw,1676592321999,281696000000,,,-1360627258303515815,0.0,8.467283822538429,289.0,1.0,15,25,0.0,85026,432339914205253,20,37.60289764404297,434.39365522195794,0.15,16,120777.1331117485,340282346638528860000000000000000000000,1575420030,,,,0,,6,,33.402896881103516,-6.024492904543876,1.5000000237487257,-6.024492904543876,1.5000000237487257,C,119826565677000
Raw,1676592321999,281696000000,,,-1360627258303515815,0.0,8.467283822538429,289.0,1.0,15,30,0.0,85026,432339912912268,26,34.55002975463867,-326.6381176075058,0.5847280100943384,16,-91937.08695124727,340282346638528860000000000000000000000,1575420030,,,,0,,6,,30.35003089904785,-6.024492904543876,1.5000000237487257,-6.024492904543876,1.5000000237487257,C,119826565677000
Raw,1676592321999,281696000000,,,-1360627258303515815,0.0,8.467283822538429,289.0,1.0,15,34,0.0,85026,432339916672140,18,39.333438873291016,-371.9837353724963,0.15,16,-106496.89343923514,340282346638528860000000000000000000000,1575420030,,,,0,,6,,35.13343811035156,-6.024492904543876,1.5000000237487257,-6.024492904543876,1.5000000237487257,C,119826565677000
Raw,1676592321999,281696000000,,,-1360627258303515815,0.0,8.467283822538429,289.0,1.0,15,36,0.0,85026,432339921141666,19,38.46992111206055,129.92699356149683,0.15,16,33342.88377621508,340282346638528860000000000000000000000,1575420030,,,,0,,6,,34.269920349121094,-6.024492904543876,1.5000000237487257,-6.024492904543876,1.5000000237487257,C,119826565677000
Raw,1676592321999,281696000000,,,-1360627258303515815,0.0,8.467283822538429,289.0,1.0,15,2,0.0,84003,432339921719043,11,37.86554718017578,48.76306568053269,0.15,16,12121.981685897703,340282346638528860000000000000000000000,1176450050,,,,0,,6,,33.76554870605469,-4.362151958048344,2.1165541602832376,-4.362151958048344,1.5000000237487257,Q,119826565677000
Raw,1676592321999,281696000000,,,-1360627258303515815,0.0,8.467283822538429,289.0,1.0,15,11,0.0,84003,432339912786618,14,35.9752082824707,555.3750945848258,0.5175589105415945,16,155903.07528895355,340282346638528860000000000000000000000,1176450050,,,,0,,6,,31.875207901000977,4.134257324039933,2.1165541602832376,4.134257324039933,1.5000000237487257,Q,119826565677000
Raw,1676592321999,281696000000,,,-1360627258303515815,0.0,8.467283822538429,289.0,1.0,15,25,0.0,84003,432339914205767,12,32.92568588256836,434.2696973275845,0.6549476559241185,16,120359.69482346872,340282346638528860000000000000000000000,1176450050,,,,0,,6,,28.825687408447266,-8.795061148703097,2.1165541602832376,-8.795061148703097,1.5000000237487257,Q,119826565677000
Raw,1676592321999,281696000000,,,-1360627258303515815,0.0,8.467283822538429,289.0,1.0,15,30,0.0,84003,432339912912797,26,28.201353073120117,-325.693317830237,0.8671630699728659,16,-91606.4592453328,340282346638528860000000000000000000000,1176450050,,,,0,,6,,24.10135269165039,-8.425652049481869,2.1165541602832376,-8.425652049481869,1.5000000237487257,Q,119826565677000
Raw,1676592321999,281696000000,,,-1360627258303515815,0.0,8.467283822538429,289.0,1.0,15,34,0.0,84003,432339916672681,18,32.461700439453125,-372.0225893729323,0.6762563139517499,16,-107501.88966800434,340282346638528860000000000000000000000,1176450050,,,,0,,6,,28.36170196533203,-10.0879929959774,2.1165541602832376,-10.0879929959774,1.5000000237487257,Q,119826565677000
Raw,1676592321999,281696000000,,,-1360627258303515815,0.0,8.467283822538429,289.0,1.0,15,36,0.0,84003,432339921142210,16,33.33455276489258,129.9010397708547,0.6378091062731892,16,33575.4547771719,340282346638528860000000000000000000000,1176450050,,,,0,,6,,29.234554290771484,-11.011515744030472,2.1165541602832376,-11.011515744030472,1.5000000237487257,Q,119826565677000
OrientationDeg,1676592323023,119826654129039,160.0,-18.0,-20.0
UncalMag,1676592323026,119826657876232,-64.501396,-31.293,-99.9424,-47.646854,1.2478232,-64.42538
UncalGyro,1676592323032,119826663108959,1.4891367,-0.3213151,0.7359399,0.0006130879,-0.0007338356,-0.0031132763
UncalAccel,1676592323032,119826663108959,3.3260236,1.753939,7.7347994,0.006110925,-0.043260336,-0.038735468
OrientationDeg,1676592323032,119826663108959,159.0,-18.0,-21.0
UncalMag,1676592323037,119826667858898,-65.4774,-32.4642,-97.978195,-47.646854,1.2478232,-64.42538
UncalGyro,1676592323042,119826672089488,1.5236506,-0.08445212,1.1355985,0.0006130879,-0.0007338356,-0.0031132763
UncalAccel,1676592323041,119826672089488,1.46022,-2.3862424,10.459626,0.006110925,-0.043260336,-0.038735468
OrientationDeg,1676592323042,119826672089488,158.0,-19.0,-21.0
UncalMag,1676592323047,119826677875988,-66.307,-32.0494,-100.1132,-47.646854,1.2478232,-64.42538
UncalGyro,1676592323050,119826681070629,1.2861768,0.9934196,1.9544634,0.0006130879,-0.0007338356,-0.0031132763
UncalAccel,1676592323051,119826681070629,1.6959131,-4.0510488,12.334402,0.006110925,-0.043260336,-0.038735468
OrientationDeg,1676592323050,119826681070629,157.0,-18.0,-21.0
UncalMag,1676592323057,119826687875988,-70.0524,-33.001,-98.4662,-47.646854,1.2478232,-64.42538
UncalGyro,1676592323060,119826690049877,0.94974273,1.7785342,2.7186558,0.0006130879,-0.0007338356,-0.0031132763
UncalAccel,1676592323059,119826690049877,3.6831522,-0.8129615,9.662816,0.006110925,-0.043260336,-0.038735468
OrientationDeg,1676592323059,119826690049877,155.0,-18.0,-21.0
UncalMag,1676592323067,119826697876232,-67.8076,-31.842,-97.295,-47.646854,1.2478232,-64.42538
UncalGyro,1676592323069,119826699029918,0.60231316,1.9300288,3.1506903,0.0006130879,-0.0007338356,-0.0031132763
UncalAccel,1676592323068,119826699029918,3.987639,2.6081767,7.2705917,0.006110925,-0.043260336,-0.038735468
OrientationDeg,1676592323069,119826699029918,154.0,-18.0,-21.0
UncalMag,1676592323077,119826707876476,-67.3318,-31.5248,-96.270195,-47.646854,1.2478232,-64.42538
UncalGyro,1676592323078,119826708007213,0.26007587,1.6268868,3.1716123,0.0006130879,-0.0007338356,-0.0031132763
UncalAccel,1676592323077,119826708007213,3.7657046,5.1260242,5.905486,0.006110925,-0.043260336,-0.038735468
OrientationDeg,1676592323077,119826708007213,152.0,-18.0,-21.0
UncalGyro,1676592323085,119826716991588,-0.086132,1.233795,2.8269317,0.0006130879,-0.0007338356,-0.0031132763
UncalAccel,1676592323086,119826716991588,4.404588,6.3643103,6.762715,0.006110925,-0.043260336,-0.038735468
UncalMag,1676592323087,119826717864269,-64.6234,-29.8046,-94.3548,-47.646854,1.2478232,-64.42538
OrientationDeg,1676592323085,119826716991588,150.0,-18.0,-20.0
UncalGyro,1676592323094,119826725973461,-0.36102137,0.9757045,2.303573,0.0006130879,-0.0007338356,-0.0031132763
UncalAccel,1676592323094,119826725973461,5.3222356,6.3158555,8.191829,0.006110925,-0.043260336,-0.038735468
OrientationDeg,1676592323094,119826725973461,149.0,-17.0,-20.0
UncalMag,1676592323096,119826727876232,-67.1732,-30.1584,-96.2092,-47.646854,1.2478232,-64.42538
UncalGyro,1676592323103,119826734950206,-0.45723262,0.7496844,1.8469511,0.0006130879,-0.0007338356,-0.0031132763
UncalAccel,1676592323104,119826734950206,5.4556355,4.968098,9.08136,0.006110925,-0.043260336,-0.038735468
OrientationDeg,1676592323103,119826734950206,148.0,-17.0,-19.0
UncalMag,1676592323107,119826737876232,-67.1732,-29.4874,-96.257996,-47.646854,1.2478232,-64.42538
UncalGyro,1676592323112,119826743933482,-0.3923282,0.46838093,1.5260941,0.0006130879,-0.0007338356,-0.0031132763
UncalAccel,1676592323112,119826743933482,5.2217374,3.9008992,9.451052,0.006110925,-0.043260336,-0.038735468
OrientationDeg,1676592323112,119826743933482,148.0,-17.0,-19.0
UncalMag,1676592323116,119826747876232,-67.3806,-28.6334,-96.6118,-47.646854,1.2478232,-64.42538
UncalGyro,1676592323122,119826752912059,-0.27305678,0.22556199,1.2724323,0.0006130879,-0.0007338356,-0.0031132763
UncalAccel,1676592323122,119826752912059,4.9106703,3.3852458,10.728819,0.006110925,-0.043260336,-0.038735468
OrientationDeg,1676592323122,119826752912059,147.0,-18.0,-18.0
UncalMag,1676592323127,119826757864513,-68.5152,-28.657799,-98.515,-47.646854,1.2478232,-64.42538
UncalGyro,1676592323131,119826761887523,-0.15439619,0.50442195,1.0853548,0.0006130879,-0.0007338356,-0.0031132763
UncalAccel,1676592323130,119826761887523,4.9363933,2.5094728,14.799608,0.006110925,-0.043260336,-0.038735468
OrientationDeg,1676592323131,119826761887523,147.0,-17.0,-18.0
UncalMag,1676592323137,119826767875988,-69.661995,-29.084799,-97.185196,-47.646854,1.2478232,-64.42538
UncalGyro,1676592323139,119826770871410,-0.09437868,0.60154957,0.9789116,0.0006130879,-0.0007338356,-0.0031132763
UncalAccel,1676592323139,119826770871410,4.8849473,1.1365907,11.636895,0.006110925,-0.043260336,-0.038735468
OrientationDeg,1676592323140,119826770871410,146.0,-17.0,-18.0
UncalMag,1676592323147,119826777875988,-68.088196,-28.4138,-98.027,-47.646854,1.2478232,-64.42538
UncalGyro,1676592323149,119826779854137,-0.1217149,0.4474588,1.0024298,0.0006130879,-0.0007338356,-0.0031132763
UncalAccel,1676592323149,119826779854137,4.499105,-0.45224348,12.04188,0.006110925,-0.043260336,-0.038735468
OrientationDeg,1676592323149,119826779854137,146.0,-17.0,-18.0
UncalMag,1676592323157,119826787876232,-69.052,-27.816,-99.051796,-47.646854,1.2478232,-64.42538
UncalGyro,1676592323158,119826788832652,-0.18936823,0.536187,1.1282681,0.0006130879,-0.0007338356,-0.0031132763
UncalAccel,1676592323158,119826788832652,3.5533416,-0.73399836,12.912868,0.006110925,-0.043260336,-0.038735468
OrientationDeg,1676592323157,119826788832652,145.0,-17.0,-17.0
UncalGyro,1676592323166,119826797811901,-0.27412578,0.62125,1.2875512,0.0006130879,-0.0007338356,-0.0031132763
UncalAccel,1676592323167,119826797811901,3.3026934,0.029312078,11.7050905,0.006110925,-0.043260336,-0.038735468
UncalMag,1676592323167,119826797861583,-69.9304,-28.6822,-99.186,-47.646854,1.2478232,-64.42538
OrientationDeg,1676592323167,119826797811901,144.0,-17.0,-17.0
UncalGyro,1676592323176,119826806788890,-0.37888917,0.63438356,1.408808,0.0006130879,-0.0007338356,-0.0031132763
UncalAccel,1676592323176,119826806788890,3.231507,1.3334004,10.715658,0.006110925,-0.043260336,-0.038735468
UncalMag,1676592323177,119826807864269,-69.2106,-27.4622,-98.088,-47.646854,1.2478232,-64.42538
OrientationDeg,1676592323175,119826806788890,144.0,-17.0,-17.0
UncalGyro,1676592323185,119826815772289,-0.47907108,0.5242751,1.4659239,0.0006130879,-0.0007338356,-0.0031132763
UncalAccel,1676592323184,119826815772289,3.0915267,2.585445,10.087543,0.006110925,-0.043260336,-0.038735468
OrientationDeg,1676592323184,119826815772289,143.0,-17.0,-16.0
UncalMag,1676592323187,119826817857677,-69.9426,-27.449999,-98.270996,-47.646854,1.2478232,-64.42538
UncalGyro,1676592323194,119826824756481,-0.52503866,0.32055154,1.4288138,0.0006130879,-0.0007338356,-0.0031132763
UncalAccel,1676592323194,119826824756481,3.484548,3.4366915,10.051051,0.006110925,-0.043260336,-0.038735468
OrientationDeg,1676592323193,119826824756481,142.0,-17.0,-16.0
UncalMag,1676592323196,119826827875988,-69.2594,-26.8156,-96.9412,-47.646854,1.2478232,-64.42538
UncalGyro,1676592323203,119826833719371,-0.47876564,0.05879578,1.3176364,0.0006130879,-0.0007338356,-0.0031132763
UncalAccel,1676592323202,119826833719371,4.0013976,3.3230324,10.390832,0.006110925,-0.043260336,-0.038735468
OrientationDeg,1676592323202,119826833719371,142.0,-17.0,-15.0
UncalMag,1676592323207,119826837876232,-70.589195,-26.8034,-98.0392,-47.646854,1.2478232,-64.42538
UncalGyro,1676592323212,119826842700817,-0.33826664,-0.23472497,1.186453,0.0006130879,-0.0007338356,-0.0031132763
UncalAccel,1676592323212,119826842700817,4.339384,2.8803604,10.790434,0.006110925,-0.043260336,-0.038735468
OrientationDeg,1676592323211,119826842700817,141.0,-17.0,-15.0
UncalMag,1676592323216,119826847875988,-71.992195,-26.3886,-98.1612,-47.646854,1.2478232,-64.42538
UncalGyro,1676592323221,119826851692760,-0.14538592,-0.52778757,1.0462594,0.0006130879,-0.0007338356,-0.0031132763
UncalAccel,1676592323221,119826851692760,4.624728,2.2360928,10.883754,0.006110925,-0.043260336,-0.038735468
OrientationDeg,1676592323221,119826851692760,141.0,-18.0,-15.0
UncalMag,1676592323227,119826857875988,-71.1138,-25.851799,-97.3072,-47.646854,1.2478232,-64.42538
UncalGyro,1676592323229,119826860674205,0.02367103,-0.7800749,0.92087936,0.0006130879,-0.0007338356,-0.0031132763
UncalAccel,1676592323230,119826860674205,4.5505505,1.5750755,10.503893,0.006110925,-0.043260336,-0.038735468
OrientationDeg,1676592323230,119826860674205,140.0,-18.0,-14.0
UncalMag,1676592323237,119826867875988,-71.736,-26.046999,-96.7582,-47.646854,1.2478232,-64.42538
UncalGyro,1676592323238,119826869653392,0.12690726,-1.0079277,0.8651379,0.0006130879,-0.0007338356,-0.0031132763
UncalAccel,1676592323238,119826869653392,4.0151563,1.3812568,9.52822,0.006110925,-0.043260336,-0.038735468
OrientationDeg,1676592323239,119826869653392,140.0,-19.0,-14.0
UncalMag,1676592323247,119826877875988,-72.163,-25.4004,-99.076195,-47.646854,1.2478232,-64.42538
UncalGyro,1676592323248,119826878630199,0.1414153,-1.202641,0.869414,0.0006130879,-0.0007338356,-0.0031132763
UncalAccel,1676592323248,119826878630199,3.4737802,1.3172488,8.99163,0.006110925,-0.043260336,-0.038735468
OrientationDeg,1676592323248,119826878630199,139.0,-20.0,-14.0
UncalGyro,1676592323257,119826887613353,0.060170226,-1.2560917,0.9314168,0.0006130879,-0.0007338356,-0.0031132763
UncalAccel,1676592323257,119826887613353,2.7756743,1.2592229,9.349955,0.006110925,-0.043260336,-0.038735468
UncalMag,1676592323256,119826887858898,-73.9198,-26.2788,-96.8314,-47.646854,1.2478232,-64.42538
OrientationDeg,1676592323256,119826887613353,139.0,-20.0,-14.0
UncalGyro,1676592323265,119826896594860,-0.0842994,-1.1386528,1.007775,0.0006130879,-0.0007338356,-0.0031132763
UncalAccel,1676592323266,119826896594860,2.9563324,1.7706888,9.282357,0.006110925,-0.043260336,-0.038735468
UncalMag,1676592323267,119826897864513,-75.0056,-25.6688,-97.1242,-47.646854,1.2478232,-64.42538
OrientationDeg,1676592323265,119826896594860,138.0,-21.0,-14.0
UncalGyro,1676592323275,119826905573802,-0.26068676,-0.9757045,1.0797043,0.0006130879,-0.0007338356,-0.0031132763
UncalAccel,1676592323274,119826905573802,3.0119655,1.9860427,8.935398,0.006110925,-0.043260336,-0.038735468
OrientationDeg,1676592323274,119826905573802,138.0,-22.0,-14.0
UncalMag,1676592323277,119826907869152,-74.4078,-25.314999,-95.4406,-47.646854,1.2478232,-64.42538
UncalGyro,1676592323284,119826914556896,-0.44241914,-0.80848014,1.1531608,0.0006130879,-0.0007338356,-0.0031132763
UncalAccel,1676592323284,119826914556896,2.635694,2.1804597,9.130413,0.006110925,-0.043260336,-0.038735468
OrientationDeg,1676592323284,119826914556896,137.0,-22.0,-13.0
UncalMag,1676592323287,119826917865246,-72.59,-23.753399,-96.0872,-47.646854,1.2478232,-64.42538
UncalGyro,1676592323292,119826923522655,-0.6133087,-0.5141958,1.2324207,0.0006130879,-0.0007338356,-0.0031132763
UncalAccel,1676592323292,119826923522655,2.6943183,1.9746768,10.516456,0.006110925,-0.043260336,-0.038735468
OrientationDeg,1676592323292,119826923522655,137.0,-23.0,-13.0
UncalMag,1676592323297,119826927864269,-75.6522,-24.338999,-96.6118,-47.646854,1.2478232,-64.42538
UncalGyro,1676592323302,119826932504100,-0.7490735,-0.004276057,1.321607,0.0006130879,-0.0007338356,-0.0031132763
UncalAccel,1676592323302,119826932504100,3.0586255,2.0015962,12.02872,0.006110925,-0.043260336,-0.038735468
OrientationDeg,1676592323301,119826932504100,136.0,-23.0,-12.0
UncalMag,1676592323307,119826937875988,-74.4932,-23.18,-96.0384,-47.646854,1.2478232,-64.42538
UncalGyro,1676592323310,119826941494213,-0.799928,0.5151121,1.35551,0.0006130879,-0.0007338356,-0.0031132763
UncalAccel,1676592323311,119826941494213,3.970291,1.7419748,12.412767,0.006110925,-0.043260336,-0.038735468
OrientationDeg,1676592323311,119826941494213,136.0,-22.0,-11.0
UncalMag,1676592323316,119826947875988,-76.311,-23.4972,-96.319,-47.646854,1.2478232,-64.42538
UncalGyro,1676592323319,119826950471446,-0.73655075,0.83062404,1.3432927,0.0006130879,-0.0007338356,-0.0031132763
UncalAccel,1676592323319,119826950471446,4.4572306,2.0889342,11.773286,0.006110925,-0.043260336,-0.038735468
OrientationDeg,1676592323319,119826950471446,135.0,-22.0,-11.0
UncalMag,1676592323326,119826957876232,-74.310196,-22.0576,-95.3796,-47.646854,1.2478232,-64.42538
UncalGyro,1676592323328,119826959454906,-0.5728389,0.8364272,1.2253957,0.0006130879,-0.0007338356,-0.0031132763
UncalAccel,1676592323329,119826959454906,4.640281,3.1567314,10.140782,0.006110925,-0.043260336,-0.038735468
OrientationDeg,1676592323329,119826959454906,135.0,-22.0,-10.0
UncalMag,1676592323337,119826967876476,-75.762,-22.0942,-97.038795,-47.646854,1.2478232,-64.42538
UncalGyro,1676592323337,119826968439098,-0.31688634,0.6603453,1.0297661,0.0006130879,-0.0007338356,-0.0031132763
UncalAccel,1676592323337,119826968439098,4.082155,3.6197424,9.010772,0.006110925,-0.043260336,-0.038735468
OrientationDeg,1676592323337,119826968439098,135.0,-21.0,-10.0
UncalGyro,1676592323347,119826977414928,-0.08964448,0.35613444,0.9381363,0.0006130879,-0.0007338356,-0.0031132763
UncalAccel,1676592323347,119826977414928,3.330809,2.5495524,7.925029,0.006110925,-0.043260336,-0.038735468
UncalMag,1676592323346,119826977865490,-75.0178,-21.6428,-98.3564,-47.646854,1.2478232,-64.42538
OrientationDeg,1676592323346,119826977414928,134.0,-21.0,-10.0
UncalGyro,1676592323355,119826986395458,0.04550946,0.02611449,0.9540188,0.0006130879,-0.0007338356,-0.0031132763
UncalAccel,1676592323356,119826986395458,2.7936203,1.8095721,7.4709907,0.006110925,-0.043260336,-0.038735468
OrientationDeg,1676592323356,119826986395458,134.0,-21.0,-9.0
UncalMag,1676592323357,119826987876232,-75.6034,-21.2036,-98.82,-47.646854,1.2478232,-64.42538
UncalGyro,1676592323364,119826995372447,0.14370605,-0.2228131,1.0375546,0.0006130879,-0.0007338356,-0.0031132763
UncalAccel,1676592323365,119826995372447,2.7756743,1.2436695,7.372287,0.006110925,-0.043260336,-0.038735468
OrientationDeg,1676592323364,119826995372447,133.0,-22.0,-9.0
UncalMag,1676592323367,119826997876232,-76.5672,-21.2402,-98.295395,-47.646854,1.2478232,-64.42538
UncalGyro,1676592323374,119827004356944,0.22815818,-0.43157628,1.1111639,0.0006130879,-0.0007338356,-0.0031132763
UncalAccel,1676592323374,119827004356944,3.3003006,1.1688938,7.2789664,0.006110925,-0.043260336,-0.038735468
OrientationDeg,1676592323373,119827004356944,133.0,-22.0,-9.0
UncalMag,1676592323377,119827007876476,-77.6652,-21.3622,-100.161995,-47.646854,1.2478232,-64.42538
UncalGyro,1676592323383,119827013327526,0.3483459,-0.61361414,1.1209377,0.0006130879,-0.0007338356,-0.0031132763
UncalAccel,1676592323383,119827013327526,3.7292142,2.120639,7.676773,0.006110925,-0.043260336,-0.038735468
OrientationDeg,1676592323383,119827013327526,132.0,-22.0,-9.0
UncalMag,1676592323387,119827017862804,-78.4582,-20.984,-97.3072,-47.646854,1.2478232,-64.42538
UncalGyro,1676592323392,119827022303905,0.49678615,-0.72021013,1.0908526,0.0006130879,-0.0007338356,-0.0031132763
UncalAccel,1676592323392,119827022303905,3.9134614,2.1050856,8.006385,0.006110925,-0.043260336,-0.038735468
OrientationDeg,1676592323392,119827022303905,131.0,-23.0,-9.0
UncalMag,1676592323396,119827027864269,-78.4582,-20.984,-97.3072,-47.646854,1.2478232,-64.42538
UncalGyro,1676592323401,119827031296215,0.5899431,-0.69974613,1.0705414,0.0006130879,-0.0007338356,-0.0031132763
UncalAccel,1676592323400,119827031296215,3.6167514,1.9579271,8.066205,0.006110925,-0.043260336,-0.038735468
OrientationDeg,1676592323401,119827031296215,131.0,-23.0,-9.0
UncalMag,1676592323407,119827037875988,-78.1288,-20.3496,-96.502,-47.646854,1.2478232,-64.42538
UncalGyro,1676592323410,119827040274486,0.58184916,-0.5884159,1.066418,0.0006130879,-0.0007338356,-0.0031132763
UncalAccel,1676592323409,119827040274486,3.475575,1.7383857,7.3974113,0.006110925,-0.043260336,-0.038735468
OrientationDeg,1676592323409,119827040274486,130.0,-24.0,-9.0
UncalMag,1676592323417,119827047875988,-79.2756,-20.7766,-95.184395,-47.646854,1.2478232,-64.42538
UncalGyro,1676592323419,119827049256420,0.48472157,-0.49388456,1.0827587,0.0006130879,-0.0007338356,-0.0031132763
UncalAccel,1676592323418,119827049256420,3.5042887,1.3351951,6.665806,0.006110925,-0.043260336,-0.038735468
OrientationDeg,1676592323418,119827049256420,129.0,-24.0,-9.0
UncalMag,1676592323427,119827057875988,-78.201996,-19.666399,-94.403595,-47.646854,1.2478232,-64.42538
UncalGyro,1676592323427,119827058236766,0.36193767,-0.41996986,1.1151345,0.0006130879,-0.0007338356,-0.0031132763
UncalAccel,1676592323428,119827058236766,3.6017964,0.9601201,6.693323,0.006110925,-0.043260336,-0.038735468
OrientationDeg,1676592323428,119827058236766,129.0,-25.0,-9.0
UncalGyro,1676592323436,119827067217174,0.26832256,-0.34101552,1.1542299,0.0006130879,-0.0007338356,-0.0031132763
UncalAccel,1676592323436,119827067217174,3.8985064,0.8775677,7.218548,0.006110925,-0.043260336,-0.038735468
UncalMag,1676592323436,119827067864513,-78.8974,-19.764,-94.7696,-47.646854,1.2478232,-64.42538
OrientationDeg,1676592323436,119827067217174,128.0,-25.0,-9.0
UncalGyro,1676592323445,119827076201244,0.21594086,-0.26832256,1.1775955,0.0006130879,-0.0007338356,-0.0031132763
UncalAccel,1676592323445,119827076201244,4.176672,1.0671989,7.210771,0.006110925,-0.043260336,-0.038735468
UncalMag,1676592323446,119827077876232,-79.4098,-18.8612,-95.318596,-47.646854,1.2478232,-64.42538
OrientationDeg,1676592323445,119827076201244,128.0,-25.0,-9.0
UncalGyro,1676592323454,119827085177135,0.19425514,-0.28053987,1.2034045,0.0006130879,-0.0007338356,-0.0031132763
UncalAccel,1676592323454,119827085177135,3.95055,1.0253245,6.585646,0.006110925,-0.043260336,-0.038735468
OrientationDeg,1676592323454,119827085177135,127.0,-25.0,-9.0
UncalMag,1676592323456,119827087876232,-81.178795,-19.3248,-96.8436,-47.646854,1.2478232,-64.42538
UncalGyro,1676592323463,119827094156994,0.17913623,-0.40011674,1.2779301,0.0006130879,-0.0007338356,-0.0031132763
