# 
# Header Description:
# 
# Version: v3.0.5.6 Platform: 13 Manufacturer: Google Model: Pixel 7
# 
# Raw,utcTimeMillis,TimeNanos,LeapSecond,TimeUncertaintyNanos,FullBiasNanos,BiasNanos,BiasUncertaintyNanos,DriftNanosPerSecond,DriftUncertaintyNanosPerSecond,HardwareClockDiscontinuityCount,Svid,TimeOffsetNanos,State,ReceivedSvTimeNanos,ReceivedSvTimeUncertaintyNanos,Cn0DbHz,PseudorangeRateMetersPerSecond,PseudorangeRateUncertaintyMetersPerSecond,AccumulatedDeltaRangeState,AccumulatedDeltaRangeMeters,AccumulatedDeltaRangeUncertaintyMeters,CarrierFrequencyHz,CarrierCycles,CarrierPhase,CarrierPhaseUncertainty,MultipathIndicator,SnrInDb,ConstellationType,AgcDb,BasebandCn0DbHz,FullInterSignalBiasNanos,FullInterSignalBiasUncertaintyNanos,SatelliteInterSignalBiasNanos,SatelliteInterSignalBiasUncertaintyNanos,CodeType,ChipsetElapsedRealtimeNanos
# 
# UncalAccel,utcTimeMillis,elapsedRealtimeNanos,UncalAccelXMps2,UncalAccelYMps2,UncalAccelZMps2,BiasXMps2,BiasYMps2,BiasZMps2
# 
# Accel,utcTimeMillis,elapsedRealtimeNanos,AccelXMps2,AccelYMps2,AccelZMps2
# 
# UncalGyro,utcTimeMillis,elapsedRealtimeNanos,UncalGyroXRadPerSec,UncalGyroYRadPerSec,UncalGyroZRadPerSec,DriftXRadPerSec,DriftYRadPerSec,DriftZRadPerSec
# 
# Gyro,utcTimeMillis,elapsedRealtimeNanos,GyroXRadPerSec,GyroYRadPerSec,GyroZRadPerSec
# 
# UncalMag,utcTimeMillis,elapsedRealtimeNanos,UncalMagXMicroT,UncalMagYMicroT,UncalMagZMicroT,BiasXMicroT,BiasYMicroT,BiasZMicroT
# 
# Mag,utcTimeMillis,elapsedRealtimeNanos,MagXMicroT,MagYMicroT,MagZMicroT
# 
# OrientationDeg,utcTimeMillis,elapsedRealtimeNanos,yawDeg,rollDeg,pitchDeg
# 
# Fix,Provider,LatitudeDegrees,LongitudeDegrees,AltitudeMeters,SpeedMps,AccuracyMeters,BearingDegrees,UnixTimeMillis,SpeedAccuracyMps,BearingAccuracyDegrees,elapsedRealtimeNanos,VerticalAccuracyMeters
# 
# Nav,Svid,Type,Status,MessageId,Sub-messageId,Data(Bytes)
# 
# Status,UnixTimeMillis,SignalCount,SignalIndex,ConstellationType,Svid,CarrierFrequencyHz,Cn0DbHz,AzimuthDegrees,ElevationDegrees,UsedInFix,HasAlmanacData,HasEphemerisData,BasebandCn0DbHz
# 
UncalAccel,1676591802859,28859681772983,-0.45403808,2.0901306,8.993423,0.037048545,-0.031444572,0.0098014325
UncalAccel,1676591802867,28859689421136,-0.5401797,1.9794625,9.022138,0.037048545,-0.031444572,0.0098014325
UncalMag,1676591802872,28859694842564,-159.149,742.4432,399.6842,-174.57417,771.0116,430.86337
UncalAccel,1676591802875,28859697913568,-0.6406783,1.8735801,9.169894,0.037048545,-0.031444572,0.0098014325
UncalGyro,1676591802880,28859702236656,0.09117164,0.11346822,-0.073303826,-0.00043992078,-0.0016501413,-0.00043734472
UncalMag,1676591802882,28859704846552,-159.1856,741.9186,399.6842,-174.57417,771.0116,430.86337
UncalAccel,1676591802884,28859706391472,-0.78065836,1.8293129,9.303294,0.037048545,-0.031444572,0.0098014325
UncalGyro,1676591802888,28859710629564,0.11530081,0.12339478,-0.088422745,-0.0004399208,-0.0016501413,-0.00043734472
UncalMag,1676591802892,28859714846959,-158.8684,741.8332,399.1596,-174.57417,771.0116,430.86337
UncalAccel,1676591802892,28859714864821,-0.9523434,1.7946169,9.326026,0.037048545,-0.031444572,0.0098014325
UncalGyro,1676591802897,28859719116347,0.1469131,0.12461651,-0.10552697,-0.0004399208,-0.0016501413,-0.00043734472
UncalAccel,1676591802901,28859723348169,-1.0869397,1.7599211,9.425926,0.037048545,-0.031444572,0.0098014325
UncalMag,1676591802902,28859724836176,-159.1856,741.9186,399.6842,-174.57417,771.0116,430.86337
UncalGyro,1676591802905,28859727579614,0.17379116,0.13118331,-0.112704635,-0.0004399208,-0.0016501413,-0.00043734472
UncalAccel,1676591802909,28859731819473,-1.1880364,1.7545372,9.544372,0.037048545,-0.031444572,0.0098014325
UncalMag,1676591802912,28859734836177,-158.9782,741.7478,399.6354,-174.57417,771.0116,430.86337
UncalGyro,1676591802914,28859736058233,0.19074267,0.13164146,-0.10873401,-0.0004399208,-0.0016501413,-0.00043734472
UncalAccel,1676591802918,28859740303095,-1.2747762,1.7874385,9.529416,0.037048545,-0.031444572,0.0098014325
UncalGyro,1676591802922,28859744539617,0.19364429,0.10323623,-0.09468412,-0.0004399208,-0.0016501413,-0.00043734472
UncalMag,1676591802922,28859744829626,-158.5634,741.8698,400.37958,-174.57417,771.0116,430.86337
UncalAccel,1676591802926,28859748778864,-1.4081762,1.8011973,9.47139,0.037048545,-0.031444572,0.0098014325
UncalGyro,1676591802931,28859753022965,0.18203785,0.04795292,-0.07452556,-0.0004399208,-0.0016501413,-0.00043734472
UncalMag,1676591802932,28859754836421,-158.4536,741.9552,400.2698,-174.57417,771.0116,430.86337
UncalAccel,1676591802935,28859757258356,-1.5756737,1.8622142,9.488738,0.037048545,-0.031444572,0.0098014325
OrientationDeg,1676591802935,28859757258356,207.0,7.0,-11.0
UncalGyro,1676591802939,28859761501205,0.15042557,-0.019089539,-0.055741455,-0.0004399208,-0.0016501413,-0.00043734472
UncalMag,1676591802942,28859764846716,-158.6854,741.6136,400.6846,-174.57417,771.0116,430.86337
UncalAccel,1676591802943,28859765750982,-1.6719848,1.9477576,9.482756,0.037048545,-0.031444572,0.0098014325
UncalGyro,1676591802947,28859769991542,0.099265605,-0.08750644,-0.038026363,-0.0004399208,-0.0016501413,-0.00043734472
OrientationDeg,1676591802943,28859765750982,207.0,6.0,-11.0
UncalAccel,1676591802952,28859774228349,-1.7210377,2.0195422,9.563514,0.037048545,-0.031444572,0.0098014325
OrientationDeg,1676591802952,28859774228349,207.0,6.0,-11.0
UncalMag,1676591802952,28859774842200,-158.3926,741.2842,401.07498,-174.57417,771.0116,430.86337
UncalGyro,1676591802956,28859778468379,0.038331795,-0.13637567,-0.025503624,-0.0004399208,-0.0016501413,-0.00043734472
UncalAccel,1676591802960,28859782697109,-1.7641085,2.0620148,9.59163,0.037048545,-0.031444572,0.0098014325
OrientationDeg,1676591802960,28859782697109,207.0,6.0,-11.0
UncalMag,1676591802962,28859784846717,-158.4902,741.3452,400.12338,-174.57417,771.0116,430.86337
UncalGyro,1676591802964,28859786947942,-0.01863139,-0.17073683,-0.015271631,-0.0004399208,-0.0016501413,-0.00043734472
UncalAccel,1676591802969,28859791186011,-1.7593229,2.0141585,9.615558,0.037048545,-0.031444572,0.0098014325
OrientationDeg,1676591802969,28859791186011,207.0,6.0,-11.0
UncalMag,1676591802972,28859794846514,-158.0632,741.5404,400.77,-174.57417,771.0116,430.86337
UncalGyro,1676591802973,28859795430040,-0.06505715,-0.19165897,0.0010690142,-0.0004399208,-0.0016501413,-0.00043734472
UncalAccel,1676591802977,28859799662532,-1.7790636,1.8891335,9.745368,0.037048545,-0.031444572,0.0098014325
OrientationDeg,1676591802977,28859799662532,207.0,6.0,-11.0
UncalGyro,1676591802981,28859803895351,-0.089949906,-0.19333886,0.022296581,-0.0004399208,-0.0016501413,-0.00043734472
UncalMag,1676591802982,28859804835934,-158.46579,741.68677,400.2088,-174.57417,771.0116,430.86337
UncalAccel,1676591802986,28859808144649,-1.8275183,1.8167506,9.88834,0.037048545,-0.031444572,0.0098014325
OrientationDeg,1676591802986,28859808144649,207.0,6.0,-11.0
UncalGyro,1676591802990,28859812385414,-0.09117164,-0.2012801,0.04550946,-0.0004399208,-0.0016501413,-0.00043734472
Fix,NLP,37.4324857000,-122.1539119000,-15.700000762939453,,64.821,,1676591481391,,,28538213000000,7.6510344
UncalMag,1676591802992,28859814846595,-158.9904,741.699,400.831,-174.57417,771.0116,430.86337
UncalAccel,1676591802994,28859816626929,-1.9046868,1.753939,10.016953,0.037048545,-0.031444572,0.0098014325
OrientationDeg,1676591802994,28859816626929,207.0,6.0,-11.0
UncalGyro,1676591802998,28859820865739,-0.07284568,-0.21884248,0.06994407,-0.0004399208,-0.0016501413,-0.00043734472
UncalMag,1676591803002,28859824846758,-158.7708,741.8698,400.6236,-174.57417,771.0116,430.86337
UncalAccel,1676591803003,28859825106147,-1.80359,1.7210377,9.936794,0.037048545,-0.031444572,0.0098014325
OrientationDeg,1676591803003,28859825106147,207.0,6.0,-11.0
UncalGyro,1676591803007,28859829353685,-0.042760566,-0.26007587,0.106137834,-0.0004399208,-0.0016501413,-0.00043734472
UncalAccel,1676591803011,28859833579516,-1.855634,1.6151553,9.97508,0.037048545,-0.031444572,0.0098014325
UncalMag,1676591803012,28859834836423,-158.4536,741.8698,400.1356,-174.57417,771.0116,430.86337
OrientationDeg,1676591803011,28859833579516,207.0,6.0,-11.0
UncalGyro,1676591803015,28859837823411,-0.01282817,-0.29016098,0.13881913,-0.0004399208,-0.0016501413,-0.00043734472
UncalAccel,1676591803020,28859842059516,-1.9375881,1.5284154,10.137193,0.037048545,-0.031444572,0.0098014325
OrientationDeg,1676591803020,28859842059516,207.0,6.0,-11.0
UncalMag,1676591803022,28859844858437,-159.07579,742.0284,400.3064,-174.57417,771.0116,430.86337
UncalGyro,1676591803024,28859846303575,0.023518313,-0.3031419,0.17119499,-0.0004399208,-0.0016501413,-0.00043734472
UncalAccel,1676591803028,28859850542426,-1.8233309,1.5625132,10.1904335,0.037048545,-0.031444572,0.0098014325
Fix,FLP,37.4324857000,-122.1539119000,-16.100000381469727,,64.821,,1676591481391,,,28538213000000,12.008806
OrientationDeg,1676591803028,28859850542426,207.0,5.0,-11.0
UncalGyro,1676591803032,28859854779254,0.07971791,-0.31322116,0.21059579,-0.0004399208,-0.0016501413,-0.00043734472
UncalMag,1676591803032,28859854836302,-158.0632,741.3452,400.12338,-174.57417,771.0116,430.86337
UncalAccel,1676591803037,28859859010628,-1.6713866,1.5726827,10.310673,0.037048545,-0.031444572,0.0098014325
OrientationDeg,1676591803037,28859859010628,207.0,5.0,-11.0
UncalGyro,1676591803041,28859863262205,0.16737708,-0.31215215,0.25671613,-0.0004399208,-0.0016501413,-0.00043734472
UncalMag,1676591803042,28859864846597,-158.0632,741.3452,400.12338,-174.57417,771.0116,430.86337
UncalAccel,1676591803045,28859867497739,-1.6079768,1.8652053,10.586446,0.037048545,-0.031444572,0.0098014325
OrientationDeg,1676591803045,28859867497739,207.0,5.0,-11.0
UncalGyro,1676591803049,28859871733772,0.29703322,-0.28328875,0.28680122,-0.0004399208,-0.0016501413,-0.00043734472
UncalMag,1676591803052,28859874836262,-159.027,741.0768,400.3186,-174.57417,771.0116,430.86337
UncalAccel,1676591803053,28859875982674,-1.3447664,1.8753748,11.160723,0.037048545,-0.031444572,0.0098014325
OrientationDeg,1676591803053,28859875982674,206.0,5.0,-11.0
UncalGyro,1676591803058,28859880212695,0.44593164,-0.2134974,0.33643404,-0.0004399208,-0.0016501413,-0.00043734472
UncalAccel,1676591803062,28859884451272,-1.0175478,1.6618153,11.0398855,0.037048545,-0.031444572,0.0098014325
UncalMag,1676591803062,28859884830728,-159.9664,741.13776,400.2332,-174.57417,771.0116,430.86337
OrientationDeg,1676591803062,28859884451272,206.0,5.0,-11.0
UncalGyro,1676591803066,28859888700997,0.6177375,-0.1956296,0.39904773,-0.0004399208,-0.0016501413,-0.00043734472
UncalAccel,1676591803070,28859892933267,-1.0468599,1.5379868,10.567902,0.037048545,-0.031444572,0.0098014325
OrientationDeg,1676591803070,28859892933267,206.0,5.0,-12.0
UncalMag,1676591803072,28859894846760,-160.5154,740.7108,400.8798,-174.57417,771.0116,430.86337
UncalGyro,1676591803075,28859897182930,0.8042041,-0.25625798,0.4474588,-0.0004399208,-0.0016501413,-0.00043734472
UncalAccel,1676591803079,28859901416838,-1.0731809,1.1066805,10.607981,0.037048545,-0.031444572,0.0098014325
OrientationDeg,1676591803079,28859901416838,206.0,4.0,-12.0
UncalMag,1676591803082,28859904846923,-160.5154,740.7108,400.75778,-174.57417,771.0116,430.86337
UncalGyro,1676591803083,28859905658121,0.9521862,-0.33185256,0.53038377,-0.0004399208,-0.0016501413,-0.00043734472
UncalAccel,1676591803088,28859909897084,-1.1760724,0.7268199,11.162518,0.037048545,-0.031444572,0.0098014325
OrientationDeg,1676591803087,28859909897084,206.0,4.0,-13.0
UncalGyro,1676591803092,28859914137969,1.0325149,-0.36758816,0.6516405,-0.0004399208,-0.0016501413,-0.00043734472
UncalMag,1676591803093,28859914836018,-160.9668,739.99097,400.3552,-174.57417,771.0116,430.86337
UncalAccel,1676591803096,28859918377725,-1.3621143,0.8452646,11.017752,0.037048545,-0.031444572,0.0098014325
OrientationDeg,1676591803096,28859918377725,205.0,4.0,-13.0
UncalGyro,1676591803100,28859922614989,1.0751228,-0.44730607,0.7812967,-0.0004399208,-0.0016501413,-0.00043734472
UncalMag,1676591803102,28859924835937,-161.8086,740.0764,400.75778,-174.57417,771.0116,430.86337
UncalAccel,1676591803104,28859926845732,-1.4793626,1.3489537,10.356136,0.037048545,-0.031444572,0.0098014325
OrientationDeg,1676591803104,28859926845732,205.0,4.0,-14.0
UncalGyro,1676591803109,28859931097869,1.0997101,-0.65057147,0.9120218,-0.0004399208,-0.0016501413,-0.00043734472
UncalMag,1676591803112,28859934846680,-162.0526,739.44196,400.3674,-174.57417,771.0116,430.86337
UncalAccel,1676591803113,28859935335683,-1.6313069,1.9860427,9.812367,0.037048545,-0.031444572,0.0098014325
OrientationDeg,1676591803113,28859935335683,204.0,3.0,-14.0
UncalGyro,1676591803117,28859939578999,1.1279627,-0.9462303,1.0467176,-0.0004399208,-0.0016501413,-0.00043734472
UncalAccel,1676591803121,28859943814809,-1.8646071,2.5268207,9.292527,0.037048545,-0.031444572,0.0098014325
UncalMag,1676591803122,28859944836223,-162.0648,739.2224,401.4044,-174.57417,771.0116,430.86337
OrientationDeg,1676591803121,28859943814809,204.0,2.0,-15.0
UncalGyro,1676591803126,28859948055490,1.2096659,-1.2501358,1.1899655,-0.0004399208,-0.0016501413,-0.00043734472
UncalAccel,1676591803130,28859952294576,-1.9387846,2.8002007,8.718249,0.037048545,-0.031444572,0.0098014325
OrientationDeg,1676591803130,28859952294576,203.0,2.0,-15.0
UncalMag,1676591803132,28859954835979,-162.65039,738.2464,401.3068,-174.57417,771.0116,430.86337
UncalGyro,1676591803134,28859956535329,1.3768903,-1.5503759,1.3464997,-0.0004399208,-0.0016501413,-0.00043734472
UncalAccel,1676591803138,28859960773275,-1.747957,3.0083764,7.9926257,0.037048545,-0.031444572,0.0098014325
OrientationDeg,1676591803138,28859960773275,203.0,0.0,-16.0
UncalMag,1676591803142,28859964846681,-164.2486,737.8072,402.45358,-174.57417,771.0116,430.86337
UncalGyro,1676591803143,28859965011526,1.6377298,-1.8478674,1.5609134,-0.0004399208,-0.0016501413,-0.00043734472
UncalAccel,1676591803147,28859969250570,-0.16510476,2.036292,8.088937,0.037048545,-0.031444572,0.0098014325
OrientationDeg,1676591803147,28859969250570,202.0,0.0,-17.0
UncalGyro,1676591803151,28859973493979,1.9101756,-2.0195205,1.9874501,-0.0004399208,-0.0016501413,-0.00043734472
UncalMag,1676591803152,28859974846559,-165.6272,737.44116,402.7586,-174.57417,771.0116,430.86337
UncalAccel,1676591803155,28859977736501,-0.119042926,2.7158537,8.472386,0.037048545,-0.031444572,0.0098014325
OrientationDeg,1676591803155,28859977736501,201.0,-1.0,-18.0
UncalGyro,1676591803159,28859981987784,2.1835377,-2.0389154,2.3263276,-0.0004399208,-0.0016501413,-0.00043734472
UncalMag,1676591803162,28859984846518,-166.7374,736.48956,403.77118,-174.57417,771.0116,430.86337
UncalAccel,1676591803164,28859986211822,-0.008973085,3.345166,8.078768,0.037048545,-0.031444572,0.0098014325
OrientationDeg,1676591803164,28859986211822,199.0,-3.0,-19.0
UncalGyro,1676591803168,28859990452780,2.4541512,-2.022422,2.50806,-0.0004399208,-0.0016501413,-0.00043734472
UncalAccel,1676591803172,28859994687999,-0.21774685,3.626921,7.655836,0.037048545,-0.031444572,0.0098014325
UncalMag,1676591803172,28859994848309,-168.23799,735.85516,403.9054,-174.57417,771.0116,430.86337
OrientationDeg,1676591803172,28859994687999,198.0,-4.0,-20.0
UncalGyro,1676591803176,28859998930553,2.6306913,-2.025171,2.5358543,-0.0004399208,-0.0016501413,-0.00043734472
UncalAccel,1676591803181,28860003160066,-0.57487565,4.0414777,7.7946196,0.037048545,-0.031444572,0.0098014325
OrientationDeg,1676591803181,28860003160066,196.0,-5.0,-22.0
UncalMag,1676591803182,28860004846682,-169.7874,734.3912,405.52798,-174.57417,771.0116,430.86337
UncalGyro,1676591803185,28860007411480,2.6190848,-2.0680842,2.3642013,-0.0004399208,-0.0016501413,-0.00043734472
UncalAccel,1676591803189,28860011650005,-1.7760726,5.4317074,8.13799,0.037048545,-0.031444572,0.0098014325
OrientationDeg,1676591803189,28860011650005,195.0,-7.0,-23.0
UncalMag,1676591803192,28860014846763,-171.20259,733.586,405.73538,-174.57417,771.0116,430.86337
UncalGyro,1676591803193,28860015893618,2.2977695,-2.2386684,1.8127426,-0.0004399208,-0.0016501413,-0.00043734472
UncalAccel,1676591803199,28860020129823,-1.7587247,5.809175,8.809176,0.037048545,-0.031444572,0.0098014325
OrientationDeg,1676591803198,28860020129823,194.0,-8.0,-24.0
UncalGyro,1676591803202,28860024371116,1.7235563,-2.40574,1.1136073,-0.0004399208,-0.0016501413,-0.00043734472
UncalMag,1676591803202,28860024829307,-172.3982,732.915,407.175,-174.57417,771.0116,430.86337
UncalAccel,1676591803206,28860028609214,0.27756742,5.5908303,9.720243,0.037048545,-0.031444572,0.0098014325
UncalGyro,1676591803210,28860032847902,1.0856602,-2.405282,0.581391,-0.0004399208,-0.0016501413,-0.00043734472
OrientationDeg,1676591803206,28860028609214,194.0,-10.0,-24.0
UncalMag,1676591803212,28860034846601,-173.1546,732.5368,406.8578,-174.57417,771.0116,430.86337
UncalAccel,1676591803215,28860037077495,1.6151553,5.212166,8.904889,0.037048545,-0.031444572,0.0098014325
OrientationDeg,1676591803215,28860037077495,194.0,-11.0,-24.0
UncalGyro,1676591803219,28860041329276,0.46074513,-2.3706152,0.2574797,-0.0004399208,-0.0016501413,-0.00043734472
UncalMag,1676591803222,28860044845625,-174.216,732.2806,407.5532,-174.57417,771.0116,430.86337
UncalAccel,1676591803223,28860045567833,2.6805596,4.9579287,7.385447,0.037048545,-0.031444572,0.0098014325
OrientationDeg,1676591803223,28860045567833,193.0,-12.0,-24.0
UncalGyro,1676591803227,28860049811281,-0.06169739,-2.3208299,0.16966783,-0.0004399208,-0.0016501413,-0.00043734472
UncalAccel,1676591803232,28860054047162,3.7034912,5.047061,6.747162,0.037048545,-0.031444572,0.0098014325
OrientationDeg,1676591803232,28860054047162,193.0,-13.0,-24.0
UncalMag,1676591803232,28860054837731,-174.9968,733.0492,407.5166,-174.57417,771.0116,430.86337
UncalGyro,1676591803236,28860058287650,-0.47128254,-2.2102633,0.21838433,-0.0004399208,-0.0016501413,-0.00043734472
UncalAccel,1676591803240,28860062526777,4.2245283,5.4616175,7.1162543,0.037048545,-0.031444572,0.0098014325
UncalMag,1676591803242,28860064846764,-175.7166,733.19556,407.21158,-174.57417,771.0116,430.86337
OrientationDeg,1676591803240,28860062526777,193.0,-15.0,-24.0
UncalGyro,1676591803244,28860066765556,-0.8402451,-1.984243,0.26236662,-0.0004399208,-0.0016501413,-0.00043734472
UncalAccel,1676591803248,28860070995446,4.0145583,5.799604,7.4709907,0.037048545,-0.031444572,0.0098014325
UncalMag,1676591803252,28860074846561,-175.314,733.1224,407.419,-174.57417,771.0116,430.86337
UncalGyro,1676591803253,28860075244246,-1.2479976,-1.7073684,0.19532417,-0.0004399208,-0.0016501413,-0.00043734472
OrientationDeg,1676591803248,28860070995446,193.0,-15.0,-23.0
UncalAccel,1676591803257,28860079474673,3.5048869,5.829514,7.753942,0.037048545,-0.031444572,0.0098014325
OrientationDeg,1676591803257,28860079474673,193.0,-16.0,-23.0
UncalGyro,1676591803261,28860083728844,-1.7157677,-1.4004086,-0.0154243475,-0.0004399208,-0.0016501413,-0.00043734472
UncalMag,1676591803262,28860084842452,-175.8142,733.3298,406.0282,-174.57417,771.0116,430.86337
UncalAccel,1676591803265,28860087964734,3.165106,5.6596236,7.943573,0.037048545,-0.031444572,0.0098014325
OrientationDeg,1676591803265,28860087964734,194.0,-17.0,-22.0
UncalGyro,1676591803270,28860092206699,-2.1843014,-1.0305296,-0.34238997,-0.0004399208,-0.0016501413,-0.00043734472
UncalMag,1676591803272,28860094846643,-177.022,734.1716,405.65,-174.57417,771.0116,430.86337
UncalAccel,1676591803274,28860096441084,3.1369905,5.477171,8.001599,0.037048545,-0.031444572,0.0098014325
OrientationDeg,1676591803274,28860096441084,195.0,-17.0,-21.0
UncalGyro,1676591803278,28860100685866,-2.602744,-0.6262896,-0.6618725,-0.0004399208,-0.0016501413,-0.00043734472
UncalMag,1676591803282,28860104846562,-176.65599,734.928,404.369,-174.57417,771.0116,430.86337
UncalAccel,1676591803282,28860104926691,3.49053,4.996214,7.7533436,0.037048545,-0.031444572,0.0098014325
OrientationDeg,1676591803282,28860104926691,195.0,-17.0,-20.0
UncalGyro,1676591803287,28860109177758,-2.9599476,-0.32910365,-0.90469146,-0.0004399208,-0.0016501413,-0.00043734472
UncalAccel,1676591803291,28860113402531,3.6370904,4.3992043,7.1509504,0.037048545,-0.031444572,0.0098014325
OrientationDeg,1676591803291,28860113402531,196.0,-16.0,-18.0
UncalMag,1676591803292,28860114837203,-176.68039,736.1846,402.97818,-174.57417,771.0116,430.86337
UncalGyro,1676591803295,28860117643620,-3.1925344,-0.2507602,-1.0957395,-0.0004399208,-0.0016501413,-0.00043734472
UncalAccel,1676591803299,28860121878076,3.1567314,4.3058844,6.8333035,0.037048545,-0.031444572,0.0098014325
OrientationDeg,1676591803299,28860121878076,197.0,-16.0,-17.0
UncalMag,1676591803302,28860124846929,-176.4608,736.3432,402.4048,-174.57417,771.0116,430.86337
UncalGyro,1676591803304,28860126118331,-3.265991,-0.27076602,-1.2666291,-0.0004399208,-0.0016501413,-0.00043734472
UncalAccel,1676591803307,28860130362075,2.5956144,4.4021955,6.9822564,0.037048545,-0.031444572,0.0098014325
OrientationDeg,1676591803308,28860130362075,199.0,-16.0,-16.0
UncalGyro,1676591803311,28860134603378,-3.1908545,-0.36163223,-1.4033102,-0.0004399208,-0.0016501413,-0.00043734472
UncalMag,1676591803312,28860134843999,-175.54579,737.6242,400.8798,-174.57417,771.0116,430.86337
UncalAccel,1676591803316,28860138842371,2.3042881,4.0504503,7.158727,0.037048545,-0.031444572,0.0098014325
OrientationDeg,1676591803316,28860138842371,200.0,-16.0,-14.0
UncalGyro,1676591803321,28860143079147,-3.0083587,-0.4792238,-1.4805846,-0.0004399208,-0.0016501413,-0.00043734472
UncalMag,1676591803322,28860144836106,-175.2164,739.4298,399.611,-174.57417,771.0116,430.86337
UncalAccel,1676591803325,28860147309667,2.4622145,3.5144582,7.472785,0.037048545,-0.031444572,0.0098014325
OrientationDeg,1676591803325,28860147309667,201.0,-16.0,-13.0
UncalGyro,1676591803329,28860151560491,-2.7508788,-0.57864213,-1.4778358,-0.0004399208,-0.0016501413,-0.00043734472
UncalMag,1676591803332,28860154836513,-175.59459,740.0032,398.7814,-174.57417,771.0116,430.86337
UncalAccel,1676591803333,28860155794480,2.620739,2.9449666,7.8442707,0.037048545,-0.031444572,0.0098014325
OrientationDeg,1676591803333,28860155794480,202.0,-16.0,-12.0
UncalGyro,1676591803338,28860160033900,-2.4518604,-0.61453044,-1.3942999,-0.0004399208,-0.0016501413,-0.00043734472
UncalAccel,1676591803342,28860164279668,2.7828526,2.5094728,8.205587,0.037048545,-0.031444572,0.0098014325
UncalMag,1676591803342,28860164835984,-174.91139,740.9548,398.147,-174.57417,771.0116,430.86337
OrientationDeg,1676591803342,28860164279668,203.0,-16.0,-11.0
UncalGyro,1676591803346,28860168521703,-2.1303926,-0.5540548,-1.2521211,-0.0004399208,-0.0016501413,-0.00043734472
UncalAccel,1676591803350,28860172761165,2.9012976,2.2606192,8.550752,0.037048545,-0.031444572,0.0098014325
OrientationDeg,1676591803350,28860172761165,204.0,-16.0,-11.0
UncalMag,1676591803352,28860174846849,-174.75279,741.821,397.8664,-174.57417,771.0116,430.86337
UncalGyro,1676591803354,28860176996790,-1.7838793,-0.40973786,-1.082606,-0.0004399208,-0.0016501413,-0.00043734472
UncalAccel,1676591803359,28860181224513,2.928815,2.179263,8.733205,0.037048545,-0.031444572,0.0098014325
OrientationDeg,1676591803359,28860181224513,204.0,-16.0,-10.0
UncalMag,1676591803362,28860184846767,-174.5332,742.065,397.0734,-174.57417,771.0116,430.86337
UncalGyro,1676591803363,28860185468268,-1.4046847,-0.24984388,-0.89919364,-0.0004399208,-0.0016501413,-0.00043734472
UncalAccel,1676591803368,28860189717586,3.010171,2.030908,8.810373,0.037048545,-0.031444572,0.0098014325
OrientationDeg,1676591803367,28860189717586,205.0,-16.0,-10.0
UncalGyro,1676591803371,28860193960903,-1.0076222,-0.1217149,-0.70829827,-0.0004399208,-0.0016501413,-0.00043734472
UncalMag,1676591803372,28860194836229,-174.582,742.8702,397.6224,-174.57417,771.0116,430.86337
UncalAccel,1676591803376,28860198199835,3.1208389,1.7150556,8.946764,0.037048545,-0.031444572,0.0098014325
OrientationDeg,1676591803376,28860198199835,205.0,-16.0,-9.0
UncalGyro,1676591803380,28860202438574,-0.61483586,-0.010995574,-0.5181664,-0.0004399208,-0.0016501413,-0.00043734472
UncalMag,1676591803382,28860204846564,-174.0696,742.6872,397.0856,-174.57417,771.0116,430.86337
UncalAccel,1676591803384,28860206676164,3.1405797,1.480559,9.071789,0.037048545,-0.031444572,0.0098014325
OrientationDeg,1676591803384,28860206676164,206.0,-16.0,-9.0
UncalGyro,1676591803388,28860210914364,-0.24236079,0.101556346,-0.355829,-0.0004399208,-0.0016501413,-0.00043734472
UncalMag,1676591803392,28860214846646,-174.0452,743.1996,396.9636,-174.57417,771.0116,430.86337
UncalAccel,1676591803393,28860215141955,3.0065815,1.4650056,9.02812,0.037048545,-0.031444572,0.0098014325
OrientationDeg,1676591803393,28860215141955,206.0,-16.0,-9.0
UncalGyro,1676591803397,28860219384884,0.094989546,0.17913623,-0.257327,-0.0004399208,-0.0016501413,-0.00043734472
UncalAccel,1676591803401,28860223631314,2.652444,1.6402799,8.967701,0.037048545,-0.031444572,0.0098014325
OrientationDeg,1676591803401,28860223631314,206.0,-16.0,-9.0
UncalMag,1676591803402,28860224836392,-172.9106,742.858,396.134,-174.57417,771.0116,430.86337
UncalGyro,1676591803405,28860227876441,0.37858373,0.22204952,-0.2593123,-0.0004399208,-0.0016501413,-0.00043734472
UncalAccel,1676591803410,28860232114702,2.2091734,1.9579271,9.211769,0.037048545,-0.031444572,0.0098014325
OrientationDeg,1676591803410,28860232114702,206.0,-16.0,-10.0
UncalMag,1676591803412,28860234860400,-174.16719,742.95557,397.2686,-174.57417,771.0116,430.86337
UncalGyro,1676591803414,28860236346747,0.59421915,0.2593123,-0.35934147,-0.0004399208,-0.0016501413,-0.00043734472
UncalAccel,1676591803418,28860240594470,1.8628124,2.2289143,9.274581,0.037048545,-0.031444572,0.0098014325
OrientationDeg,1676591803418,28860240594470,206.0,-15.0,-10.0
UncalGyro,1676591803422,28860244830615,0.73807794,0.23197608,-0.5183192,-0.0004399208,-0.0016501413,-0.00043734472
UncalMag,1676591803422,28860244850797,-174.0574,742.919,396.1706,-174.57417,771.0116,430.86337
UncalAccel,1676591803427,28860249060025,1.5846468,2.3467607,9.257831,0.037048545,-0.031444572,0.0098014325
OrientationDeg,1676591803427,28860249060025,206.0,-15.0,-10.0
UncalGyro,1676591803431,28860253313993,0.80832744,0.15943582,-0.68768156,-0.0004399208,-0.0016501413,-0.00043734472
UncalMag,1676591803432,28860254836230,-173.5938,742.0772,396.927,-174.57417,771.0116,430.86337
UncalAccel,1676591803435,28860257552782,1.486541,2.4514468,9.519247,0.037048545,-0.031444572,0.0098014325
OrientationDeg,1676591803435,28860257552782,206.0,-15.0,-11.0
UncalGyro,1676591803439,28860261797391,0.8126035,0.121256754,-0.8352055,-0.0004399208,-0.0016501413,-0.00043734472
UncalMag,1676591803442,28860264846525,-173.606,741.8088,396.62198,-174.57417,771.0116,430.86337
UncalAccel,1676591803444,28860266029793,1.6995022,2.6488547,9.7298155,0.037048545,-0.031444572,0.0098014325
OrientationDeg,1676591803444,28860266029793,207.0,-15.0,-11.0
UncalGyro,1676591803448,28860270263059,0.7257079,0.035277467,-0.9297369,-0.0004399208,-0.0016501413,-0.00043734472
UncalAccel,1676591803452,28860274511452,1.9968106,2.6063821,10.232906,0.037048545,-0.031444572,0.0098014325
OrientationDeg,1676591803452,28860274511452,207.0,-15.0,-12.0
UncalMag,1676591803452,28860274835987,-172.47139,741.57697,397.0246,-174.57417,771.0116,430.86337
UncalGyro,1676591803456,28860278751157,0.536187,-0.023060163,-0.93324935,-0.0004399208,-0.0016501413,-0.00043734472
UncalAccel,1676591803460,28860282989266,2.2767708,2.5836504,10.597812,0.037048545,-0.031444572,0.0098014325
UncalMag,1676591803462,28860284846770,-172.3616,741.68677,397.537,-174.57417,771.0116,430.86337
OrientationDeg,1676591803460,28860282989266,207.0,-15.0,-12.0
UncalGyro,1676591803465,28860287225624,0.3950771,0.0010690142,-0.8943067,-0.0004399208,-0.0016501413,-0.00043734472
UncalAccel,1676591803469,28860291460152,2.5411777,2.5184457,10.41835,0.037048545,-0.031444572,0.0098014325
OrientationDeg,1676591803469,28860291460152,208.0,-15.0,-12.0
UncalMag,1676591803472,28860294846892,-172.26399,741.5892,397.2686,-174.57417,771.0116,430.86337
UncalGyro,1676591803473,28860295712666,0.29016098,0.011759156,-0.8304713,-0.0004399208,-0.0016501413,-0.00043734472
UncalAccel,1676591803477,28860299950692,2.480759,2.6386852,10.126426,0.037048545,-0.031444572,0.0098014325
OrientationDeg,1676591803477,28860299950692,208.0,-15.0,-13.0
UncalGyro,1676591803482,28860304193888,0.2742785,0.03191771,-0.7787005,-0.0004399208,-0.0016501413,-0.00043734472
UncalMag,1676591803482,28860304830169,-171.532,741.638,398.4642,-174.57417,771.0116,430.86337
UncalAccel,1676591803486,28860308428821,2.3605196,2.6709883,10.206585,0.037048545,-0.031444572,0.0098014325
OrientationDeg,1676591803486,28860308428821,208.0,-15.0,-13.0
UncalGyro,1676591803490,28860312668435,0.33826664,0.10247265,-0.74082685,-0.0004399208,-0.0016501413,-0.00043734472
UncalMag,1676591803492,28860314846527,-171.6418,741.45496,398.1836,-174.57417,771.0116,430.86337
UncalAccel,1676591803494,28860316903369,2.2905295,2.6566312,9.972089,0.037048545,-0.031444572,0.0098014325
OrientationDeg,1676591803494,28860316903369,209.0,-15.0,-13.0
UncalGyro,1676591803499,28860321146494,0.46502116,0.15561792,-0.7144069,-0.0004399208,-0.0016501413,-0.00043734472
UncalMag,1676591803502,28860324846730,-171.54419,741.45496,397.8176,-174.57417,771.0116,430.86337
UncalAccel,1676591803503,28860325377939,2.1595225,2.5752754,9.6376915,0.037048545,-0.031444572,0.0098014325
OrientationDeg,1676591803503,28860325377939,209.0,-14.0,-14.0
UncalGyro,1676591803507,28860329632161,0.6290385,0.15897769,-0.7031059,-0.0004399208,-0.0016501413,-0.00043734472
UncalAccel,1676591803511,28860333867706,1.9076779,2.5980072,9.416355,0.037048545,-0.031444572,0.0098014325
UncalMag,1676591803512,28860334836273,-171.0562,740.784,398.36658,-174.57417,771.0116,430.86337
OrientationDeg,1676591803511,28860333867706,209.0,-14.0,-14.0
UncalGyro,1676591803516,28860338111601,0.8040514,0.112704635,-0.72051555,-0.0004399208,-0.0016501413,-0.00043734472
UncalAccel,1676591803520,28860342345865,1.6205392,2.8456643,9.212965,0.037048545,-0.031444572,0.0098014325
OrientationDeg,1676591803520,28860342345865,210.0,-14.0,-14.0
UncalMag,1676591803522,28860344835948,-170.9708,740.54,398.9156,-174.57417,771.0116,430.86337
UncalGyro,1676591803524,28860346587187,0.9428705,-0.03848451,-0.7528914,-0.0004399208,-0.0016501413,-0.00043734472
UncalAccel,1676591803528,28860350821909,1.3698909,3.0352955,9.396614,0.037048545,-0.031444572,0.0098014325
OrientationDeg,1676591803528,28860350821909,210.0,-14.0,-15.0
UncalMag,1676591803532,28860354848359,-170.7634,740.5278,398.5496,-174.57417,771.0116,430.86337
UncalGyro,1676591803533,28860355050211,1.0042624,-0.2845105,-0.7826711,-0.0004399208,-0.0016501413,-0.00043734472
UncalAccel,1676591803537,28860359300801,1.3196417,2.981457,9.735199,0.037048545,-0.031444572,0.0098014325
OrientationDeg,1676591803537,28860359300801,210.0,-14.0,-16.0
UncalGyro,1676591803541,28860363547038,0.98822725,-0.6027713,-0.8054258,-0.0004399208,-0.0016501413,-0.00043734472
UncalMag,1676591803542,28860364845511,-170.59259,739.8446,398.74478,-174.57417,771.0116,430.86337
UncalAccel,1676591803545,28860367788717,1.1383854,2.879762,9.7681,0.037048545,-0.031444572,0.0098014325
OrientationDeg,1676591803545,28860367788717,210.0,-15.0,-16.0
UncalGyro,1676591803550,28860372027741,0.91690874,-0.96929044,-0.85918194,-0.0004399208,-0.0016501413,-0.00043734472
UncalMag,1676591803552,28860374846976,-171.0318,739.4786,398.79358,-174.57417,771.0116,430.86337
UncalAccel,1676591803554,28860376261282,1.041476,3.0514472,9.780663,0.037048545,-0.031444572,0.0098014325
OrientationDeg,1676591803554,28860376261282,211.0,-15.0,-17.0
UncalGyro,1676591803558,28860380494436,0.82253003,-1.2986995,-0.9957104,-0.0004399208,-0.0016501413,-0.00043734472
UncalAccel,1676591803562,28860384743490,0.9876375,3.3768709,9.7501545,0.037048545,-0.031444572,0.0098014325
OrientationDeg,1676591803562,28860384743490,211.0,-16.0,-17.0
UncalMag,1676591803562,28860384834810,-170.9464,739.1492,399.306,-174.57417,771.0116,430.86337
UncalGyro,1676591803566,28860388984181,0.72127914,-1.543351,-1.2174544,-0.0004399208,-0.0016501413,-0.00043734472
UncalAccel,1676591803571,28860393228984,0.90029955,3.4773695,9.777672,0.037048545,-0.031444572,0.0098014325
OrientationDeg,1676591803571,28860393228984,212.0,-16.0,-18.0
UncalMag,1676591803572,28860394846732,-170.9464,739.1492,399.306,-174.57417,771.0116,430.86337
UncalGyro,1676591803575,28860397477092,0.5991061,-1.6978999,-1.476614,-0.0004399208,-0.0016501413,-0.00043734472
UncalAccel,1676591803580,28860401702678,1.1521441,3.3786657,9.436096,0.037048545,-0.031444572,0.0098014325
OrientationDeg,1676591803579,28860401702678,212.0,-17.0,-18.0
UncalMag,1676591803582,28860404846732,-170.75119,739.1004,400.5016,-174.57417,771.0116,430.86337
UncalGyro,1676591803583,28860405944114,0.47128254,-1.7974709,-1.7185167,-0.0004399208,-0.0016501413,-0.00043734472
UncalAccel,1676591803588,28860410177492,1.4697913,3.2081769,9.3200445,0.037048545,-0.031444572,0.0098014325
OrientationDeg,1676591803588,28860410177492,213.0,-18.0,-19.0
UncalGyro,1676591803592,28860414418560,0.34880406,-1.7701348,-1.9254472,-0.0004399208,-0.0016501413,-0.00043734472
UncalMag,1676591803592,28860414835990,-171.06839,738.9052,399.977,-174.57417,771.0116,430.86337
UncalAccel,1676591803596,28860418660544,1.5427724,3.1226335,9.220742,0.037048545,-0.031444572,0.0098014325
OrientationDeg,1676591803596,28860418660544,214.0,-18.0,-19.0
UncalGyro,1676591803600,28860422899365,0.2454151,-1.6227635,-2.1024454,-0.0004399208,-0.0016501413,-0.00043734472
UncalMag,1676591803602,28860424846651,-170.8488,739.1004,400.2698,-174.57417,771.0116,430.86337
UncalAccel,1676591803605,28860427141796,1.6109679,3.176472,9.0347,0.037048545,-0.031444572,0.0098014325
OrientationDeg,1676591803605,28860427141796,215.0,-18.0,-19.0
UncalGyro,1676591803609,28860431383740,0.17394388,-1.4422529,-2.2351558,-0.0004399208,-0.0016501413,-0.00043734472
UncalMag,1676591803612,28860434846814,-171.0562,739.1126,400.75778,-174.57417,771.0116,430.86337
UncalAccel,1676591803613,28860435630597,1.9250258,3.178865,8.606983,0.037048545,-0.031444572,0.0098014325
OrientationDeg,1676591803613,28860435630597,216.0,-19.0,-20.0
UncalGyro,1676591803617,28860439873893,0.14737125,-1.3326025,-2.2936463,-0.0004399208,-0.0016501413,-0.00043734472
UncalAccel,1676591803622,28860444099286,2.219343,2.672783,8.639884,0.037048545,-0.031444572,0.0098014325
UncalMag,1676591803622,28860444843112,-170.9586,739.1004,400.5138,-174.57417,771.0116,430.86337
OrientationDeg,1676591803622,28860444099286,217.0,-19.0,-20.0
UncalGyro,1676591803626,28860448338462,0.16676621,-1.2455542,-2.2747095,-0.0004399208,-0.0016501413,-0.00043734472
UncalAccel,1676591803630,28860452575615,2.2354946,2.1984057,8.704491,0.037048545,-0.031444572,0.0098014325
OrientationDeg,1676591803630,28860452575615,218.0,-19.0,-21.0
UncalMag,1676591803632,28860454837456,-169.4702,739.35657,399.1962,-174.57417,771.0116,430.86337
UncalGyro,1676591803634,28860456819287,0.23793201,-1.1794281,-2.2282836,-0.0004399208,-0.0016501413,-0.00043734472
UncalAccel,1676591803639,28860461058027,1.8023937,1.9088743,8.617152,0.037048545,-0.031444572,0.0098014325
OrientationDeg,1676591803639,28860461058027,220.0,-19.0,-21.0
UncalMag,1676591803642,28860464840590,-169.79959,739.0882,399.26938,-174.57417,771.0116,430.86337
UncalGyro,1676591803643,28860465296064,0.355829,-1.1635456,-2.223244,-0.0004399208,-0.0016501413,-0.00043734472
UncalAccel,1676591803647,28860469526654,1.16351,1.8717855,8.346166,0.037048545,-0.031444572,0.0098014325
OrientationDeg,1676591803647,28860469526654,221.0,-20.0,-22.0
UncalGyro,1676591803651,28860473776227,0.5169447,-1.2127203,-2.2850943,-0.0004399208,-0.0016501413,-0.00043734472
UncalMag,1676591803652,28860474846937,-169.9094,739.1858,399.6598,-174.57417,771.0116,430.86337
UncalAccel,1676591803656,28860478017133,0.7393822,1.7784654,8.239086,0.037048545,-0.031444572,0.0098014325
OrientationDeg,1676591803656,28860478017133,222.0,-20.0,-23.0
UncalGyro,1676591803660,28860482260206,0.68523806,-1.2646438,-2.3930645,-0.0004399208,-0.0016501413,-0.00043734472
UncalMag,1676591803662,28860484846571,-169.2994,738.8564,399.80618,-174.57417,771.0116,430.86337
UncalAccel,1676591803664,28860486496687,0.74895346,1.6007984,8.373683,0.037048545,-0.031444572,0.0098014325
OrientationDeg,1676591803664,28860486496687,223.0,-20.0,-23.0
UncalGyro,1676591803668,28860490737125,0.80771655,-1.2140946,-2.5025623,-0.0004399208,-0.0016501413,-0.00043734472
UncalMag,1676591803672,28860494846572,-168.4698,738.7954,400.37958,-174.57417,771.0116,430.86337
UncalAccel,1676591803672,28860494976017,1.4859428,1.1150553,9.239884,0.037048545,-0.031444572,0.0098014325
OrientationDeg,1676591803672,28860494976017,224.0,-20.0,-24.0
UncalGyro,1676591803677,28860499214705,0.7877107,-0.9082039,-2.4733934,-0.0004399208,-0.0016501413,-0.00043734472
UncalAccel,1676591803681,28860503444645,2.25703,0.6155536,10.125827,0.037048545,-0.031444572,0.0098014325
UncalMag,1676591803682,28860504836155,-168.1526,738.893,400.2698,-174.57417,771.0116,430.86337
OrientationDeg,1676591803681,28860503444645,225.0,-20.0,-25.0
UncalGyro,1676591803685,28860507696852,0.6262896,-0.4098906,-2.2763894,-0.0004399208,-0.0016501413,-0.00043734472
UncalAccel,1676591803689,28860511934472,1.6677973,1.4853446,9.014959,0.037048545,-0.031444572,0.0098014325
OrientationDeg,1676591803689,28860511934472,226.0,-19.0,-25.0
UncalMag,1676591803692,28860514846572,-167.6768,737.9414,400.1478,-174.57417,771.0116,430.86337
UncalGyro,1676591803694,28860516177879,0.4728097,0.03604105,-2.1531472,-0.0004399208,-0.0016501413,-0.00043734472
UncalAccel,1676591803698,28860520411177,0.86201435,2.0662024,8.267202,0.037048545,-0.031444572,0.0098014325
OrientationDeg,1676591803698,28860520411177,227.0,-19.0,-26.0
UncalGyro,1676591803702,28860524644851,0.32513303,0.4286747,-2.227062,-0.0004399208,-0.0016501413,-0.00043734472
UncalMag,1676591803702,28860524850926,-166.7618,739.2834,400.6846,-174.57417,771.0116,430.86337
UncalAccel,1676591803706,28860528893406,1.0223335,2.018944,8.583055,0.037048545,-0.031444572,0.0098014325
OrientationDeg,1676591803706,28860528893406,228.0,-18.0,-26.0
UncalGyro,1676591803711,28860533133895,0.13561209,0.8268061,-2.500577,-0.0004399208,-0.0016501413,-0.00043734472
UncalMag,1676591803712,28860534846573,-165.93219,739.2224,401.258,-174.57417,771.0116,430.86337
UncalAccel,1676591803715,28860537375452,1.7551354,2.2612174,9.57488,0.037048545,-0.031444572,0.0098014325
OrientationDeg,1676591803715,28860537375452,229.0,-17.0,-27.0
UncalGyro,1676591803719,28860541613754,0.027488936,1.4124732,-2.961322,-0.0004399208,-0.0016501413,-0.00043734472
UncalMag,1676591803722,28860544836238,-164.79759,738.9662,400.5626,-174.57417,771.0116,430.86337
UncalAccel,1676591803723,28860545849095,1.9537396,3.0376883,9.977472,0.037048545,-0.031444572,0.0098014325
OrientationDeg,1676591803723,28860545849095,231.0,-15.0,-27.0
UncalGyro,1676591803728,28860550092890,0.14095716,2.1742222,-3.515224,-0.0004399208,-0.0016501413,-0.00043734472
UncalAccel,1676591803732,28860554331172,1.7808583,3.281158,9.9038925,0.037048545,-0.031444572,0.0098014325
UncalMag,1676591803732,28860554835953,-162.7114,738.92957,401.1116,-174.57417,771.0116,430.86337
OrientationDeg,1676591803732,28860554331172,233.0,-13.0,-28.0
UncalGyro,1676591803736,28860558572260,0.42577308,3.0008755,-3.958254,-0.0004399208,-0.0016501413,-0.00043734472
UncalAccel,1676591803740,28860562807714,1.8927227,2.495714,10.213763,0.037048545,-0.031444572,0.0098014325
OrientationDeg,1676591803740,28860562807714,235.0,-10.0,-29.0
UncalMag,1676591803742,28860564846492,-160.3812,739.503,401.0628,-174.57417,771.0116,430.86337
UncalGyro,1676591803745,28860567038935,0.79244494,3.8056905,-4.1975603,-0.0004399208,-0.0016501413,-0.00043734472
UncalAccel,1676591803749,28860571290604,1.5942181,1.3543376,9.988838,0.037048545,-0.031444572,0.0098014325
OrientationDeg,1676591803749,28860571290604,238.0,-7.0,-29.0
UncalMag,1676591803752,28860574846655,-157.8558,739.686,402.6244,-174.57417,771.0116,430.86337
UncalGyro,1676591803753,28860575533504,1.1708759,4.4463353,-4.2875104,-0.0004399208,-0.0016501413,-0.00043734472
UncalAccel,1676591803757,28860579779373,0.6448657,0.79860455,9.369696,0.037048545,-0.031444572,0.0098014325
OrientationDeg,1676591803757,28860579779373,240.0,-4.0,-30.0
UncalGyro,1676591803762,28860584010483,1.3355042,4.7041206,-4.3982296,-0.0004399208,-0.0016501413,-0.00043734472
UncalMag,1676591803762,28860584838151,-155.34259,739.93,403.4662,-174.57417,771.0116,430.86337
UncalAccel,1676591803766,28860588249049,-0.49471608,1.1174482,9.31825,0.037048545,-0.031444572,0.0098014325
OrientationDeg,1676591803766,28860588249049,242.0,0.0,-31.0
UncalGyro,1676591803770,28860592488500,1.4158329,4.848743,-4.62593,-0.0004399208,-0.0016501413,-0.00043734472
UncalMag,1676591803772,28860594846534,-152.805,740.3936,405.4426,-174.57417,771.0116,430.86337
UncalAccel,1676591803774,28860596729334,-0.82672024,1.4608182,8.712866,0.037048545,-0.031444572,0.0098014325
OrientationDeg,1676591803774,28860596729334,245.0,3.0,-32.0
UncalGyro,1676591803778,28860600968339,1.4037683,4.8942523,-4.8725667,-0.0004399208,-0.0016501413,-0.00043734472
UncalMag,1676591803782,28860604846697,-149.6086,741.4428,406.2234,-174.57417,771.0116,430.86337
UncalAccel,1676591803783,28860605202145,-1.1467602,1.6893328,8.485547,0.037048545,-0.031444572,0.0098014325
OrientationDeg,1676591803783,28860605202145,248.0,7.0,-32.0
UncalGyro,1676591803787,28860609436163,1.3628404,4.987409,-5.0419292,-0.0004399208,-0.0016501413,-0.00043734472
UncalAccel,1676591803791,28860613676560,-1.5128621,1.7641085,8.186444,0.037048545,-0.031444572,0.0098014325
UncalMag,1676591803792,28860614842099,-147.3882,742.00397,408.96838,-174.57417,771.0116,430.86337
OrientationDeg,1676591803791,28860613676560,251.0,11.0,-32.0
UncalGyro,1676591803795,28860617928829,1.322676,5.1621165,-5.0576587,-0.0004399208,-0.0016501413,-0.00043734472
UncalAccel,1676591803800,28860622169094,-2.3670998,1.878964,7.8227353,0.037048545,-0.031444572,0.0098014325
OrientationDeg,1676591803800,28860622169094,254.0,15.0,-32.0
UncalMag,1676591803802,28860624846738,-143.8624,743.224,409.5296,-174.57417,771.0116,430.86337
UncalGyro,1676591803804,28860626410040,1.2652546,5.352707,-4.9386926,-0.0004399208,-0.0016501413,-0.00043734472
UncalAccel,1676591803808,28860630646288,-3.5647075,2.1984057,7.259824,0.037048545,-0.031444572,0.0098014325
OrientationDeg,1676591803808,28860630646288,257.0,19.0,-32.0
UncalMag,1676591803812,28860634846575,-142.1422,744.2854,411.6768,-174.57417,771.0116,430.86337
UncalGyro,1676591803812,28860634885241,1.1577424,5.4632735,-4.7320676,-0.0004399208,-0.0016501413,-0.00043734472
UncalAccel,1676591803817,28860639116350,-4.9310093,2.6219354,6.71426,0.037048545,-0.031444572,0.0098014325
OrientationDeg,1676591803817,28860639116350,260.0,23.0,-32.0
UncalGyro,1676591803821,28860643364357,0.9804387,5.422651,-4.47077,-0.0004399208,-0.0016501413,-0.00043734472
UncalMag,1676591803822,28860644858091,-139.45819,745.4444,413.702,-174.57417,771.0116,430.86337
UncalAccel,1676591803825,28860647594133,-6.1698933,2.7882366,5.994619,0.037048545,-0.031444572,0.0098014325
OrientationDeg,1676591803825,28860647594133,262.0,27.0,-31.0
UncalGyro,1676591803829,28860651847908,0.752586,5.218469,-4.1737366,-0.0004399208,-0.0016501413,-0.00043734472
UncalMag,1676591803832,28860654846657,-137.5916,747.0426,416.58118,-174.57417,771.0116,430.86337
UncalAccel,1676591803834,28860656083972,-7.274779,2.6865416,5.401199,0.037048545,-0.031444572,0.0098014325
OrientationDeg,1676591803834,28860656083972,264.0,31.0,-31.0
UncalGyro,1676591803838,28860660327532,0.49037206,4.871192,-3.884034,-0.0004399208,-0.0016501413,-0.00043734472
UncalAccel,1676591803842,28860664563901,-7.6462646,2.4023938,4.8179483,0.037048545,-0.031444572,0.0098014325
UncalMag,1676591803842,28860664835997,-135.6396,748.2626,417.91098,-174.57417,771.0116,430.86337
OrientationDeg,1676591803842,28860664563901,266.0,34.0,-30.0
UncalGyro,1676591803846,28860668804319,0.18555032,4.401895,-3.5799758,-0.0004399208,-0.0016501413,-0.00043734472
UncalAccel,1676591803851,28860673037697,-7.3830543,2.4089742,4.7623153,0.037048545,-0.031444572,0.0098014325
UncalMag,1676591803852,28860674846739,-134.1146,749.29956,419.81418,-174.57417,771.0116,430.86337
OrientationDeg,1676591803851,28860673037697,268.0,37.0,-29.0
OrientationDeg,1676591803859,28860681522112,269.0,39.0,-28.0
UncalGyro,1676591803855,28860677274381,-0.12568553,3.998724,-3.2664492,-0.0004399208,-0.0016501413,-0.00043734472
UncalAccel,1676591803859,28860681522112,-7.6271224,2.8426733,5.135596,0.037048545,-0.031444572,0.0098014325
UncalMag,1676591803862,28860684846699,-133.2972,750.849,421.4978,-174.57417,771.0116,430.86337
UncalGyro,1676591803863,28860685763640,-0.37033707,3.8504364,-2.9886582,-0.0004399208,-0.0016501413,-0.00043734472
UncalAccel,1676591803868,28860690004037,-7.880761,3.1998022,5.561518,0.037048545,-0.031444572,0.0098014325
OrientationDeg,1676591803868,28860690004037,270.0,42.0,-27.0
UncalGyro,1676591803872,28860694242480,-0.5572618,3.9672644,-2.7450757,-0.0004399208,-0.0016501413,-0.00043734472
UncalMag,1676591803872,28860694838479,-132.2968,751.8738,422.8032,-174.57417,771.0116,430.86337
UncalAccel,1676591803876,28860698479632,-8.036893,3.3607194,5.8223357,0.037048545,-0.031444572,0.0098014325
OrientationDeg,1676591803876,28860698479632,271.0,44.0,-26.0
UncalGyro,1676591803881,28860702715767,-0.7296785,4.2180247,-2.553875,-0.0004399208,-0.0016501413,-0.00043734472
UncalMag,1676591803882,28860704846618,-131.4916,753.2402,424.3282,-174.57417,771.0116,430.86337
UncalAccel,1676591803884,28860706961007,-8.338987,3.7471602,5.636892,0.037048545,-0.031444572,0.0098014325
OrientationDeg,1676591803884,28860706961007,271.0,46.0,-24.0
UncalGyro,1676591803889,28860711202309,-0.9098838,4.424344,-2.4512496,-0.0004399208,-0.0016501413,-0.00043734472
UncalMag,1676591803892,28860714846821,-130.90599,754.2528,425.64578,-174.57417,771.0116,430.86337
UncalAccel,1676591803893,28860715441416,-8.9348,3.9361932,5.250451,0.037048545,-0.031444572,0.0098014325
OrientationDeg,1676591803893,28860715441416,272.0,49.0,-23.0
UncalGyro,1676591803897,28860719680642,-1.0994047,4.487263,-2.41979,-0.0004399208,-0.0016501413,-0.00043734472
UncalAccel,1676591803901,28860723919148,-9.505488,3.9140596,4.7838507,0.037048545,-0.031444572,0.0098014325
UncalMag,1676591803902,28860724836364,-130.235,755.1068,427.7686,-174.57417,771.0116,430.86337
OrientationDeg,1676591803901,28860723919148,272.0,51.0,-22.0
UncalGyro,1676591803906,28860728160063,-1.2779301,4.3988404,-2.3887885,-0.0004399208,-0.0016501413,-0.00043734472
UncalAccel,1676591803910,28860732397795,-9.881161,3.7393837,4.625326,0.037048545,-0.031444572,0.0098014325
OrientationDeg,1676591803910,28860732397795,272.0,53.0,-21.0
UncalMag,1676591803912,28860734846740,-129.5396,756.2292,429.4644,-174.57417,771.0116,430.86337
UncalGyro,1676591803914,28860736636290,-1.4285084,4.2281036,-2.3049474,-0.0004399208,-0.0016501413,-0.00043734472
UncalAccel,1676591803918,28860740878122,-10.1348,3.6323047,4.72403,0.037048545,-0.031444572,0.0098014325
OrientationDeg,1676591803918,28860740878122,272.0,55.0,-19.0
UncalMag,1676591803922,28860744848368,-129.4908,757.0588,431.1236,-174.57417,771.0116,430.86337
UncalGyro,1676591803923,28860745119354,-1.5445728,4.0506473,-2.206598,-0.0004399208,-0.0016501413,-0.00043734472
UncalAccel,1676591803927,28860749356465,-10.247861,3.6023946,5.1583276,0.037048545,-0.031444572,0.0098014325
OrientationDeg,1676591803927,28860749356465,272.0,57.0,-18.0
UncalGyro,1676591803931,28860753595540,-1.6287194,3.945884,-2.1371121,-0.0004399208,-0.0016501413,-0.00043734472
UncalMag,1676591803932,28860754838400,-128.7222,757.7908,431.758,-174.57417,771.0116,430.86337
UncalAccel,1676591803935,28860757826120,-9.978668,3.6843486,5.593821,0.037048545,-0.031444572,0.0098014325
UncalGyro,1676591803940,28860762077952,-1.6702583,3.9046507,-2.1077905,-0.0004399208,-0.0016501413,-0.00043734472
OrientationDeg,1676591803935,28860757826120,272.0,59.0,-17.0
UncalMag,1676591803942,28860764846497,-128.5392,759.1694,434.137,-174.57417,771.0116,430.86337
UncalAccel,1676591803944,28860766316701,-9.726824,3.8057845,5.6757755,0.037048545,-0.031444572,0.0098014325
OrientationDeg,1676591803944,28860766316701,272.0,61.0,-15.0
UncalGyro,1676591803948,28860770560831,-1.6452128,3.8960986,-2.1297817,-0.0004399208,-0.0016501413,-0.00043734472
UncalAccel,1676591803952,28860774795949,-9.683155,3.7339997,5.671588,0.037048545,-0.031444572,0.0098014325
UncalMag,1676591803952,28860774835918,-128.9296,759.7306,435.6132,-174.57417,771.0116,430.86337
OrientationDeg,1676591803952,28860774795949,272.0,63.0,-14.0
UncalGyro,1676591803957,28860779037180,-1.5746579,3.903429,-2.2029328,-0.0004399208,-0.0016501413,-0.00043734472
UncalAccel,1676591803961,28860783274578,-9.866206,3.0287154,5.6739807,0.037048545,-0.031444572,0.0098014325
UncalMag,1676591803962,28860784843487,-128.3318,760.9262,437.34558,-174.57417,771.0116,430.86337
UncalGyro,1676591803965,28860787515300,-1.5479325,3.90068,-1.9598085,-0.0004399208,-0.0016501413,-0.00043734472
UncalAccel,1676591803969,28860791754660,-16.223337,-2.0608184,3.6598222,0.037048545,-0.031444572,0.0098014325
UncalMag,1676591803972,28860794836040,-128.0024,761.4264,439.0292,-174.57417,771.0116,430.86337
UncalGyro,1676591803973,28860795984905,-1.3895657,3.438713,-1.2974777,-0.0004399208,-0.0016501413,-0.00043734472
UncalAccel,1676591803978,28860800234508,-11.923435,7.5140615,5.8432727,0.037048545,-0.031444572,0.0098014325
OrientationDeg,1676591803961,28860783274578,271.0,65.0,-13.0
OrientationDeg,1676591803969,28860791754660,271.0,66.0,-12.0
OrientationDeg,1676591803978,28860800234508,271.0,68.0,-11.0
UncalGyro,1676591803982,28860804474407,-1.5522085,3.18047,-1.3868169,-0.0004399208,-0.0016501413,-0.00043734472
UncalMag,1676591803982,28860804842633,-128.1976,761.69476,439.3342,-174.57417,771.0116,430.86337
UncalAccel,1676591803986,28860808713298,-13.339388,4.092923,3.8087754,0.037048545,-0.031444572,0.0098014325
UncalGyro,1676591803990,28860812952221,-1.7948748,2.6864326,-1.2205088,-0.0004399208,-0.0016501413,-0.00043734472
UncalMag,1676591803992,28860814846580,-128.89299,762.2804,441.9084,-174.57417,771.0116,430.86337
OrientationDeg,1676591803986,28860808713298,270.0,69.0,-10.0
UncalAccel,1676591803995,28860817192739,-10.9992075,4.118646,2.926422,0.037048545,-0.031444572,0.0098014325
OrientationDeg,1676591803995,28860817192739,269.0,70.0,-9.0
UncalGyro,1676591803999,28860821422527,-1.939039,2.1384866,-1.2846496,-0.0004399208,-0.0016501413,-0.00043734472
UncalMag,1676591804002,28860824846824,-128.9784,762.64636,442.48178,-174.57417,771.0116,430.86337
UncalAccel,1676591804003,28860825664380,-10.597214,3.275176,4.8376894,0.037048545,-0.031444572,0.0098014325
UncalGyro,1676591804007,28860829912660,-2.0567832,1.842675,-1.3115277,-0.0004399208,-0.0016501413,-0.00043734472
OrientationDeg,1676591804003,28860825664380,269.0,71.0,-8.0
UncalAccel,1676591804012,28860834143444,-10.459626,3.4337006,4.8568316,0.037048545,-0.031444572,0.0098014325
UncalMag,1676591804012,28860834857119,-129.259,763.2564,442.7624,-174.57417,771.0116,430.86337
OrientationDeg,1676591804012,28860834143444,268.0,72.0,-7.0
UncalGyro,1676591804016,28860838395458,-2.068848,1.7867808,-1.274723,-0.0004399208,-0.0016501413,-0.00043734472
UncalAccel,1676591804020,28860842632509,-10.539785,2.2779672,5.4586267,0.037048545,-0.031444572,0.0098014325
OrientationDeg,1676591804020,28860842632509,267.0,73.0,-7.0
UncalMag,1676591804022,28860844846865,-128.9418,763.1954,443.47,-174.57417,771.0116,430.86337
UncalGyro,1676591804024,28860846880830,-1.9889772,1.9416351,-1.3199271,-0.0004399208,-0.0016501413,-0.00043734472
UncalAccel,1676591804029,28860851109988,-9.946365,1.6193427,5.9192452,0.037048545,-0.031444572,0.0098014325
OrientationDeg,1676591804029,28860851109988,267.0,73.0,-6.0
UncalMag,1676591804032,28860854846621,-128.9296,763.48816,444.507,-174.57417,771.0116,430.86337
UncalGyro,1676591804033,28860855352572,-1.7786869,2.2107213,-1.4422529,-0.0004399208,-0.0016501413,-0.00043734472
UncalAccel,1676591804037,28860859594271,-9.594621,1.1802598,6.506085,0.037048545,-0.031444572,0.0098014325
OrientationDeg,1676591804037,28860859594271,266.0,75.0,-5.0
UncalGyro,1676591804041,28860863826306,-1.4784466,2.5932758,-1.5289958,-0.0004399208,-0.0016501413,-0.00043734472
UncalMag,1676591804042,28860864836164,-129.747,763.842,445.2146,-174.57417,771.0116,430.86337
UncalAccel,1676591804046,28860868065950,-9.4941225,0.98883396,6.631708,0.037048545,-0.031444572,0.0098014325
OrientationDeg,1676591804046,28860868065950,266.0,76.0,-4.0
UncalGyro,1676591804051,28860872307986,-1.1470522,2.9475775,-1.5755742,-0.0004399208,-0.0016501413,-0.00043734472
UncalMag,1676591804052,28860874846500,-130.11299,764.8302,446.30038,-174.57417,771.0116,430.86337
UncalAccel,1676591804054,28860876546551,-9.679565,0.62931234,6.117251,0.037048545,-0.031444572,0.0098014325
OrientationDeg,1676591804054,28860876546551,265.0,77.0,-3.0
UncalGyro,1676591804058,28860880780286,-0.8516989,3.122896,-1.5677856,-0.0004399208,-0.0016501413,-0.00043734472
UncalMag,1676591804062,28860884846785,-129.8934,764.96436,447.9108,-174.57417,771.0116,430.86337
UncalAccel,1676591804063,28860885023532,-10.130014,0.14895321,5.2719865,0.037048545,-0.031444572,0.0098014325
OrientationDeg,1676591804063,28860885023532,265.0,79.0,-2.0
UncalGyro,1676591804067,28860889251091,-0.68951416,3.0665436,-1.4961617,-0.0004399208,-0.0016501413,-0.00043734472
UncalAccel,1676591804071,28860893509585,-10.585249,0.2105684,4.0564327,0.037048545,-0.031444572,0.0098014325
UncalMag,1676591804072,28860894835962,-130.3692,765.7818,449.082,-174.57417,771.0116,430.86337
OrientationDeg,1676591804071,28860893509585,265.0,80.0,-1.0
UncalGyro,1676591804075,28860897744459,-0.6916522,2.7603474,-1.4170547,-0.0004399208,-0.0016501413,-0.00043734472
UncalAccel,1676591804079,28860901977603,-10.688739,0.5946164,2.9605198,0.037048545,-0.031444572,0.0098014325
OrientationDeg,1676591804079,28860901977603,265.0,81.0,-1.0
UncalMag,1676591804082,28860904836409,-131.577,766.76996,450.9242,-174.57417,771.0116,430.86337
UncalGyro,1676591804084,28860906228396,-0.8454375,2.2595906,-1.3814718,-0.0004399208,-0.0016501413,-0.00043734472
UncalAccel,1676591804088,28860910463484,-11.059627,0.2440679,2.2725832,0.037048545,-0.031444572,0.0098014325
OrientationDeg,1676591804088,28860910463484,264.0,82.0,0.0
UncalGyro,1676591804092,28860914700372,-1.070236,1.7052304,-1.350623,-0.0004399208,-0.0016501413,-0.00043734472
UncalMag,1676591804093,28860914839828,-131.7966,766.526,451.7172,-174.57417,771.0116,430.86337
UncalAccel,1676591804096,28860918944299,-10.971092,0.37328035,2.5064816,0.037048545,-0.031444572,0.0098014325
OrientationDeg,1676591804096,28860918944299,264.0,83.0,0.0
UncalGyro,1676591804101,28860923181990,-1.2928963,1.297936,-1.3220651,-0.0004399208,-0.0016501413,-0.00043734472
UncalMag,1676591804103,28860924846623,-132.2724,767.319,452.4004,-174.57417,771.0116,430.86337
UncalAccel,1676591804105,28860927424004,-11.139188,0.26679972,2.687738,0.037048545,-0.031444572,0.0098014325
OrientationDeg,1676591804105,28860927424004,263.0,84.0,0.0
UncalGyro,1676591804109,28860931662480,-1.4246905,1.1049025,-1.2996159,-0.0004399208,-0.0016501413,-0.00043734472
UncalMag,1676591804112,28860934846664,-132.46759,767.5874,452.59558,-174.57417,771.0116,430.86337
UncalAccel,1676591804113,28860935894261,-11.0351,-0.10707881,3.0526435,0.037048545,-0.031444572,0.0098014325
OrientationDeg,1676591804114,28860935894261,262.0,84.0,1.0
UncalGyro,1676591804118,28860940145726,-1.4607315,1.150412,-1.2452488,-0.0004399208,-0.0016501413,-0.00043734472
UncalAccel,1676591804122,28860944383855,-10.748559,-0.40857446,3.9343987,0.037048545,-0.031444572,0.0098014325
UncalMag,1676591804122,28860944846583,-132.4798,767.41656,452.7908,-174.57417,771.0116,430.86337
OrientationDeg,1676591804122,28860944383855,262.0,85.0,2.0
UncalGyro,1676591804126,28860948628005,-1.4223998,1.4132367,-1.1204796,-0.0004399208,-0.0016501413,-0.00043734472
UncalAccel,1676591804130,28860952862208,-10.321441,-0.03708875,4.1784663,0.037048545,-0.031444572,0.0098014325
UncalMag,1676591804132,28860954836004,-132.7482,768.24615,454.328,-174.57417,771.0116,430.86337
OrientationDeg,1676591804130,28860952862208,261.0,86.0,2.0
UncalGyro,1676591804135,28860957100540,-1.2938126,1.6626225,-0.9680687,-0.0004399208,-0.0016501413,-0.00043734472
UncalAccel,1676591804139,28860961342086,-10.5685,0.27696922,4.38066,0.037048545,-0.031444572,0.0098014325
UncalMag,1676591804142,28860964854925,-133.07759,767.9656,454.0352,-174.57417,771.0116,430.86337
OrientationDeg,1676591804139,28860961342086,261.0,87.0,3.0
UncalGyro,1676591804143,28860965582891,-1.1362094,1.8741345,-0.82863873,-0.0004399208,-0.0016501413,-0.00043734472
UncalAccel,1676591804147,28860969822738,-11.000404,-0.02213361,4.1312084,0.037048545,-0.031444572,0.0098014325
OrientationDeg,1676591804147,28860969822738,260.0,87.0,3.0
UncalGyro,1676591804152,28860974063156,-1.0374019,1.9480493,-0.7270824,-0.0004399208,-0.0016501413,-0.00043734472
UncalMag,1676591804152,28860974836289,-133.6998,768.0876,455.40158,-174.57417,771.0116,430.86337
UncalAccel,1676591804156,28860978301040,-11.005788,0.32004002,2.6739793,0.037048545,-0.031444572,0.0098014325
OrientationDeg,1676591804156,28860978301040,260.0,88.0,3.0
UncalGyro,1676591804160,28860982542577,-1.161102,1.7421877,-0.752586,-0.0004399208,-0.0016501413,-0.00043734472
UncalMag,1676591804162,28860984846625,-134.1268,767.9046,455.6212,-174.57417,771.0116,430.86337
UncalAccel,1676591804164,28860986780625,-10.925629,0.116650105,1.6779668,0.037048545,-0.031444572,0.0098014325
OrientationDeg,1676591804164,28860986780625,259.0,89.0,4.0
UncalGyro,1676591804170,28860991022995,-1.5306755,1.3831517,-0.8550586,-0.0004399208,-0.0016501413,-0.00043734472
UncalMag,1676591804172,28860994846584,-134.13899,767.8558,456.8168,-174.57417,771.0116,430.86337
UncalAccel,1676591804173,28860995253963,-10.43151,0.31405798,2.644069,0.037048545,-0.031444572,0.0098014325
OrientationDeg,1676591804173,28860995253963,258.0,90.0,4.0
UncalGyro,1676591804177,28860999490291,-1.8839084,1.1775955,-1.0575604,-0.0004399208,-0.0016501413,-0.00043734472
UncalAccel,1676591804181,28861003738653,-10.310075,1.1694921,4.348955,0.037048545,-0.031444572,0.0098014325
UncalMag,1676591804182,28861004838691,-134.8466,768.0998,456.88998,-174.57417,771.0116,430.86337
OrientationDeg,1676591804181,28861003738653,257.0,91.0,5.0
UncalGyro,1676591804185,28861007980627,-1.9926424,1.1693488,-1.3057245,-0.0004399208,-0.0016501413,-0.00043734472
UncalAccel,1676591804190,28861012221543,-10.27837,1.1946167,3.9481573,0.037048545,-0.031444572,0.0098014325
OrientationDeg,1676591804190,28861012221543,256.0,91.0,6.0
UncalMag,1676591804192,28861014846747,-134.9442,768.295,457.5488,-174.57417,771.0116,430.86337
UncalGyro,1676591804194,28861016460241,-1.986381,1.1404854,-1.4720325,-0.0004399208,-0.0016501413,-0.00043734472
UncalAccel,1676591804198,28861020698055,-9.836894,0.8111669,2.6979074,0.037048545,-0.031444572,0.0098014325
OrientationDeg,1676591804198,28861020698055,255.0,92.0,6.0
UncalMag,1676591804202,28861024846707,-135.3712,768.3072,458.2808,-174.57417,771.0116,430.86337
UncalGyro,1676591804202,28861024938728,-1.9869919,0.9980011,-1.5601498,-0.0004399208,-0.0016501413,-0.00043734472
UncalAccel,1676591804207,28861029174435,-9.526425,0.799801,2.1511476,0.037048545,-0.031444572,0.0098014325
OrientationDeg,1676591804207,28861029174435,254.0,92.0,7.0
UncalGyro,1676591804211,28861033404914,-1.998751,0.82695884,-1.6245961,-0.0004399208,-0.0016501413,-0.00043734472
UncalMag,1676591804212,28861034835965,-135.8226,767.6728,457.78058,-174.57417,771.0116,430.86337
UncalAccel,1676591804215,28861037646369,-9.645468,0.45403808,2.3336003,0.037048545,-0.031444572,0.0098014325
OrientationDeg,1676591804215,28861037646369,253.0,93.0,8.0
