# 
# Header Description:
# 
# Version: v3.0.5.6 Platform: 13 Manufacturer: Google Model: Pixel 7
# 
# Raw,utcTimeMillis,TimeNanos,LeapSecond,TimeUncertaintyNanos,FullBiasNanos,BiasNanos,BiasUncertaintyNanos,DriftNanosPerSecond,DriftUncertaintyNanosPerSecond,HardwareClockDiscontinuityCount,Svid,TimeOffsetNanos,State,ReceivedSvTimeNanos,ReceivedSvTimeUncertaintyNanos,Cn0DbHz,PseudorangeRateMetersPerSecond,PseudorangeRateUncertaintyMetersPerSecond,AccumulatedDeltaRangeState,AccumulatedDeltaRangeMeters,AccumulatedDeltaRangeUncertaintyMeters,CarrierFrequencyHz,CarrierCycles,CarrierPhase,CarrierPhaseUncertainty,MultipathIndicator,SnrInDb,ConstellationType,AgcDb,BasebandCn0DbHz,FullInterSignalBiasNanos,FullInterSignalBiasUncertaintyNanos,SatelliteInterSignalBiasNanos,SatelliteInterSignalBiasUncertaintyNanos,CodeType,ChipsetElapsedRealtimeNanos
# 
# UncalAccel,utcTimeMillis,elapsedRealtimeNanos,UncalAccelXMps2,UncalAccelYMps2,UncalAccelZMps2,BiasXMps2,BiasYMps2,BiasZMps2
# 
# Accel,utcTimeMillis,elapsedRealtimeNanos,AccelXMps2,AccelYMps2,AccelZMps2
# 
# UncalGyro,utcTimeMillis,elapsedRealtimeNanos,UncalGyroXRadPerSec,UncalGyroYRadPerSec,UncalGyroZRadPerSec,DriftXRadPerSec,DriftYRadPerSec,DriftZRadPerSec
# 
# Gyro,utcTimeMillis,elapsedRealtimeNanos,GyroXRadPerSec,GyroYRadPerSec,GyroZRadPerSec
# 
# UncalMag,utcTimeMillis,elapsedRealtimeNanos,UncalMagXMicroT,UncalMagYMicroT,UncalMagZMicroT,BiasXMicroT,BiasYMicroT,BiasZMicroT
# 
# Mag,utcTimeMillis,elapsedRealtimeNanos,MagXMicroT,MagYMicroT,MagZMicroT
# 
# OrientationDeg,utcTimeMillis,elapsedRealtimeNanos,yawDeg,rollDeg,pitchDeg
# 
# Fix,Provider,LatitudeDegrees,LongitudeDegrees,AltitudeMeters,SpeedMps,AccuracyMeters,BearingDegrees,UnixTimeMillis,SpeedAccuracyMps,BearingAccuracyDegrees,elapsedRealtimeNanos,VerticalAccuracyMeters
# 
# Nav,Svid,Type,Status,MessageId,Sub-messageId,Data(Bytes)
# 
# Status,UnixTimeMillis,SignalCount,SignalIndex,ConstellationType,Svid,CarrierFrequencyHz,Cn0DbHz,AzimuthDegrees,ElevationDegrees,UsedInFix,HasAlmanacData,HasEphemerisData,BasebandCn0DbHz
# 
UncalMag,1676592653735,29710557007040,-155.0986,748.6896,396.1096,-174.57417,771.0116,430.86337
UncalGyro,1676592653743,29710565938335,-0.12064589,-0.09941832,-0.08124508,0.0014031513,-0.0016767844,-0.00033248513
UncalMag,1676592653745,29710567002809,-155.18399,749.0434,396.195,-174.57417,771.0116,430.86337
UncalGyro,1676592653752,29710574503351,-0.09987647,-0.075289145,-0.07009678,0.0014031513,-0.0016767844,-0.00033248513
UncalAccel,1676592653752,29710574503351,-0.5383851,1.2340983,9.977472,0.037048545,-0.031444572,0.0098014325
UncalMag,1676592653755,29710577020550,-155.611,748.87256,396.6464,-174.57417,771.0116,430.86337
UncalGyro,1676592653760,29710582981558,-0.06841691,-0.055436023,-0.060170226,0.0014031513,-0.0016767844,-0.00033248513
UncalAccel,1676592653760,29710582981558,-0.567099,1.238884,10.0014,0.037048545,-0.031444572,0.0098014325
UncalMag,1676592653765,29710587020632,-154.89119,748.7872,396.25598,-174.57417,771.0116,430.86337
UncalGyro,1676592653769,29710591458711,-0.038331795,-0.05757405,-0.055588737,0.0014031513,-0.0016767844,-0.00033248513
UncalAccel,1676592653769,29710591458711,-0.59581286,1.2197413,9.987043,0.037048545,-0.031444572,0.0098014325
UncalMag,1676592653775,29710597010663,-155.4158,748.6896,395.9998,-174.57417,771.0116,430.86337
UncalGyro,1676592653777,29710599945862,-0.013744468,-0.08032878,-0.05177083,0.0014031513,-0.0016767844,-0.00033248513
UncalAccel,1676592653778,29710599945862,-0.6765706,1.166501,10.005588,0.037048545,-0.031444572,0.0098014325
UncalMag,1676592653785,29710607020632,-155.428,748.5066,396.073,-174.57417,771.0116,430.86337
UncalGyro,1676592653786,29710608429861,0.0067195175,-0.11789699,-0.05513059,0.0014031513,-0.0016767844,-0.00033248513
UncalAccel,1676592653786,29710608429861,-0.7148558,1.2233306,9.976874,0.037048545,-0.031444572,0.0098014325
UncalGyro,1676592653794,29710616898927,0.02977968,-0.14767668,-0.06658431,0.0014031513,-0.0016767844,-0.00033248513
UncalAccel,1676592653794,29710616898927,-0.68195444,1.247857,10.019945,0.037048545,-0.031444572,0.0098014325
UncalMag,1676592653795,29710617014895,-155.1352,748.165,396.1096,-174.57417,771.0116,430.86337
Fix,FLP,37.4308453000,-122.1550233000,-16.100000381469727,0.052465457,4.784,,1676592637715,,,29694537507656,2.6588144
UncalGyro,1676592653803,29710625387250,0.05009095,-0.15745051,-0.07498371,0.0014031513,-0.0016767844,-0.00033248513
UncalAccel,1676592653803,29710625387250,-0.62512493,1.2382857,10.063016,0.037048545,-0.031444572,0.0098014325
UncalMag,1676592653805,29710627020673,-154.696,748.45776,396.6464,-174.57417,771.0116,430.86337
UncalGyro,1676592653811,29710633867394,0.06688975,-0.1572978,-0.07819075,0.0014031513,-0.0016767844,-0.00033248513
UncalAccel,1676592653811,29710633867394,-0.60598236,1.2430713,10.082158,0.037048545,-0.031444572,0.0098014325
OrientationDeg,1676592653811,29710633867394,224.0,3.0,-7.0
UncalMag,1676592653815,29710637020674,-154.5984,748.3846,397.232,-174.57417,771.0116,430.86337
UncalGyro,1676592653820,29710642345655,0.08277224,-0.15118915,-0.0786489,0.0014031513,-0.0016767844,-0.00033248513
UncalAccel,1676592653820,29710642345655,-0.55812585,1.2197413,10.125229,0.037048545,-0.031444572,0.0098014325
OrientationDeg,1676592653820,29710642345655,224.0,3.0,-7.0
UncalMag,1676592653825,29710647010949,-154.57399,748.9092,397.1222,-174.57417,771.0116,430.86337
UncalGyro,1676592653828,29710650827751,0.09682214,-0.1459968,-0.07727446,0.0014031513,-0.0016767844,-0.00033248513
UncalAccel,1676592653828,29710650827751,-0.56769717,1.1862419,10.1395855,0.037048545,-0.031444572,0.0098014325
OrientationDeg,1676592653828,29710650827751,224.0,3.0,-7.0
UncalMag,1676592653835,29710657020796,-154.7814,748.7994,396.6098,-174.57417,771.0116,430.86337
UncalGyro,1676592653837,29710659297051,0.10842858,-0.14508049,-0.07925977,0.0014031513,-0.0016767844,-0.00033248513
UncalAccel,1676592653837,29710659297051,-0.61016977,1.1330016,10.125229,0.037048545,-0.031444572,0.0098014325
OrientationDeg,1676592653837,29710659297051,224.0,3.0,-7.0
Fix,NLP,37.4311444000,-122.1536885000,-16.100000381469727,,98.4,,1676592641901,,,29698723000000,18.49
UncalMag,1676592653845,29710667010176,-155.31819,748.6042,395.9754,-174.57417,771.0116,430.86337
UncalGyro,1676592653845,29710667788588,0.11148291,-0.14187345,-0.086437434,0.0014031513,-0.0016767844,-0.00033248513
UncalAccel,1676592653845,29710667788588,-0.64905316,1.0947163,10.173085,0.037048545,-0.031444572,0.0098014325
OrientationDeg,1676592653845,29710667788588,224.0,3.0,-7.0
UncalGyro,1676592653854,29710676268649,0.108123146,-0.14737125,-0.10186178,0.0014031513,-0.0016767844,-0.00033248513
UncalAccel,1676592653854,29710676268649,-0.7106683,1.0797613,10.1348,0.037048545,-0.031444572,0.0098014325
OrientationDeg,1676592653854,29710676268649,224.0,3.0,-7.0
UncalMag,1676592653855,29710677012089,-155.123,748.4212,395.6826,-174.57417,771.0116,430.86337
UncalGyro,1676592653862,29710684754774,0.0926988,-0.15378532,-0.116217114,0.0014031513,-0.0016767844,-0.00033248513
UncalAccel,1676592653862,29710684754774,-0.79740816,1.0169497,10.2347,0.037048545,-0.031444572,0.0098014325
OrientationDeg,1676592653863,29710684754774,224.0,3.0,-7.0
UncalMag,1676592653865,29710687020797,-155.2328,748.2748,396.62198,-174.57417,771.0116,430.86337
UncalGyro,1676592653871,29710693229638,0.069485925,-0.16447547,-0.12721269,0.0014031513,-0.0016767844,-0.00033248513
UncalAccel,1676592653871,29710693229638,-0.8739785,0.9726824,10.263414,0.037048545,-0.031444572,0.0098014325
OrientationDeg,1676592653871,29710693229638,224.0,3.0,-7.0
UncalMag,1676592653875,29710697020797,-155.123,748.4334,396.1706,-174.57417,771.0116,430.86337
UncalGyro,1676592653879,29710701702386,0.05085453,-0.20280726,-0.14446963,0.0014031513,-0.0016767844,-0.00033248513
UncalAccel,1676592653879,29710701702386,-0.96909314,0.94337034,10.21496,0.037048545,-0.031444572,0.0098014325
OrientationDeg,1676592653879,29710701702386,224.0,3.0,-7.0
UncalMag,1676592653885,29710707010340,-155.4158,748.6896,395.9998,-174.57417,771.0116,430.86337
UncalGyro,1676592653888,29710710190942,0.03436117,-0.2501493,-0.16752979,0.0014031513,-0.0016767844,-0.00033248513
UncalAccel,1676592653888,29710710190942,-1.0019945,0.8380861,10.263414,0.037048545,-0.031444572,0.0098014325
OrientationDeg,1676592653888,29710710190942,224.0,3.0,-7.0
UncalMag,1676592653895,29710717020716,-154.68379,748.6286,396.6952,-174.57417,771.0116,430.86337
UncalGyro,1676592653896,29710718675001,0.015118915,-0.29794952,-0.18997909,0.0014031513,-0.0016767844,-0.00033248513
UncalAccel,1676592653896,29710718675001,-1.0163515,0.7082755,10.302298,0.037048545,-0.031444572,0.0098014325
OrientationDeg,1676592653896,29710718675001,224.0,3.0,-7.0
UncalMag,1676592653905,29710727020554,-155.1962,748.7994,396.866,-174.57417,771.0116,430.86337
UncalGyro,1676592653905,29710727157821,-0.0053450707,-0.35796702,-0.2180789,0.0014031513,-0.0016767844,-0.00033248513
UncalAccel,1676592653905,29710727157821,-0.991825,0.60777694,10.33161,0.037048545,-0.031444572,0.0098014325
OrientationDeg,1676592653905,29710727157821,224.0,2.0,-7.0
UncalGyro,1676592653913,29710735635330,-0.022602014,-0.4195117,-0.2574797,0.0014031513,-0.0016767844,-0.00033248513
UncalAccel,1676592653913,29710735635330,-0.9631111,0.46899325,10.403993,0.037048545,-0.031444572,0.0098014325
OrientationDeg,1676592653913,29710735635330,224.0,2.0,-7.0
UncalMag,1676592653915,29710737010137,-155.3304,748.409,395.4386,-174.57417,771.0116,430.86337
UncalGyro,1676592653922,29710744116419,-0.03436117,-0.46838093,-0.30665436,0.0014031513,-0.0016767844,-0.00033248513
UncalAccel,1676592653922,29710744116419,-0.90508515,0.27756742,10.48176,0.037048545,-0.031444572,0.0098014325
OrientationDeg,1676592653922,29710744116419,225.0,2.0,-7.0
UncalMag,1676592653925,29710747021042,-155.00099,748.6042,395.9632,-174.57417,771.0116,430.86337
UncalGyro,1676592653930,29710752596105,-0.03863723,-0.52213705,-0.3707952,0.0014031513,-0.0016767844,-0.00033248513
UncalAccel,1676592653930,29710752596105,-0.8703892,0.091525465,10.4159565,0.037048545,-0.031444572,0.0098014325
OrientationDeg,1676592653930,29710752596105,225.0,2.0,-7.0
UncalMag,1676592653935,29710757010016,-155.81839,749.019,395.9632,-174.57417,771.0116,430.86337
UncalGyro,1676592653939,29710761078568,-0.043829583,-0.57818395,-0.44883323,0.0014031513,-0.0016767844,-0.00033248513
UncalAccel,1676592653939,29710761078568,-0.79800636,-0.123828575,10.488938,0.037048545,-0.031444572,0.0098014325
OrientationDeg,1676592653939,29710761078568,225.0,1.0,-7.0
UncalMag,1676592653945,29710767010464,-155.3792,749.20197,395.8778,-174.57417,771.0116,430.86337
UncalGyro,1676592653947,29710769559942,-0.056352317,-0.61911196,-0.54443365,0.0014031513,-0.0016767844,-0.00033248513
UncalAccel,1676592653947,29710769559942,-0.65024954,-0.28594232,10.652846,0.037048545,-0.031444572,0.0098014325
OrientationDeg,1676592653947,29710769559942,225.0,1.0,-7.0
UncalMag,1676592653955,29710777009976,-155.916,749.1166,396.1096,-174.57417,771.0116,430.86337
UncalGyro,1676592653956,29710778041052,-0.065209866,-0.64843345,-0.6597345,0.0014031513,-0.0016767844,-0.00033248513
UncalAccel,1676592653956,29710778041052,-0.526421,-0.35234314,10.773684,0.037048545,-0.031444572,0.0098014325
OrientationDeg,1676592653957,29710778041052,226.0,1.0,-7.0
UncalGyro,1676592653964,29710786516893,-0.069027774,-0.6815729,-0.79259765,0.0014031513,-0.0016767844,-0.00033248513
UncalAccel,1676592653964,29710786516893,-0.42592242,-0.4671986,10.869995,0.037048545,-0.031444572,0.0098014325
OrientationDeg,1676592653964,29710786516893,226.0,1.0,-7.0
UncalMag,1676592653965,29710787025194,-155.7818,749.61676,395.4996,-174.57417,771.0116,430.86337
UncalGyro,1676592653972,29710794998511,-0.071318515,-0.71776664,-0.9297369,0.0014031513,-0.0016767844,-0.00033248513
UncalAccel,1676592653972,29710794998511,-0.38285163,-0.66341007,11.000404,0.037048545,-0.031444572,0.0098014325
OrientationDeg,1676592653972,29710794998511,226.0,0.0,-7.0
UncalMag,1676592653975,29710797020840,-155.489,749.18976,395.3898,-174.57417,771.0116,430.86337
UncalGyro,1676592653981,29710803479611,-0.0729984,-0.7672467,-1.0647382,0.0014031513,-0.0016767844,-0.00033248513
UncalAccel,1676592653982,29710803479611,-0.27756742,-0.84047896,11.097313,0.037048545,-0.031444572,0.0098014325
OrientationDeg,1676592653981,29710803479611,227.0,0.0,-7.0
UncalMag,1676592653985,29710807020515,-155.245,749.812,395.5362,-174.57417,771.0116,430.86337
UncalGyro,1676592653989,29710811951666,-0.077579886,-0.83077675,-1.1946996,0.0014031513,-0.0016767844,-0.00033248513
UncalAccel,1676592653989,29710811951666,-0.19082761,-0.997807,11.17508,0.037048545,-0.031444572,0.0098014325
OrientationDeg,1676592653989,29710811951666,228.0,0.0,-7.0
UncalMag,1676592653995,29710817010709,-155.2694,749.3606,395.0604,-174.57417,771.0116,430.86337
UncalGyro,1676592653998,29710820443152,-0.094531395,-0.8944594,-1.321607,0.0014031513,-0.0016767844,-0.00033248513
UncalAccel,1676592653998,29710820443152,-0.09092726,-1.1365907,11.33839,0.037048545,-0.031444572,0.0098014325
OrientationDeg,1676592653998,29710820443152,228.0,0.0,-7.0
UncalMag,1676592654006,29710827020678,-155.50119,750.6538,394.7798,-174.57417,771.0116,430.86337
UncalGyro,1676592654007,29710828923713,-0.12110403,-0.9390526,-1.4460708,0.0014031513,-0.0016767844,-0.00033248513
UncalAccel,1676592654006,29710828923713,-0.0059820567,-1.250848,11.525628,0.037048545,-0.031444572,0.0098014325
OrientationDeg,1676592654006,29710828923713,229.0,0.0,-7.0
UncalMag,1676592654015,29710837020597,-155.81839,750.6538,395.14578,-174.57417,771.0116,430.86337
UncalGyro,1676592654015,29710837385353,-0.14340061,-0.98731095,-1.5667167,0.0014031513,-0.0016767844,-0.00033248513
UncalAccel,1676592654015,29710837385353,0.08015956,-1.3369896,11.598011,0.037048545,-0.031444572,0.0098014325
OrientationDeg,1676592654015,29710837385353,230.0,0.0,-6.0
UncalGyro,1676592654023,29710845881447,-0.14553864,-1.0635164,-1.6804903,0.0014031513,-0.0016767844,-0.00033248513
UncalAccel,1676592654023,29710845881447,0.10049855,-1.4709877,11.570494,0.037048545,-0.031444572,0.0098014325
OrientationDeg,1676592654023,29710845881447,230.0,-1.0,-6.0
UncalMag,1676592654025,29710847010425,-156.3064,751.032,393.6818,-174.57417,771.0116,430.86337
UncalGyro,1676592654032,29710854365598,-0.12950343,-1.1727085,-1.7811303,0.0014031513,-0.0016767844,-0.00033248513
UncalAccel,1676592654032,29710854365598,0.18783657,-1.6713866,11.486147,0.037048545,-0.031444572,0.0098014325
OrientationDeg,1676592654032,29710854365598,231.0,-1.0,-6.0
UncalMag,1676592654035,29710857020882,-156.16,751.84937,394.5968,-174.57417,771.0116,430.86337
UncalGyro,1676592654040,29710862846229,-0.10323623,-1.3158038,-1.8727602,0.0014031513,-0.0016767844,-0.00033248513
UncalAccel,1676592654040,29710862846229,0.3290131,-1.847259,11.344971,0.037048545,-0.031444572,0.0098014325
OrientationDeg,1676592654040,29710862846229,232.0,-2.0,-6.0
UncalMag,1676592654045,29710867020801,-156.2576,752.008,393.9014,-174.57417,771.0116,430.86337
UncalGyro,1676592654048,29710871318927,-0.07803804,-1.4656185,-1.9614882,0.0014031513,-0.0016767844,-0.00033248513
UncalAccel,1676592654049,29710871318927,0.51146585,-1.9950159,11.30848,0.037048545,-0.031444572,0.0098014325
OrientationDeg,1676592654049,29710871318927,233.0,-2.0,-6.0
UncalMag,1676592654055,29710877020517,-156.8554,752.3984,393.0474,-174.57417,771.0116,430.86337
UncalGyro,1676592654057,29710879805173,-0.061391957,-1.5905404,-2.0552561,0.0014031513,-0.0016767844,-0.00033248513
UncalAccel,1676592654057,29710879805173,0.6891329,-2.094318,11.319846,0.037048545,-0.031444572,0.0098014325
OrientationDeg,1676592654057,29710879805173,234.0,-3.0,-6.0
UncalMag,1676592654065,29710887020558,-156.8432,752.58136,393.2182,-174.57417,771.0116,430.86337
UncalGyro,1676592654066,29710888285226,-0.04627304,-1.6928604,-2.1671972,0.0014031513,-0.0016767844,-0.00033248513
UncalAccel,1676592654066,29710888285226,0.80518484,-2.1026928,11.139188,0.037048545,-0.031444572,0.0098014325
OrientationDeg,1676592654066,29710888285226,235.0,-4.0,-6.0
UncalGyro,1676592654074,29710896771697,-0.025198191,-1.7880026,-2.2996023,0.0014031513,-0.0016767844,-0.00033248513
UncalAccel,1676592654074,29710896771697,0.8739785,-2.1164517,10.881959,0.037048545,-0.031444572,0.0098014325
OrientationDeg,1676592654074,29710896771697,236.0,-5.0,-6.0
UncalMag,1676592654075,29710897012990,-157.4166,753.411,392.0958,-174.57417,771.0116,430.86337
UncalGyro,1676592654083,29710905249460,-0.0036651916,-1.8709276,-2.4448354,0.0014031513,-0.0016767844,-0.00033248513
UncalAccel,1676592654083,29710905249460,0.9804591,-2.1254246,10.730015,0.037048545,-0.031444572,0.0098014325
OrientationDeg,1676592654083,29710905249460,238.0,-5.0,-7.0
UncalMag,1676592654085,29710907020802,-157.5264,753.3988,391.7298,-174.57417,771.0116,430.86337
UncalGyro,1676592654091,29710913726755,0.013286319,-1.9339994,-2.598468,0.0014031513,-0.0016767844,-0.00033248513
UncalAccel,1676592654091,29710913726755,1.105484,-2.0811574,10.615758,0.037048545,-0.031444572,0.0098014325
OrientationDeg,1676592654091,29710913726755,239.0,-6.0,-7.0
UncalMag,1676592654095,29710917020640,-157.9046,754.0942,391.9006,-174.57417,771.0116,430.86337
UncalGyro,1676592654100,29710922211242,0.026725354,-1.9631681,-2.7510316,0.0014031513,-0.0016767844,-0.00033248513
UncalAccel,1676592654100,29710922211242,1.2346965,-2.0033908,10.539785,0.037048545,-0.031444572,0.0098014325
OrientationDeg,1676592654100,29710922211242,240.0,-7.0,-7.0
UncalMag,1676592654105,29710927013316,-158.3926,754.59436,391.43698,-174.57417,771.0116,430.86337
UncalGyro,1676592654108,29710930691588,0.036957346,-1.9543107,-2.894585,0.0014031513,-0.0016767844,-0.00033248513
UncalAccel,1676592654108,29710930691588,1.3639089,-1.9304097,10.450055,0.037048545,-0.031444572,0.0098014325
OrientationDeg,1676592654108,29710930691588,242.0,-8.0,-7.0
UncalMag,1676592654115,29710937020600,-158.5878,754.753,391.22958,-174.57417,771.0116,430.86337
UncalGyro,1676592654117,29710939162302,0.04505131,-1.9236146,-3.0173688,0.0014031513,-0.0016767844,-0.00033248513
UncalAccel,1676592654117,29710939162302,1.4267205,-1.8101703,10.287343,0.037048545,-0.031444572,0.0098014325
OrientationDeg,1676592654118,29710939162302,243.0,-8.0,-7.0
UncalMag,1676592654125,29710947020722,-158.8562,755.43616,390.80258,-174.57417,771.0116,430.86337
UncalGyro,1676592654125,29710947666463,0.051159963,-1.8761199,-3.109915,0.0014031513,-0.0016767844,-0.00033248513
UncalAccel,1676592654125,29710947666463,1.4644074,-1.6707884,10.258031,0.037048545,-0.031444572,0.0098014325
OrientationDeg,1676592654125,29710947666463,245.0,-9.0,-8.0
UncalGyro,1676592654134,29710956133962,0.057268616,-1.8020525,-3.1644347,0.0014031513,-0.0016767844,-0.00033248513
UncalAccel,1676592654134,29710956133962,1.477568,-1.4458631,10.275977,0.037048545,-0.031444572,0.0098014325
UncalMag,1676592654135,29710957006928,-158.7098,756.2292,391.1076,-174.57417,771.0116,430.86337
OrientationDeg,1676592654134,29710956133962,246.0,-10.0,-8.0
UncalGyro,1676592654142,29710964617177,0.07819075,-1.7179058,-3.1757357,0.0014031513,-0.0016767844,-0.00033248513
UncalAccel,1676592654142,29710964617177,1.5110675,-1.1916257,10.093524,0.037048545,-0.031444572,0.0098014325
OrientationDeg,1676592654142,29710964617177,248.0,-10.0,-8.0
UncalMag,1676592654145,29710967010062,-159.5394,756.18036,389.89978,-174.57417,771.0116,430.86337
UncalGyro,1676592654151,29710973090851,0.12461651,-1.6307048,-3.140458,0.0014031513,-0.0016767844,-0.00033248513
UncalAccel,1676592654151,29710973090851,1.4727824,-0.927817,9.9015,0.037048545,-0.031444572,0.0098014325
OrientationDeg,1676592654151,29710973090851,249.0,-11.0,-9.0
UncalMag,1676592654155,29710977012870,-159.9054,757.1198,389.6558,-174.57417,771.0116,430.86337
UncalGyro,1676592654159,29710981562520,0.18982637,-1.5497651,-3.060893,0.0014031513,-0.0016767844,-0.00033248513
UncalAccel,1676592654159,29710981562520,1.4297116,-0.6646065,9.704092,0.037048545,-0.031444572,0.0098014325
OrientationDeg,1676592654159,29710981562520,251.0,-11.0,-9.0
UncalMag,1676592654165,29710987029064,-160.0152,757.03436,389.63138,-174.57417,771.0116,430.86337
UncalGyro,1676592654168,29710990057414,0.25778514,-1.4873042,-2.9426906,0.0014031513,-0.0016767844,-0.00033248513
UncalAccel,1676592654168,29710990057414,1.3824533,-0.424726,9.468399,0.037048545,-0.031444572,0.0098014325
OrientationDeg,1676592654168,29710990057414,252.0,-12.0,-9.0
UncalMag,1676592654175,29710997020560,-160.1982,757.46136,389.6192,-174.57417,771.0116,430.86337
UncalGyro,1676592654176,29710998533529,0.32452217,-1.4307991,-2.791654,0.0014031513,-0.0016767844,-0.00033248513
UncalAccel,1676592654176,29710998533529,1.2729816,-0.1471586,9.223135,0.037048545,-0.031444572,0.0098014325
OrientationDeg,1676592654176,29710998533529,253.0,-12.0,-10.0
UncalGyro,1676592654185,29711007017071,0.3801109,-1.3564262,-2.6141977,0.0014031513,-0.0016767844,-0.00033248513
UncalAccel,1676592654185,29711007017071,1.1856437,0.26919255,9.096315,0.037048545,-0.031444572,0.0098014325
UncalMag,1676592654185,29711007030001,-160.6008,757.62,389.302,-174.57417,771.0116,430.86337
OrientationDeg,1676592654185,29711007017071,255.0,-13.0,-10.0
UncalGyro,1676592654193,29711015501863,0.41080686,-1.2681563,-2.411238,0.0014031513,-0.0016767844,-0.00033248513
UncalAccel,1676592654193,29711015501863,1.1126626,0.762114,8.945567,0.037048545,-0.031444572,0.0098014325
UncalMag,1676592654195,29711017010185,-160.45439,758.3398,389.9608,-174.57417,771.0116,430.86337
OrientationDeg,1676592654193,29711015501863,256.0,-13.0,-11.0
UncalGyro,1676592654201,29711023979657,0.40194935,-1.180497,-2.1804836,0.0014031513,-0.0016767844,-0.00033248513
UncalAccel,1676592654201,29711023979657,1.0396814,1.198206,8.8187475,0.037048545,-0.031444572,0.0098014325
OrientationDeg,1676592654201,29711023979657,257.0,-14.0,-11.0
UncalMag,1676592654205,29711027020765,-160.552,758.51056,389.9974,-174.57417,771.0116,430.86337
UncalGyro,1676592654210,29711032457206,0.34483343,-1.0830641,-1.922393,0.0014031513,-0.0016767844,-0.00033248513
UncalAccel,1676592654210,29711032457206,0.97567344,1.5667006,8.758927,0.037048545,-0.031444572,0.0098014325
OrientationDeg,1676592654210,29711032457206,258.0,-14.0,-12.0
UncalMag,1676592654215,29711037014906,-161.6744,758.7912,388.3992,-174.57417,771.0116,430.86337
UncalGyro,1676592654218,29711040939994,0.24281894,-0.9746355,-1.64674,0.0014031513,-0.0016767844,-0.00033248513
UncalAccel,1676592654218,29711040939994,0.93619186,1.8681962,8.733205,0.037048545,-0.031444572,0.0098014325
OrientationDeg,1676592654218,29711040939994,258.0,-14.0,-12.0
UncalMag,1676592654226,29711047020602,-161.6744,758.9864,389.302,-174.57417,771.0116,430.86337
UncalGyro,1676592654227,29711049418815,0.10399981,-0.8559749,-1.36788,0.0014031513,-0.0016767844,-0.00033248513
UncalAccel,1676592654227,29711049418815,0.8913264,2.126621,8.769695,0.037048545,-0.031444572,0.0098014325
OrientationDeg,1676592654227,29711049418815,259.0,-14.0,-12.0
UncalMag,1676592654235,29711057020806,-161.6744,758.7912,388.3992,-174.57417,771.0116,430.86337
UncalGyro,1676592654235,29711057901818,-0.051923547,-0.74067414,-1.1006265,0.0014031513,-0.0016767844,-0.00033248513
UncalAccel,1676592654235,29711057901818,0.79501534,2.3078775,8.734999,0.037048545,-0.031444572,0.0098014325
OrientationDeg,1676592654235,29711057901818,259.0,-15.0,-12.0
UncalGyro,1676592654244,29711066372409,-0.19608775,-0.6267477,-0.8529206,0.0014031513,-0.0016767844,-0.00033248513
UncalAccel,1676592654244,29711066372409,0.67118675,2.4035904,8.63809,0.037048545,-0.031444572,0.0098014325
OrientationDeg,1676592654244,29711066372409,260.0,-15.0,-12.0
UncalMag,1676592654245,29711067024102,-161.345,759.15717,388.8506,-174.57417,771.0116,430.86337
UncalGyro,1676592654252,29711074862847,-0.3107777,-0.50610185,-0.63316184,0.0014031513,-0.0016767844,-0.00033248513
UncalAccel,1676592654252,29711074862847,0.5515456,2.4652054,8.556135,0.037048545,-0.031444572,0.0098014325
OrientationDeg,1676592654252,29711074862847,260.0,-15.0,-12.0
UncalMag,1676592654255,29711077020481,-161.88179,758.9742,388.814,-174.57417,771.0116,430.86337
UncalGyro,1676592654261,29711083343774,-0.40546182,-0.3933972,-0.4363105,0.0014031513,-0.0016767844,-0.00033248513
UncalAccel,1676592654261,29711083343774,0.39421752,2.4783661,8.5118685,0.037048545,-0.031444572,0.0098014325
OrientationDeg,1676592654261,29711083343774,260.0,-15.0,-12.0
UncalMag,1676592654265,29711087020807,-162.0648,759.328,389.0214,-174.57417,771.0116,430.86337
UncalGyro,1676592654269,29711091814284,-0.48502702,-0.32253686,-0.25289822,0.0014031513,-0.0016767844,-0.00033248513
UncalAccel,1676592654269,29711091814284,0.20398813,2.4245276,8.391629,0.037048545,-0.031444572,0.0098014325
OrientationDeg,1676592654269,29711091814284,261.0,-15.0,-12.0
UncalMag,1676592654275,29711097005426,-162.0526,759.5598,387.99658,-174.57417,771.0116,430.86337
UncalGyro,1676592654278,29711100304690,-0.5488624,-0.31016684,-0.082924955,0.0014031513,-0.0016767844,-0.00033248513
UncalAccel,1676592654278,29711100304690,0.014955142,2.2755744,8.209774,0.037048545,-0.031444572,0.0098014325
OrientationDeg,1676592654278,29711100304690,261.0,-15.0,-12.0
UncalMag,1676592654285,29711107020604,-162.15019,759.7184,387.5452,-174.57417,771.0116,430.86337
UncalGyro,1676592654286,29711108785709,-0.6009387,-0.32574388,0.06582073,0.0014031513,-0.0016767844,-0.00033248513
UncalAccel,1676592654286,29711108785709,-0.1369891,2.1595225,8.147561,0.037048545,-0.031444572,0.0098014325
OrientationDeg,1676592654286,29711108785709,261.0,-16.0,-11.0
UncalMag,1676592654295,29711117020604,-162.5528,759.9746,387.8624,-174.57417,771.0116,430.86337
UncalGyro,1676592654295,29711117265405,-0.6392705,-0.33185256,0.1908954,0.0014031513,-0.0016767844,-0.00033248513
UncalAccel,1676592654295,29711117265405,-0.25663024,2.1110678,8.156534,0.037048545,-0.031444572,0.0098014325
OrientationDeg,1676592654295,29711117265405,261.0,-16.0,-11.0
UncalGyro,1676592654303,29711125737808,-0.6609562,-0.32834008,0.28725937,0.0014031513,-0.0016767844,-0.00033248513
UncalAccel,1676592654303,29711125737808,-0.37507495,2.0578275,8.084749,0.037048545,-0.031444572,0.0098014325
UncalMag,1676592654305,29711127015803,-162.83339,760.42596,388.3382,-174.57417,771.0116,430.86337
OrientationDeg,1676592654303,29711125737808,261.0,-16.0,-11.0
UncalGyro,1676592654312,29711134229528,-0.678824,-0.31810808,0.36728272,0.0014031513,-0.0016767844,-0.00033248513
UncalAccel,1676592654312,29711134229528,-0.4408776,1.9615164,7.969894,0.037048545,-0.031444572,0.0098014325
OrientationDeg,1676592654312,29711134229528,261.0,-16.0,-10.0
UncalMag,1676592654316,29711137020849,-163.0164,760.9262,387.8624,-174.57417,771.0116,430.86337
UncalGyro,1676592654320,29711142708256,-0.7119634,-0.31978795,0.44516805,0.0014031513,-0.0016767844,-0.00033248513
UncalAccel,1676592654320,29711142708256,-0.4971089,1.8945173,7.826923,0.037048545,-0.031444572,0.0098014325
OrientationDeg,1676592654320,29711142708256,261.0,-16.0,-10.0
UncalMag,1676592654325,29711147031306,-163.0408,760.4992,388.2406,-174.57417,771.0116,430.86337
UncalGyro,1676592654329,29711151189020,-0.77579886,-0.34681875,0.5354234,0.0014031513,-0.0016767844,-0.00033248513
UncalAccel,1676592654329,29711151189020,-0.4953143,1.8610178,7.683952,0.037048545,-0.031444572,0.0098014325
OrientationDeg,1676592654329,29711151189020,260.0,-16.0,-9.0
UncalMag,1676592654335,29711157020564,-163.0896,761.4386,387.61838,-174.57417,771.0116,430.86337
UncalGyro,1676592654337,29711159669336,-0.8782715,-0.3921755,0.6426302,0.0014031513,-0.0016767844,-0.00033248513
UncalAccel,1676592654337,29711159669336,-0.49471608,1.8466609,7.569096,0.037048545,-0.031444572,0.0098014325
OrientationDeg,1676592654337,29711159669336,260.0,-17.0,-9.0
UncalMag,1676592654345,29711167010351,-163.297,761.341,387.36218,-174.57417,771.0116,430.86337
UncalGyro,1676592654346,29711168150976,-1.0115929,-0.4343252,0.77182823,0.0014031513,-0.0016767844,-0.00033248513
UncalAccel,1676592654346,29711168150976,-0.4438686,1.7700906,7.827521,0.037048545,-0.031444572,0.0098014325
OrientationDeg,1676592654346,29711168150976,260.0,-17.0,-8.0
UncalGyro,1676592654354,29711176631476,-0.6968445,0.28252518,0.9078985,0.0014031513,-0.0016767844,-0.00033248513
UncalAccel,1676592654354,29711176631476,0.4223332,1.6103697,14.955141,0.037048545,-0.031444572,0.0098014325
OrientationDeg,1676592654354,29711176631476,260.0,-17.0,-8.0
UncalMag,1676592654355,29711177010270,-163.3824,761.79236,388.082,-174.57417,771.0116,430.86337
UncalGyro,1676592654363,29711185113643,-0.052534413,0.3173445,1.2651019,0.0014031513,-0.0016767844,-0.00033248513
UncalAccel,1676592654363,29711185113643,-0.5599205,0.7375876,6.218946,0.037048545,-0.031444572,0.0098014325
OrientationDeg,1676592654363,29711185113643,259.0,-17.0,-8.0
UncalMag,1676592654365,29711187009864,-163.236,762.3536,386.3862,-174.57417,771.0116,430.86337
UncalGyro,1676592654371,29711193593166,0.73838335,-0.37110063,2.051438,0.0014031513,-0.0016767844,-0.00033248513
UncalAccel,1676592654371,29711193593166,-2.650051,0.10049855,9.8219385,0.037048545,-0.031444572,0.0098014325
OrientationDeg,1676592654371,29711193593166,258.0,-17.0,-8.0
UncalMag,1676592654375,29711197020810,-163.663,762.195,387.09378,-174.57417,771.0116,430.86337
UncalGyro,1676592654380,29711202073716,1.3168727,-0.47433686,2.3052528,0.0014031513,-0.0016767844,-0.00033248513
UncalAccel,1676592654380,29711202073716,-0.93260264,2.2546372,14.041083,0.037048545,-0.031444572,0.0098014325
OrientationDeg,1676592654380,29711202073716,257.0,-17.0,-8.0
UncalMag,1676592654385,29711207010027,-164.2608,761.06036,387.1914,-174.57417,771.0116,430.86337
UncalGyro,1676592654388,29711210553341,1.1114693,-0.9222538,1.7702875,0.0014031513,-0.0016767844,-0.00033248513
UncalAccel,1676592654388,29711210553341,0.89072824,2.7056842,9.129815,0.037048545,-0.031444572,0.0098014325
OrientationDeg,1676592654388,29711210553341,256.0,-18.0,-8.0
UncalMag,1676592654395,29711217020566,-164.82199,760.3528,387.3988,-174.57417,771.0116,430.86337
UncalGyro,1676592654398,29711219034613,0.3368922,-1.0047206,1.2075279,0.0014031513,-0.0016767844,-0.00033248513
UncalAccel,1676592654397,29711219034613,1.3543376,1.3800604,10.07498,0.037048545,-0.031444572,0.0098014325
OrientationDeg,1676592654397,29711219034613,255.0,-19.0,-8.0
UncalMag,1676592654405,29711227020607,-165.676,760.0844,387.6062,-174.57417,771.0116,430.86337
UncalGyro,1676592654405,29711227513231,-0.5309946,-0.7463246,0.9068295,0.0014031513,-0.0016767844,-0.00033248513
UncalAccel,1676592654405,29711227513231,2.344368,0.8380861,8.556734,0.037048545,-0.031444572,0.0098014325
OrientationDeg,1676592654405,29711227513231,255.0,-19.0,-8.0
UncalGyro,1676592654413,29711235993680,-1.0506883,-0.7122689,0.74097955,0.0014031513,-0.0016767844,-0.00033248513
UncalAccel,1676592654413,29711235993680,2.7637103,1.0025927,6.114858,0.037048545,-0.031444572,0.0098014325
OrientationDeg,1676592654413,29711235993680,255.0,-19.0,-7.0
UncalMag,1676592654415,29711237010231,-166.1518,760.9384,387.3378,-174.57417,771.0116,430.86337
OrientationDeg,1676592654422,29711244478910,255.0,-20.0,-7.0
UncalGyro,1676592654422,29711244478910,-1.1927143,-0.8724683,0.6198755,0.0014031513,-0.0016767844,-0.00033248513
UncalAccel,1676592654422,29711244478910,3.5856447,1.2753744,6.6628146,0.037048545,-0.031444572,0.0098014325
UncalMag,1676592654425,29711247020729,-166.1518,760.9384,387.3378,-174.57417,771.0116,430.86337
UncalGyro,1676592654430,29711252951250,-1.2313516,-0.8222246,0.5320636,0.0014031513,-0.0016767844,-0.00033248513
UncalAccel,1676592654430,29711252951250,4.197011,0.7728817,8.353942,0.037048545,-0.031444572,0.0098014325
OrientationDeg,1676592654430,29711252951250,255.0,-20.0,-6.0
UncalMag,1676592654435,29711257020648,-167.1644,761.4386,387.36218,-174.57417,771.0116,430.86337
OrientationDeg,1676592654439,29711261425443,255.0,-21.0,-5.0
UncalGyro,1676592654439,29711261425443,-1.2773192,-0.56214875,0.49510628,0.0014031513,-0.0016767844,-0.00033248513
UncalAccel,1676592654439,29711261425443,4.377669,0.0017946169,9.031709,0.037048545,-0.031444572,0.0098014325
UncalMag,1676592654445,29711267020649,-167.7256,762.3658,386.7522,-174.57417,771.0116,430.86337
UncalGyro,1676592654447,29711269912860,-1.3051136,-0.31474832,0.5138904,0.0014031513,-0.0016767844,-0.00033248513
UncalAccel,1676592654447,29711269912860,4.542176,-0.5138587,8.510672,0.037048545,-0.031444572,0.0098014325
OrientationDeg,1676592654447,29711269912860,255.0,-21.0,-5.0
UncalMag,1676592654455,29711277010273,-167.7988,762.8782,386.3862,-174.57417,771.0116,430.86337
UncalGyro,1676592654456,29711278399138,-1.2878567,-0.20922135,0.5590944,0.0014031513,-0.0016767844,-0.00033248513
UncalAccel,1676592654456,29711278399138,4.634897,-0.5593223,7.7144604,0.037048545,-0.031444572,0.0098014325
OrientationDeg,1676592654456,29711278399138,255.0,-21.0,-4.0
UncalGyro,1676592654464,29711286879952,-1.2139419,-0.1554652,0.61269784,0.0014031513,-0.0016767844,-0.00033248513
UncalAccel,1676592654464,29711286879952,4.6085763,-0.8279166,7.5529447,0.037048545,-0.031444572,0.0098014325
UncalMag,1676592654465,29711287029153,-167.3596,763.2198,385.7274,-174.57417,771.0116,430.86337
OrientationDeg,1676592654464,29711286879952,254.0,-21.0,-3.0
UncalGyro,1676592654473,29711295357583,-1.0613784,-0.07086037,0.65576386,0.0014031513,-0.0016767844,-0.00033248513
UncalAccel,1676592654473,29711295357583,4.767101,-1.1096715,7.631908,0.037048545,-0.031444572,0.0098014325
UncalMag,1676592654475,29711297011331,-167.567,763.39056,385.8982,-174.57417,771.0116,430.86337
OrientationDeg,1676592654473,29711295357583,254.0,-21.0,-3.0
UncalGyro,1676592654481,29711303841440,-0.82787514,0.021685716,0.6939429,0.0014031513,-0.0016767844,-0.00033248513
UncalAccel,1676592654481,29711303841440,5.132006,-1.183849,7.5104723,0.037048545,-0.031444572,0.0098014325
UncalMag,1676592654485,29711307020772,-167.81099,764.45197,386.5204,-174.57417,771.0116,430.86337
OrientationDeg,1676592654481,29711303841440,254.0,-21.0,-2.0
UncalGyro,1676592654490,29711312321817,-0.5198463,0.09025534,0.7486154,0.0014031513,-0.0016767844,-0.00033248513
UncalAccel,1676592654490,29711312321817,5.4185467,-0.93260264,7.405786,0.037048545,-0.031444572,0.0098014325
OrientationDeg,1676592654490,29711312321817,254.0,-21.0,-2.0
UncalMag,1676592654495,29711317010966,-167.81099,764.3544,386.25198,-174.57417,771.0116,430.86337
UncalGyro,1676592654498,29711320791624,-0.18707748,0.1863139,0.8165741,0.0014031513,-0.0016767844,-0.00033248513
UncalAccel,1676592654498,29711320791624,5.4957156,-0.3385844,7.556534,0.037048545,-0.031444572,0.0098014325
OrientationDeg,1676592654498,29711320791624,254.0,-21.0,-1.0
UncalMag,1676592654505,29711327020935,-168.0672,763.6224,385.1174,-174.57417,771.0116,430.86337
UncalGyro,1676592654507,29711329272969,0.10323623,0.35216382,0.872621,0.0014031513,-0.0016767844,-0.00033248513
UncalAccel,1676592654507,29711329272969,5.3964133,0.37387854,8.163115,0.037048545,-0.031444572,0.0098014325
OrientationDeg,1676592654507,29711329272969,253.0,-21.0,-1.0
UncalMag,1676592654515,29711337020610,-167.8354,763.9884,385.6908,-174.57417,771.0116,430.86337
UncalGyro,1676592654515,29711337764089,0.3173445,0.59895337,0.9060659,0.0014031513,-0.0016767844,-0.00033248513
UncalAccel,1676592654515,29711337764089,5.139185,0.8644072,8.950952,0.037048545,-0.031444572,0.0098014325
OrientationDeg,1676592654515,29711337764089,253.0,-20.0,-1.0
UncalGyro,1676592654524,29711346244405,0.43997568,0.9317222,0.9166033,0.0014031513,-0.0016767844,-0.00033248513
UncalAccel,1676592654524,29711346244405,4.8011985,1.2634103,9.720243,0.037048545,-0.031444572,0.0098014325
UncalMag,1676592654525,29711347001770,-167.2498,763.39056,385.5322,-174.57417,771.0116,430.86337
OrientationDeg,1676592654524,29711346244405,252.0,-20.0,-1.0
OrientationDeg,1676592654532,29711354720174,252.0,-19.0,-2.0
UncalGyro,1676592654532,29711354720174,0.45463645,1.2452488,0.89675015,0.0014031513,-0.0016767844,-0.00033248513
UncalAccel,1676592654532,29711354720174,4.4404807,1.6540387,9.687343,0.037048545,-0.031444572,0.0098014325
UncalMag,1676592654535,29711357020854,-167.2376,763.61017,387.1548,-174.57417,771.0116,430.86337
OrientationDeg,1676592654541,29711363206217,251.0,-19.0,-2.0
UncalGyro,1676592654541,29711363206217,0.38041633,1.5047138,0.86849767,0.0014031513,-0.0016767844,-0.00033248513
UncalAccel,1676592654541,29711363206217,3.7920256,1.811965,10.021141,0.037048545,-0.031444572,0.0098014325
UncalMag,1676592654545,29711367013205,-166.1274,762.97577,385.764,-174.57417,771.0116,430.86337
UncalGyro,1676592654549,29711371672190,0.2237294,1.7641789,0.8379544,0.0014031513,-0.0016767844,-0.00033248513
UncalAccel,1676592654549,29711371672190,3.2482567,1.9806589,10.289138,0.037048545,-0.031444572,0.0098014325
OrientationDeg,1676592654549,29711371672190,251.0,-18.0,-2.0
UncalMag,1676592654555,29711377010031,-165.066,763.1954,386.6424,-174.57417,771.0116,430.86337
UncalGyro,1676592654558,29711380153799,-0.05009095,1.970804,0.81122905,0.0014031513,-0.0016767844,-0.00033248513
UncalAccel,1676592654558,29711380153799,3.0646076,1.989632,9.929616,0.037048545,-0.031444572,0.0098014325
OrientationDeg,1676592654558,29711380153799,250.0,-17.0,-1.0
UncalMag,1676592654565,29711387020530,-164.578,762.7074,387.36218,-174.57417,771.0116,430.86337
UncalGyro,1676592654566,29711388647919,-0.40469822,2.094504,0.80649483,0.0014031513,-0.0016767844,-0.00033248513
UncalAccel,1676592654566,29711388647919,3.094518,1.9669002,9.156734,0.037048545,-0.031444572,0.0098014325
OrientationDeg,1676592654566,29711388647919,250.0,-16.0,-1.0
UncalMag,1676592654575,29711397020693,-163.9314,763.0002,387.899,-174.57417,771.0116,430.86337
UncalGyro,1676592654575,29711397131501,-0.83016586,2.0766363,0.77747875,0.0014031513,-0.0016767844,-0.00033248513
UncalAccel,1676592654575,29711397131501,3.167499,1.9447666,8.34138,0.037048545,-0.031444572,0.0098014325
OrientationDeg,1676592654575,29711397131501,250.0,-15.0,-1.0
UncalGyro,1676592654583,29711405609173,-1.2977833,1.9709567,0.73914695,0.0014031513,-0.0016767844,-0.00033248513
UncalAccel,1676592654583,29711405609173,3.3140593,1.5104693,8.210971,0.037048545,-0.031444572,0.0098014325
UncalMag,1676592654585,29711407010276,-163.28479,763.2442,386.9718,-174.57417,771.0116,430.86337
OrientationDeg,1676592654583,29711405609173,250.0,-14.0,0.0
OrientationDeg,1676592654592,29711414076275,250.0,-13.0,0.0
UncalGyro,1676592654592,29711414076275,-1.7460055,1.8280143,0.74174315,0.0014031513,-0.0016767844,-0.00033248513
UncalAccel,1676592654592,29711414076275,3.4869409,0.9984053,8.501101,0.037048545,-0.031444572,0.0098014325
UncalMag,1676592654595,29711417020612,-161.772,764.0738,387.25238,-174.57417,771.0116,430.86337
UncalGyro,1676592654600,29711422569867,-2.1152737,1.6951511,0.7779369,0.0014031513,-0.0016767844,-0.00033248513
UncalAccel,1676592654600,29711422569867,3.7088752,0.9619147,8.268997,0.037048545,-0.031444572,0.0098014325
OrientationDeg,1676592654600,29711422569867,249.0,-12.0,1.0
UncalMag,1676592654605,29711427016543,-161.38159,765.39136,387.4354,-174.57417,771.0116,430.86337
UncalGyro,1676592654609,29711431051617,-2.4094052,1.5864171,0.7874053,0.0014031513,-0.0016767844,-0.00033248513
UncalAccel,1676592654609,29711431051617,3.458227,1.3100704,8.294122,0.037048545,-0.031444572,0.0098014325
OrientationDeg,1676592654609,29711431051617,249.0,-11.0,2.0
UncalMag,1676592654615,29711437020653,-160.1982,765.83057,386.8986,-174.57417,771.0116,430.86337
UncalGyro,1676592654617,29711439532808,-2.6748261,1.4770721,0.7478518,0.0014031513,-0.0016767844,-0.00033248513
UncalAccel,1676592654617,29711439532808,3.3343983,1.8029919,7.899306,0.037048545,-0.031444572,0.0098014325
OrientationDeg,1676592654617,29711439532808,249.0,-11.0,4.0
UncalMag,1676592654625,29711447020857,-159.7224,766.98956,387.289,-174.57417,771.0116,430.86337
UncalGyro,1676592654626,29711448012261,-2.9121473,1.4440855,0.66645396,0.0014031513,-0.0016767844,-0.00033248513
UncalAccel,1676592654626,29711448012261,3.2757742,2.0135603,7.8927255,0.037048545,-0.031444572,0.0098014325
OrientationDeg,1676592654626,29711448012261,249.0,-10.0,5.0
OrientationDeg,1676592654634,29711456493176,249.0,-9.0,7.0
UncalGyro,1676592654634,29711456493176,-3.1305315,1.4752395,0.5563455,0.0014031513,-0.0016767844,-0.00033248513
UncalAccel,1676592654634,29711456493176,3.2327034,1.9555343,7.954939,0.037048545,-0.031444572,0.0098014325
UncalMag,1676592654635,29711457018008,-158.905,768.234,387.8136,-174.57417,771.0116,430.86337
UncalGyro,1676592654642,29711464971601,-3.312264,1.5152513,0.41126502,0.0014031513,-0.0016767844,-0.00033248513
UncalAccel,1676592654642,29711464971601,3.229114,2.056631,7.7108707,0.037048545,-0.031444572,0.0098014325
UncalMag,1676592654645,29711467020857,-158.41699,769.5516,387.5086,-174.57417,771.0116,430.86337
OrientationDeg,1676592654642,29711464971601,249.0,-8.0,8.0
UncalGyro,1676592654651,29711473454704,-3.4843755,1.484708,0.18112154,0.0014031513,-0.0016767844,-0.00033248513
UncalAccel,1676592654651,29711473454704,3.2297122,2.2055843,7.5385876,0.037048545,-0.031444572,0.0098014325
OrientationDeg,1676592654651,29711473454704,249.0,-8.0,10.0
UncalMag,1676592654655,29711477020817,-157.9046,771.04,387.4842,-174.57417,771.0116,430.86337
UncalGyro,1676592654659,29711481936943,-3.601356,1.4906639,-0.09254608,0.0014031513,-0.0016767844,-0.00033248513
UncalAccel,1676592654659,29711481936943,3.2183464,1.9076779,8.007581,0.037048545,-0.031444572,0.0098014325
OrientationDeg,1676592654659,29711481936943,250.0,-7.0,12.0
UncalMag,1676592654665,29711487010278,-157.1482,773.24817,387.99658,-174.57417,771.0116,430.86337
UncalGyro,1676592654668,29711490416100,-3.6670241,1.5245669,-0.3726278,0.0014031513,-0.0016767844,-0.00033248513
UncalAccel,1676592654668,29711490416100,3.481557,1.0857433,7.91785,0.037048545,-0.031444572,0.0098014325
OrientationDeg,1676592654668,29711490416100,250.0,-6.0,14.0
UncalMag,1676592654675,29711497020614,-156.8554,774.5902,389.15558,-174.57417,771.0116,430.86337
OrientationDeg,1676592654676,29711498897769,251.0,-6.0,15.0
UncalGyro,1676592654676,29711498897769,-3.7501018,1.4610369,-0.64996064,0.0014031513,-0.0016767844,-0.00033248513
UncalAccel,1676592654676,29711498897769,3.3349965,0.81655073,7.880163,0.037048545,-0.031444572,0.0098014325
UncalMag,1676592654685,29711507020533,-156.343,776.164,388.78958,-174.57417,771.0116,430.86337
UncalGyro,1676592654685,29711507373580,-3.8125627,1.4262177,-0.9063713,0.0014031513,-0.0016767844,-0.00033248513
UncalAccel,1676592654685,29711507373580,3.463611,0.31345975,8.270193,0.037048545,-0.031444572,0.0098014325
OrientationDeg,1676592654685,29711507373580,251.0,-5.0,17.0
UncalGyro,1676592654693,29711515857833,-3.8541017,1.3778065,-1.1281154,0.0014031513,-0.0016767844,-0.00033248513
UncalAccel,1676592654693,29711515857833,3.6323047,-0.63828546,8.123632,0.037048545,-0.031444572,0.0098014325
UncalMag,1676592654695,29711517010238,-155.916,778.0184,389.3508,-174.57417,771.0116,430.86337
OrientationDeg,1676592654693,29711515857833,252.0,-5.0,19.0
UncalGyro,1676592654702,29711524342197,-3.8037052,1.3640621,-1.2609786,0.0014031513,-0.0016767844,-0.00033248513
UncalAccel,1676592654702,29711524342197,3.6598222,-1.8029919,8.4400835,0.037048545,-0.031444572,0.0098014325
UncalMag,1676592654705,29711527020696,-155.489,779.9338,389.0702,-174.57417,771.0116,430.86337
OrientationDeg,1676592654702,29711524342197,253.0,-5.0,21.0
OrientationDeg,1676592654710,29711532819737,254.0,-4.0,22.0
UncalGyro,1676592654710,29711532819737,-3.6480873,1.3523029,-1.3153456,0.0014031513,-0.0016767844,-0.00033248513
UncalAccel,1676592654710,29711532819737,3.9146578,-2.5764718,8.178069,0.037048545,-0.031444572,0.0098014325
UncalMag,1676592654715,29711537020696,-154.6472,781.82477,390.3512,-174.57417,771.0116,430.86337
UncalGyro,1676592654719,29711541290704,-3.4347425,1.3287846,-1.3054191,0.0014031513,-0.0016767844,-0.00033248513
UncalAccel,1676592654719,29711541290704,4.158128,-3.1304102,8.039286,0.037048545,-0.031444572,0.0098014325
OrientationDeg,1676592654719,29711541290704,255.0,-4.0,24.0
UncalMag,1676592654725,29711547020615,-154.6716,783.1424,390.6562,-174.57417,771.0116,430.86337
UncalGyro,1676592654727,29711549779636,-3.2038355,1.3686435,-1.2525792,0.0014031513,-0.0016767844,-0.00033248513
UncalAccel,1676592654727,29711549779636,4.351348,-3.5365918,8.080562,0.037048545,-0.031444572,0.0098014325
OrientationDeg,1676592654727,29711549779636,256.0,-4.0,25.0
UncalMag,1676592654735,29711557020737,-154.0616,784.55756,391.22958,-174.57417,771.0116,430.86337
UncalGyro,1676592654736,29711558261114,-2.9846876,1.4483615,-1.1855367,0.0014031513,-0.0016767844,-0.00033248513
UncalAccel,1676592654736,29711558261114,4.2921257,-3.996612,7.958528,0.037048545,-0.031444572,0.0098014325
OrientationDeg,1676592654736,29711558261114,256.0,-3.0,27.0
UncalGyro,1676592654744,29711566743098,-2.7737863,1.4866933,-1.1348349,0.0014031513,-0.0016767844,-0.00033248513
UncalAccel,1676592654745,29711566743098,4.104887,-4.232305,7.6343007,0.037048545,-0.031444572,0.0098014325
UncalMag,1676592654745,29711567029771,-153.476,785.63116,391.7176,-174.57417,771.0116,430.86337
OrientationDeg,1676592654744,29711566743098,257.0,-3.0,28.0
UncalGyro,1676592654753,29711575220343,-2.5653286,1.4752395,-1.1030699,0.0014031513,-0.0016767844,-0.00033248513
UncalAccel,1676592654753,29711575220343,3.671188,-4.4931226,7.542177,0.037048545,-0.031444572,0.0098014325
UncalMag,1676592654755,29711577010362,-153.3906,787.0586,392.779,-174.57417,771.0116,430.86337
OrientationDeg,1676592654753,29711575220343,258.0,-3.0,29.0
UncalGyro,1676592654761,29711583703263,-2.3794727,1.4355333,-1.0862712,0.0014031513,-0.0016767844,-0.00033248513
UncalAccel,1676592654761,29711583703263,3.2093735,-4.5726843,7.348358,0.037048545,-0.031444572,0.0098014325
OrientationDeg,1676592654761,29711583703263,258.0,-2.0,31.0
UncalMag,1676592654765,29711587020535,-152.5,788.07117,393.9624,-174.57417,771.0116,430.86337
UncalGyro,1676592654770,29711592177038,-2.2311852,1.3735305,-1.0998629,0.0014031513,-0.0016767844,-0.00033248513
UncalAccel,1676592654770,29711592177038,2.652444,-4.7862434,7.155138,0.037048545,-0.031444572,0.0098014325
OrientationDeg,1676592654770,29711592177038,259.0,-2.0,32.0
UncalMag,1676592654775,29711597020657,-152.5488,788.9496,394.182,-174.57417,771.0116,430.86337
OrientationDeg,1676592654778,29711600665055,260.0,-2.0,33.0
UncalGyro,1676592654778,29711600665055,-2.0949624,1.2962561,-1.1307116,0.0014031513,-0.0016767844,-0.00033248513
UncalAccel,1676592654778,29711600665055,2.0662024,-5.1876397,7.1389866,0.037048545,-0.031444572,0.0098014325
UncalMag,1676592654785,29711607020657,-152.3902,789.9256,394.76758,-174.57417,771.0116,430.86337
UncalGyro,1676592654787,29711609132075,-1.9596558,1.1766791,-1.1837041,0.0014031513,-0.0016767844,-0.00033248513
UncalAccel,1676592654787,29711609132075,1.7054844,-5.572884,7.0289164,0.037048545,-0.031444572,0.0098014325
OrientationDeg,1676592654787,29711609132075,260.0,-2.0,33.0
UncalMag,1676592654795,29711617020617,-151.5606,791.46277,395.71918,-174.57417,771.0116,430.86337
UncalGyro,1676592654795,29711617622677,-1.8058704,1.0270172,-1.2373075,0.0014031513,-0.0016767844,-0.00033248513
UncalAccel,1676592654795,29711617622677,1.3663018,-5.9060845,7.2580295,0.037048545,-0.031444572,0.0098014325
OrientationDeg,1676592654795,29711617622677,261.0,-1.0,34.0
UncalGyro,1676592654804,29711626109504,-1.6224581,0.8668178,-1.2667818,0.0014031513,-0.0016767844,-0.00033248513
UncalAccel,1676592654804,29711626109504,1.0378869,-6.329614,7.277172,0.037048545,-0.031444572,0.0098014325
OrientationDeg,1676592654804,29711626109504,262.0,-1.0,35.0
UncalMag,1676592654805,29711627010485,-151.92659,792.3412,396.1828,-174.57417,771.0116,430.86337
UncalGyro,1676592654812,29711634577440,-1.4143058,0.67103547,-1.2696834,0.0014031513,-0.0016767844,-0.00033248513
UncalAccel,1676592654812,29711634577440,0.69332033,-6.8105717,7.0193453,0.037048545,-0.031444572,0.0098014325
OrientationDeg,1676592654812,29711634577440,263.0,-2.0,36.0
UncalMag,1676592654815,29711637020821,-151.829,792.2314,395.67038,-174.57417,771.0116,430.86337
UncalGyro,1676592654821,29711643065701,-1.1835514,0.4014912,-1.260215,0.0014031513,-0.0016767844,-0.00033248513
UncalAccel,1676592654821,29711643065701,0.45822555,-7.070193,6.728019,0.037048545,-0.031444572,0.0098014325
OrientationDeg,1676592654821,29711643065701,264.0,-2.0,36.0
UncalMag,1676592654825,29711647020658,-151.89,793.04877,396.7196,-174.57417,771.0116,430.86337
UncalGyro,1676592654829,29711651549304,-0.9120218,0.15057829,-1.2092078,0.0014031513,-0.0016767844,-0.00033248513
UncalAccel,1676592654829,29711651549304,0.2961118,-7.2915287,6.814161,0.037048545,-0.031444572,0.0098014325
OrientationDeg,1676592654829,29711651549304,264.0,-2.0,37.0
UncalMag,1676592654835,29711657004545,-151.7558,793.427,397.6468,-174.57417,771.0116,430.86337
UncalGyro,1676592654838,29711660018623,-0.5853616,-0.014049901,-1.1414018,0.0014031513,-0.0016767844,-0.00033248513
UncalAccel,1676592654838,29711660018623,0.106480606,-7.2646093,7.2137623,0.037048545,-0.031444572,0.0098014325
OrientationDeg,1676592654838,29711660018623,265.0,-3.0,37.0
UncalMag,1676592654845,29711667010323,-152.2316,794.2688,397.0124,-174.57417,771.0116,430.86337
UncalGyro,1676592654846,29711668500902,-0.22143865,-0.09132435,-1.0873401,0.0014031513,-0.0016767844,-0.00033248513
UncalAccel,1676592654846,29711668500902,-0.08853444,-7.1706915,7.57448,0.037048545,-0.031444572,0.0098014325
OrientationDeg,1676592654846,29711668500902,266.0,-3.0,37.0
UncalGyro,1676592654854,29711676983234,0.14721853,-0.118507855,-1.0393872,0.0014031513,-0.0016767844,-0.00033248513
UncalAccel,1676592654854,29711676983234,-0.25184458,-7.147959,7.6833534,0.037048545,-0.031444572,0.0098014325
UncalMag,1676592654855,29711677012358,-152.7074,795.0252,396.36578,-174.57417,771.0116,430.86337
OrientationDeg,1676592654854,29711676983234,266.0,-4.0,37.0
UncalGyro,1676592654863,29711685464140,0.5093089,-0.13988814,-1.0016663,0.0014031513,-0.0016767844,-0.00033248513
UncalAccel,1676592654863,29711685464140,-0.31286156,-7.106085,8.107481,0.037048545,-0.031444572,0.0098014325
UncalMag,1676592654865,29711687009998,-153.11,795.2204,397.2686,-174.57417,771.0116,430.86337
OrientationDeg,1676592654863,29711685464140,267.0,-4.0,37.0
UncalGyro,1676592654871,29711693954812,0.88697636,-0.116217114,-0.93202764,0.0014031513,-0.0016767844,-0.00033248513
UncalAccel,1676592654871,29711693954812,-0.3684947,-7.246065,8.66142,0.037048545,-0.031444572,0.0098014325
OrientationDeg,1676592654871,29711693954812,267.0,-4.0,36.0
UncalMag,1676592654875,29711697020741,-153.3174,795.37897,396.7074,-174.57417,771.0116,430.86337
UncalGyro,1676592654880,29711702440388,1.2212723,-0.2771801,-0.82756966,0.0014031513,-0.0016767844,-0.00033248513
UncalAccel,1676592654880,29711702440388,0.020338992,-7.223932,8.4012,0.037048545,-0.031444572,0.0098014325
OrientationDeg,1676592654880,29711702440388,268.0,-5.0,36.0
UncalMag,1676592654886,29711707033192,-154.1592,795.1716,396.317,-174.57417,771.0116,430.86337
UncalGyro,1676592654888,29711710913725,1.3837625,-0.7272351,-0.7350236,0.0014031513,-0.0016767844,-0.00033248513
UncalAccel,1676592654888,29711710913725,0.2536392,-6.8446693,8.916255,0.037048545,-0.031444572,0.0098014325
OrientationDeg,1676592654888,29711710913725,268.0,-5.0,35.0
UncalMag,1676592654895,29711717020578,-154.25679,795.2448,395.8412,-174.57417,771.0116,430.86337
UncalGyro,1676592654897,29711719393940,1.3764321,-1.1739303,-0.6928739,0.0014031513,-0.0016767844,-0.00033248513
UncalAccel,1676592654897,29711719393940,0.18843478,-6.306284,10.2682,0.037048545,-0.031444572,0.0098014325
OrientationDeg,1676592654897,29711719393940,269.0,-6.0,34.0
UncalMag,1676592654905,29711727020864,-154.2812,794.7934,395.3776,-174.57417,771.0116,430.86337
UncalGyro,1676592654905,29711727874705,1.221425,-1.2980887,-0.6953174,0.0014031513,-0.0016767844,-0.00033248513
UncalAccel,1676592654905,29711727874705,0.09212367,-5.945566,12.003594,0.037048545,-0.031444572,0.0098014325
OrientationDeg,1676592654905,29711727874705,269.0,-7.0,33.0
UncalGyro,1676592654914,29711736355509,0.9601275,-1.1311697,-0.68600166,0.0014031513,-0.0016767844,-0.00033248513
UncalAccel,1676592654914,29711736355509,0.37328035,-5.709873,12.581462,0.037048545,-0.031444572,0.0098014325
UncalMag,1676592654915,29711737018219,-155.7818,794.1346,394.76758,-174.57417,771.0116,430.86337
OrientationDeg,1676592654914,29711736355509,269.0,-8.0,33.0
UncalGyro,1676592654922,29711744833028,0.61651576,-0.8781188,-0.677755,0.0014031513,-0.0016767844,-0.00033248513
UncalAccel,1676592654922,29711744833028,0.8243274,-5.3629136,12.7687,0.037048545,-0.031444572,0.0098014325
UncalMag,1676592654925,29711747020701,-155.7818,794.1346,394.76758,-174.57417,771.0116,430.86337
OrientationDeg,1676592654922,29711744833028,270.0,-8.0,33.0
UncalGyro,1676592654931,29711753313862,0.23640485,-0.56779927,-0.66645396,0.0014031513,-0.0016767844,-0.00033248513
UncalAccel,1676592654931,29711753313862,1.0289137,-5.285147,12.898511,0.037048545,-0.031444572,0.0098014325
OrientationDeg,1676592654931,29711753313862,270.0,-9.0,32.0
UncalMag,1676592654935,29711757020620,-156.221,793.8418,393.8648,-174.57417,771.0116,430.86337
UncalGyro,1676592654939,29711761797292,-0.12767084,-0.21609358,-0.6403395,0.0014031513,-0.0016767844,-0.00033248513
UncalAccel,1676592654939,29711761797292,1.0450653,-5.2749777,12.631112,0.037048545,-0.031444572,0.0098014325
OrientationDeg,1676592654939,29711761797292,270.0,-9.0,32.0
UncalMag,1676592654945,29711767009960,-156.6358,793.9394,394.6212,-174.57417,771.0116,430.86337
UncalGyro,1676592654948,29711770270671,-0.44532076,0.124005646,-0.61941737,0.0014031513,-0.0016767844,-0.00033248513
UncalAccel,1676592654948,29711770270671,0.97806627,-5.250451,11.9718895,0.037048545,-0.031444572,0.0098014325
OrientationDeg,1676592654948,29711770270671,271.0,-9.0,33.0
UncalMag,1676592654955,29711777020865,-156.8188,794.3542,394.24298,-174.57417,771.0116,430.86337
UncalGyro,1676592654956,29711778758372,-0.6966918,0.37384954,-0.6229298,0.0014031513,-0.0016767844,-0.00033248513
UncalAccel,1676592654956,29711778758372,0.7968099,-5.144569,11.192428,0.037048545,-0.031444572,0.0098014325
OrientationDeg,1676592654956,29711778758372,271.0,-9.0,33.0
UncalMag,1676592654965,29711787013337,-156.8676,795.3424,395.08478,-174.57417,771.0116,430.86337
UncalGyro,1676592654965,29711787236451,-0.85811293,0.54733527,-0.65316767,0.0014031513,-0.0016767844,-0.00033248513
UncalAccel,1676592654965,29711787236451,0.5916254,-4.818547,10.258629,0.037048545,-0.031444572,0.0098014325
OrientationDeg,1676592654965,29711787236451,272.0,-9.0,33.0
UncalGyro,1676592654973,29711795720287,-0.91446525,0.61193424,-0.70417494,0.0014031513,-0.0016767844,-0.00033248513
UncalAccel,1676592654973,29711795720287,0.37806597,-4.5212383,9.19143,0.037048545,-0.031444572,0.0098014325
UncalMag,1676592654975,29711797010489,-156.24539,795.25696,394.8164,-174.57417,771.0116,430.86337
OrientationDeg,1676592654973,29711795720287,272.0,-9.0,34.0
UncalGyro,1676592654982,29711804200329,-0.874759,0.6085745,-0.7600691,0.0014031513,-0.0016767844,-0.00033248513
UncalAccel,1676592654982,29711804200329,0.2117648,-4.4685965,8.426923,0.037048545,-0.031444572,0.0098014325
OrientationDeg,1676592654982,29711804200329,273.0,-9.0,34.0
UncalMag,1676592654985,29711807020825,-156.5382,795.623,395.51178,-174.57417,771.0116,430.86337
UncalGyro,1676592654990,29711812668529,-0.77366084,0.5688683,-0.7979427,0.0014031513,-0.0016767844,-0.00033248513
UncalAccel,1676592654990,29711812668529,0.049052864,-4.6408796,7.9016986,0.037048545,-0.031444572,0.0098014325
OrientationDeg,1676592654990,29711812668529,273.0,-9.0,34.0
UncalMag,1676592654995,29711817012239,-156.6114,796.1476,395.7558,-174.57417,771.0116,430.86337
UncalGyro,1676592654999,29711821161826,-0.644921,0.45723262,-0.82711154,0.0014031513,-0.0016767844,-0.00033248513
UncalAccel,1676592654999,29711821161826,-0.104087785,-4.8999023,7.467401,0.037048545,-0.031444572,0.0098014325
OrientationDeg,1676592654999,29711821161826,274.0,-9.0,35.0
UncalMag,1676592655005,29711827020663,-156.3918,796.33057,395.5484,-174.57417,771.0116,430.86337
UncalGyro,1676592655007,29711829642732,-0.5196936,0.2790127,-0.8539896,0.0014031513,-0.0016767844,-0.00033248513
UncalAccel,1676592655007,29711829642732,-0.3505485,-5.188836,7.376474,0.037048545,-0.031444572,0.0098014325
OrientationDeg,1676592655007,29711829642732,274.0,-9.0,35.0
UncalMag,1676592655015,29711837020704,-156.6114,796.1476,395.6338,-174.57417,771.0116,430.86337
UncalGyro,1676592655016,29711838123680,-0.42073345,0.06383542,-0.890947,0.0014031513,-0.0016767844,-0.00033248513
UncalAccel,1676592655016,29711838123680,-0.49351966,-5.343173,7.414759,0.037048545,-0.031444572,0.0098014325
OrientationDeg,1676592655016,29711838123680,275.0,-10.0,35.0
UncalGyro,1676592655024,29711846613284,-0.35918877,-0.1421789,-0.9265299,0.0014031513,-0.0016767844,-0.00033248513
UncalAccel,1676592655024,29711846613284,-0.46959144,-5.400601,7.4344997,0.037048545,-0.031444572,0.0098014325
UncalMag,1676592655025,29711847011223,-156.6602,797.1358,396.4756,-174.57417,771.0116,430.86337
OrientationDeg,1676592655024,29711846613284,275.0,-10.0,35.0
UncalGyro,1676592655033,29711855084525,-0.3297145,-0.28955013,-0.9477574,0.0014031513,-0.0016767844,-0.00033248513
UncalAccel,1676592655033,29711855084525,-0.34576288,-5.5052867,7.573882,0.037048545,-0.031444572,0.0098014325
OrientationDeg,1676592655033,29711855084525,276.0,-11.0,35.0
UncalMag,1676592655035,29711857020745,-157.48979,797.1968,396.3902,-174.57417,771.0116,430.86337
UncalGyro,1676592655041,29711863565117,-0.30405816,-0.39400807,-0.9550878,0.0014031513,-0.0016767844,-0.00033248513
UncalAccel,1676592655041,29711863565117,-0.14895321,-5.6333027,7.594819,0.037048545,-0.031444572,0.0098014325
OrientationDeg,1676592655041,29711863565117,277.0,-11.0,35.0
UncalMag,1676592655045,29711867020989,-157.4288,798.0752,396.4878,-174.57417,771.0116,430.86337
OrientationDeg,1676592655050,29711872045423,277.0,-12.0,35.0
UncalGyro,1676592655050,29711872045423,-0.22449298,-0.45204028,-0.9381363,0.0014031513,-0.0016767844,-0.00033248513
UncalAccel,1676592655050,29711872045423,0.071186475,-6.0011992,7.774879,0.037048545,-0.031444572,0.0098014325
UncalMag,1676592655055,29711877010491,-157.96559,797.8922,396.4512,-174.57417,771.0116,430.86337
UncalGyro,1676592655058,29711880526787,-0.043066,-0.48747048,-0.9272934,0.0014031513,-0.0016767844,-0.00033248513
UncalAccel,1676592655058,29711880526787,0.32123643,-6.0568323,7.6959157,0.037048545,-0.031444572,0.0098014325
OrientationDeg,1676592655058,29711880526787,278.0,-12.0,35.0
UncalMag,1676592655065,29711887004632,-158.5634,798.307,396.0852,-174.57417,771.0116,430.86337
UncalGyro,1676592655067,29711889009931,0.23182335,-0.5328272,-0.95294976,0.0014031513,-0.0016767844,-0.00033248513
UncalAccel,1676592655067,29711889009931,0.66759753,-6.375676,7.6085777,0.037048545,-0.031444572,0.0098014325
OrientationDeg,1676592655067,29711889009931,278.0,-13.0,35.0
UncalMag,1676592655075,29711897020624,-159.23439,797.7824,396.4512,-174.57417,771.0116,430.86337
UncalGyro,1676592655075,29711897485385,0.58184916,-0.5569564,-1.0015136,0.0014031513,-0.0016767844,-0.00033248513
UncalAccel,1676592655075,29711897485385,1.1060823,-6.942775,7.600203,0.037048545,-0.031444572,0.0098014325
OrientationDeg,1676592655075,29711897485385,279.0,-13.0,34.0
UncalGyro,1676592655083,29711905968968,0.93569285,-0.573297,-1.0569496,0.0014031513,-0.0016767844,-0.00033248513
UncalAccel,1676592655083,29711905968968,1.3052847,-7.367501,7.4362946,0.037048545,-0.031444572,0.0098014325
UncalMag,1676592655085,29711907010858,-159.332,797.70917,394.3894,-174.57417,771.0116,430.86337
OrientationDeg,1676592655083,29711905968968,279.0,-14.0,34.0
UncalGyro,1676592655092,29711914452233,1.2072225,-0.5539021,-1.0716103,0.0014031513,-0.0016767844,-0.00033248513
UncalAccel,1676592655092,29711914452233,1.1485549,-8.158927,7.272386,0.037048545,-0.031444572,0.0098014325
