# 
# Header Description:
# 
# Version: v3.0.5.6 Platform: 13 Manufacturer: Google Model: Pixel 7
# 
# Raw,utcTimeMillis,TimeNanos,LeapSecond,TimeUncertaintyNanos,FullBiasNanos,BiasNanos,BiasUncertaintyNanos,DriftNanosPerSecond,DriftUncertaintyNanosPerSecond,HardwareClockDiscontinuityCount,Svid,TimeOffsetNanos,State,ReceivedSvTimeNanos,ReceivedSvTimeUncertaintyNanos,Cn0DbHz,PseudorangeRateMetersPerSecond,PseudorangeRateUncertaintyMetersPerSecond,AccumulatedDeltaRangeState,AccumulatedDeltaRangeMeters,AccumulatedDeltaRangeUncertaintyMeters,CarrierFrequencyHz,CarrierCycles,CarrierPhase,CarrierPhaseUncertainty,MultipathIndicator,SnrInDb,ConstellationType,AgcDb,BasebandCn0DbHz,FullInterSignalBiasNanos,FullInterSignalBiasUncertaintyNanos,SatelliteInterSignalBiasNanos,SatelliteInterSignalBiasUncertaintyNanos,CodeType,ChipsetElapsedRealtimeNanos
# 
# UncalAccel,utcTimeMillis,elapsedRealtimeNanos,UncalAccelXMps2,UncalAccelYMps2,UncalAccelZMps2,BiasXMps2,BiasYMps2,BiasZMps2
# 
# Accel,utcTimeMillis,elapsedRealtimeNanos,AccelXMps2,AccelYMps2,AccelZMps2
# 
# UncalGyro,utcTimeMillis,elapsedRealtimeNanos,UncalGyroXRadPerSec,UncalGyroYRadPerSec,UncalGyroZRadPerSec,DriftXRadPerSec,DriftYRadPerSec,DriftZRadPerSec
# 
# Gyro,utcTimeMillis,elapsedRealtimeNanos,GyroXRadPerSec,GyroYRadPerSec,GyroZRadPerSec
# 
# UncalMag,utcTimeMillis,elapsedRealtimeNanos,UncalMagXMicroT,UncalMagYMicroT,UncalMagZMicroT,BiasXMicroT,BiasYMicroT,BiasZMicroT
# 
# Mag,utcTimeMillis,elapsedRealtimeNanos,MagXMicroT,MagYMicroT,MagZMicroT
# 
# OrientationDeg,utcTimeMillis,elapsedRealtimeNanos,yawDeg,rollDeg,pitchDeg
# 
# Fix,Provider,LatitudeDegrees,LongitudeDegrees,AltitudeMeters,SpeedMps,AccuracyMeters,BearingDegrees,UnixTimeMillis,SpeedAccuracyMps,BearingAccuracyDegrees,elapsedRealtimeNanos,VerticalAccuracyMeters
# 
# Nav,Svid,Type,Status,MessageId,Sub-messageId,Data(Bytes)
# 
# Status,UnixTimeMillis,SignalCount,SignalIndex,ConstellationType,Svid,CarrierFrequencyHz,Cn0DbHz,AzimuthDegrees,ElevationDegrees,UsedInFix,HasAlmanacData,HasEphemerisData,BasebandCn0DbHz
# 
UncalGyro,1676595206533,32263355911177,-0.06337727,0.1423316,-0.49663344,-0.00026612,-0.001703367,-0.00033628655
UncalAccel,1676595206533,32263355911177,-3.2530425,0.8213364,14.480764,0.037048545,-0.031444572,0.0098014325
UncalMag,1676595206539,32263361402429,-183.7198,742.1626,397.6956,-177.00775,769.7961,430.15182
UncalMag,1676595206549,32263371403120,-183.9272,742.1748,398.1836,-177.00775,769.7961,430.15182
UncalGyro,1676595206542,32263364393832,-0.10216721,-0.24465153,-0.79504114,-0.00026612,-0.001703367,-0.00033628655
UncalGyro,1676595206550,32263372875024,-0.17455475,-0.6436992,-1.1349876,-0.00026612,-0.001703367,-0.00033628655
UncalAccel,1676595206542,32263364393832,-3.2638102,0.6442675,14.176278,0.037048545,-0.031444572,0.0098014325
UncalAccel,1676595206550,32263372875024,-2.82712,0.4127619,14.146966,0.037048545,-0.031444572,0.0098014325
UncalGyro,1676595206559,32263381355043,-0.26190847,-0.97402465,-1.5074627,-0.00026612,-0.001703367,-0.00033628655
UncalAccel,1676595206559,32263381355043,-2.2845473,0.20997019,13.969897,0.037048545,-0.031444572,0.0098014325
UncalMag,1676595206559,32263381402427,-184.2322,742.41876,397.89078,-177.00775,769.7961,430.15182
OrientationDeg,1676595206533,32263355911177,151.0,4.0,-12.0
OrientationDeg,1676595206542,32263364393832,151.0,4.0,-12.0
OrientationDeg,1676595206559,32263381355043,153.0,3.0,-11.0
UncalGyro,1676595206567,32263389838064,-0.33551773,-1.2261592,-1.9028453,-0.00026612,-0.001703367,-0.00033628655
UncalAccel,1676595206567,32263389838064,-1.774278,-0.04007978,13.731213,0.037048545,-0.031444572,0.0098014325
OrientationDeg,1676595206567,32263389838064,154.0,2.0,-11.0
UncalMag,1676595206569,32263391402264,-183.427,741.8088,397.47598,-177.00775,769.7961,430.15182
Fix,FLP,37.4311343000,-122.1551486000,-15.0,0.48800966,3.988,81.432495,1676595206338,,,32263160850766,2.0488977
OrientationDeg,1676595206576,32263398323233,155.0,2.0,-11.0
UncalGyro,1676595206576,32263398323233,-0.37873647,-1.3898711,-2.307238,-0.00026612,-0.001703367,-0.00033628655
UncalAccel,1676595206576,32263398323233,-1.3944174,-0.3056831,13.648661,0.037048545,-0.031444572,0.0098014325
UncalMag,1676595206579,32263401404338,-183.2318,741.638,397.1832,-177.00775,769.7961,430.15182
UncalGyro,1676595206584,32263406801300,-0.3924809,-1.4921911,-2.6769643,-0.00026612,-0.001703367,-0.00033628655
UncalAccel,1676595206584,32263406801300,-1.0929217,-0.74895346,13.261621,0.037048545,-0.031444572,0.0098014325
OrientationDeg,1676595206584,32263406801300,156.0,2.0,-10.0
UncalMag,1676595206589,32263411405029,-183.5246,741.99176,397.6468,-177.00775,769.7961,430.15182
UncalGyro,1676595206593,32263415283996,-0.38927388,-1.593442,-2.9869783,-0.00026612,-0.001703367,-0.00033628655
UncalAccel,1676595206593,32263415283996,-0.7746763,-1.2155539,12.621541,0.037048545,-0.031444572,0.0098014325
OrientationDeg,1676595206593,32263415283996,158.0,1.0,-10.0
UncalMag,1676595206599,32263421404662,-182.7072,741.7356,397.4394,-177.00775,769.7961,430.15182
UncalGyro,1676595206601,32263423763386,-0.3849978,-1.7047722,-3.2394185,-0.00026612,-0.001703367,-0.00033628655
UncalAccel,1676595206601,32263423763386,-0.4534399,-1.5523437,12.119647,0.037048545,-0.031444572,0.0098014325
OrientationDeg,1676595206601,32263423763386,159.0,1.0,-10.0
UncalMag,1676595206609,32263431402790,-182.939,741.211,397.1954,-177.00775,769.7961,430.15182
UncalGyro,1676595206610,32263432246031,-0.39354995,-1.7935003,-3.4423783,-0.00026612,-0.001703367,-0.00033628655
UncalAccel,1676595206610,32263432246031,-0.15314065,-1.7611175,11.812169,0.037048545,-0.031444572,0.0098014325
OrientationDeg,1676595206610,32263432246031,161.0,0.0,-10.0
UncalGyro,1676595206618,32263440723823,-0.42058071,-1.8385516,-3.5961637,-0.00026612,-0.001703367,-0.00033628655
UncalAccel,1676595206618,32263440723823,0.0741775,-1.9076779,11.51845,0.037048545,-0.031444572,0.0098014325
UncalMag,1676595206619,32263441397377,-181.8898,741.394,397.09778,-177.00775,769.7961,430.15182
OrientationDeg,1676595206618,32263440723823,163.0,0.0,-9.0
UncalGyro,1676595206627,32263449212410,-0.45356745,-1.8403842,-3.7125335,-0.00026612,-0.001703367,-0.00033628655
UncalAccel,1676595206627,32263449212410,0.27876383,-2.097309,11.219945,0.037048545,-0.031444572,0.0098014325
OrientationDeg,1676595206627,32263449212410,165.0,0.0,-9.0
UncalMag,1676595206629,32263451403806,-182.3168,741.24756,398.15918,-177.00775,769.7961,430.15182
UncalGyro,1676595206635,32263457690345,-0.463494,-1.7886134,-3.8052323,-0.00026612,-0.001703367,-0.00033628655
UncalAccel,1676595206635,32263457690345,0.50129634,-2.315654,10.96511,0.037048545,-0.031444572,0.0098014325
OrientationDeg,1676595206635,32263457690345,166.0,-1.0,-9.0
UncalMag,1676595206639,32263461403683,-181.79219,741.3452,398.2934,-177.00775,769.7961,430.15182
UncalGyro,1676595206644,32263466170477,-0.44516805,-1.6956092,-3.890448,-0.00026612,-0.001703367,-0.00033628655
UncalAccel,1676595206645,32263466170477,0.7908279,-2.4670002,10.73839,0.037048545,-0.031444572,0.0098014325
OrientationDeg,1676595206644,32263466170477,168.0,-1.0,-9.0
UncalMag,1676595206649,32263471405554,-181.2676,741.2354,397.15878,-177.00775,769.7961,430.15182
UncalGyro,1676595206652,32263474649673,-0.40301836,-1.6129897,-3.9808562,-0.00026612,-0.001703367,-0.00033628655
UncalAccel,1676595206652,32263474649673,0.9661021,-2.5375884,10.429716,0.037048545,-0.031444572,0.0098014325
OrientationDeg,1676595206652,32263474649673,170.0,-2.0,-9.0
UncalMag,1676595206659,32263481403803,-180.2672,740.5522,397.09778,-177.00775,769.7961,430.15182
UncalGyro,1676595206661,32263483131739,-0.3388775,-1.5361733,-4.097226,-0.00026612,-0.001703367,-0.00033628655
UncalAccel,1676595206661,32263483131739,0.98644114,-2.541776,10.24846,0.037048545,-0.031444572,0.0098014325
OrientationDeg,1676595206661,32263483131739,172.0,-2.0,-8.0
UncalMag,1676595206669,32263491405634,-180.1452,740.83276,397.2808,-177.00775,769.7961,430.15182
UncalGyro,1676595206669,32263491612766,-0.25366178,-1.4395039,-4.2435284,-0.00026612,-0.001703367,-0.00033628655
UncalAccel,1676595206669,32263491612766,0.89072824,-2.5136602,10.267004,0.037048545,-0.031444572,0.0098014325
OrientationDeg,1676595206669,32263491612766,174.0,-3.0,-8.0
UncalGyro,1676595206678,32263500098228,-0.16401732,-1.3388638,-4.406324,-0.00026612,-0.001703367,-0.00033628655
UncalAccel,1676595206678,32263500098228,0.71306115,-2.428715,10.260424,0.037048545,-0.031444572,0.0098014325
OrientationDeg,1676595206678,32263500098228,177.0,-3.0,-8.0
UncalMag,1676595206679,32263501402256,-179.523,740.6864,397.8298,-177.00775,769.7961,430.15182
UncalGyro,1676595206686,32263508579165,-0.08781188,-1.2901474,-4.5624,-0.00026612,-0.001703367,-0.00033628655
UncalAccel,1676595206686,32263508579165,0.47018966,-2.3623142,10.082158,0.037048545,-0.031444572,0.0098014325
OrientationDeg,1676595206686,32263508579165,179.0,-3.0,-8.0
UncalMag,1676595206689,32263511406120,-178.486,740.62537,398.15918,-177.00775,769.7961,430.15182
UncalGyro,1676595206695,32263517057385,-0.03145956,-1.3179418,-4.6975536,-0.00026612,-0.001703367,-0.00033628655
UncalAccel,1676595206695,32263517057385,0.25663024,-2.315654,9.817751,0.037048545,-0.031444572,0.0098014325
OrientationDeg,1676595206695,32263517057385,181.0,-3.0,-9.0
UncalMag,1676595206699,32263521402539,-176.20459,740.3204,398.025,-177.00775,769.7961,430.15182
UncalGyro,1676595206703,32263525539796,0.009468411,-1.382388,-4.8156033,-0.00026612,-0.001703367,-0.00033628655
UncalAccel,1676595206703,32263525539796,0.07477571,-2.2594228,9.768699,0.037048545,-0.031444572,0.0098014325
OrientationDeg,1676595206704,32263525539796,184.0,-4.0,-9.0
UncalMag,1676595206709,32263531403067,-176.20459,740.3204,398.025,-177.00775,769.7961,430.15182
UncalGyro,1676595206712,32263534018170,0.032375857,-1.4304937,-4.9086075,-0.00026612,-0.001703367,-0.00033628655
UncalAccel,1676595206712,32263534018170,-0.021535404,-2.1732812,9.801002,0.037048545,-0.031444572,0.0098014325
OrientationDeg,1676595206712,32263534018170,186.0,-4.0,-9.0
UncalMag,1676595206719,32263541402375,-175.68,740.30817,397.52478,-177.00775,769.7961,430.15182
UncalGyro,1676595206720,32263542504130,0.04062254,-1.4760032,-4.964196,-0.00026612,-0.001703367,-0.00033628655
UncalAccel,1676595206720,32263542504130,-0.034695927,-2.0632114,9.600004,0.037048545,-0.031444572,0.0098014325
OrientationDeg,1676595206720,32263542504130,188.0,-4.0,-9.0
UncalGyro,1676595206728,32263550986826,0.030390546,-1.5267049,-4.987409,-0.00026612,-0.001703367,-0.00033628655
UncalAccel,1676595206728,32263550986826,-0.07238288,-1.9722841,9.48455,0.037048545,-0.031444572,0.0098014325
UncalMag,1676595206729,32263551408925,-173.39859,740.0032,397.52478,-177.00775,769.7961,430.15182
OrientationDeg,1676595206728,32263550986826,191.0,-5.0,-9.0
UncalGyro,1676595206737,32263559465036,0.0012217305,-1.5916094,-4.988478,-0.00026612,-0.001703367,-0.00033628655
UncalAccel,1676595206737,32263559465036,-0.13459627,-1.8000008,9.326026,0.037048545,-0.031444572,0.0098014325
OrientationDeg,1676595206737,32263559465036,193.0,-5.0,-9.0
UncalMag,1676595206739,32263561402455,-172.76419,740.1374,398.37878,-177.00775,769.7961,430.15182
UncalGyro,1676595206745,32263567946216,-0.05009095,-1.6742289,-4.9867983,-0.00026612,-0.001703367,-0.00033628655
UncalAccel,1676595206745,32263567946216,-0.16390835,-1.6037893,9.281759,0.037048545,-0.031444572,0.0098014325
OrientationDeg,1676595206745,32263567946216,196.0,-5.0,-10.0
UncalMag,1676595206749,32263571413237,-171.20259,740.1496,397.8664,-177.00775,769.7961,430.15182
UncalGyro,1676595206754,32263576438271,-0.12461651,-1.7343992,-4.9900055,-0.00026612,-0.001703367,-0.00033628655
UncalAccel,1676595206754,32263576438271,-0.21834506,-1.46022,9.381062,0.037048545,-0.031444572,0.0098014325
OrientationDeg,1676595206754,32263576438271,198.0,-6.0,-10.0
UncalMag,1676595206759,32263581402494,-170.3364,740.50336,397.31738,-177.00775,769.7961,430.15182
UncalGyro,1676595206763,32263584916683,-0.21105394,-1.7577647,-4.998405,-0.00026612,-0.001703367,-0.00033628655
UncalAccel,1676595206762,32263584916683,-0.3290131,-1.2837493,9.388838,0.037048545,-0.031444572,0.0098014325
OrientationDeg,1676595206762,32263584916683,201.0,-6.0,-10.0
UncalMag,1676595206769,32263591412869,-170.4218,740.8938,396.0852,-177.00775,769.7961,430.15182
UncalGyro,1676595206771,32263593399330,-0.29764408,-1.7595973,-4.998405,-0.00026612,-0.001703367,-0.00033628655
UncalAccel,1676595206771,32263593399330,-0.47318068,-1.0402796,9.305687,0.037048545,-0.031444572,0.0098014325
OrientationDeg,1676595206771,32263593399330,203.0,-6.0,-10.0
UncalMag,1676595206779,32263601412868,-168.9212,741.46716,396.6708,-177.00775,769.7961,430.15182
UncalGyro,1676595206779,32263601874386,-0.3831652,-1.7658587,-4.9722905,-0.00026612,-0.001703367,-0.00033628655
UncalAccel,1676595206779,32263601874386,-0.60717875,-0.8105687,9.136395,0.037048545,-0.031444572,0.0098014325
OrientationDeg,1676595206779,32263601874386,206.0,-7.0,-10.0
UncalGyro,1676595206788,32263610352615,-0.47128254,-1.7892243,-4.905859,-0.00026612,-0.001703367,-0.00033628655
UncalAccel,1676595206788,32263610352615,-0.74117684,-0.6580262,9.077172,0.037048545,-0.031444572,0.0098014325
UncalMag,1676595206789,32263611402532,-168.5918,741.638,396.46338,-177.00775,769.7961,430.15182
OrientationDeg,1676595206788,32263610352615,208.0,-7.0,-10.0
UncalGyro,1676595206796,32263618840764,-0.55878896,-1.8078557,-4.794681,-0.00026612,-0.001703367,-0.00033628655
UncalAccel,1676595206796,32263618840764,-0.8333005,-0.5389833,9.128618,0.037048545,-0.031444572,0.0098014325
OrientationDeg,1676595206796,32263618840764,210.0,-8.0,-10.0
UncalMag,1676595206799,32263621410018,-167.8354,742.10156,396.6708,-177.00775,769.7961,430.15182
UncalGyro,1676595206805,32263627321537,-0.63117653,-1.8138117,-4.648837,-0.00026612,-0.001703367,-0.00033628655
UncalAccel,1676595206805,32263627321537,-0.8997013,-0.4432704,9.027522,0.037048545,-0.031444572,0.0098014325
OrientationDeg,1676595206805,32263627321537,213.0,-8.0,-10.0
UncalMag,1676595206809,32263631413110,-167.1888,742.4554,396.5,-177.00775,769.7961,430.15182
UncalGyro,1676595206813,32263635812096,-0.6794349,-1.7837266,-4.486194,-0.00026612,-0.001703367,-0.00033628655
UncalAccel,1676595206813,32263635812096,-0.91884387,-0.37627137,8.998808,0.037048545,-0.031444572,0.0098014325
OrientationDeg,1676595206814,32263635812096,215.0,-9.0,-10.0
UncalMag,1676595206819,32263641404402,-166.4202,742.95557,395.3898,-177.00775,769.7961,430.15182
UncalGyro,1676595206822,32263644287326,-0.69027776,-1.6733127,-4.3182063,-0.00026612,-0.001703367,-0.00033628655
UncalAccel,1676595206822,32263644287326,-0.79501534,-0.3182454,8.989237,0.037048545,-0.031444572,0.0098014325
OrientationDeg,1676595206822,32263644287326,217.0,-9.0,-10.0
UncalMag,1676595206829,32263651412905,-165.7126,744.261,394.7066,-177.00775,769.7961,430.15182
UncalGyro,1676595206830,32263652764325,-0.65240407,-1.4886786,-4.145179,-0.00026612,-0.001703367,-0.00033628655
UncalAccel,1676595206830,32263652764325,-0.6693921,-0.21655045,8.770293,0.037048545,-0.031444572,0.0098014325
OrientationDeg,1676595206830,32263652764325,219.0,-9.0,-10.0
UncalGyro,1676595206839,32263661250103,-0.57864213,-1.2851077,-3.9715405,-0.00026612,-0.001703367,-0.00033628655
UncalAccel,1676595206839,32263661250103,-0.64008003,-0.024526432,8.531011,0.037048545,-0.031444572,0.0098014325
UncalMag,1676595206839,32263661405417,-165.3832,744.63916,395.40198,-177.00775,769.7961,430.15182
OrientationDeg,1676595206839,32263661250103,221.0,-9.0,-10.0
UncalGyro,1676595206847,32263669731914,-0.49327368,-1.0899363,-3.7917933,-0.00026612,-0.001703367,-0.00033628655
UncalAccel,1676595206847,32263669731914,-0.6687939,0.21535404,8.357532,0.037048545,-0.031444572,0.0098014325
UncalMag,1676595206849,32263671402121,-164.944,744.9808,394.98718,-177.00775,769.7961,430.15182
OrientationDeg,1676595206847,32263669731914,223.0,-10.0,-10.0
UncalGyro,1676595206856,32263678202301,-0.4034765,-0.8959866,-3.5924985,-0.00026612,-0.001703367,-0.00033628655
UncalAccel,1676595206856,32263678202301,-0.7788638,0.45882374,8.193623,0.037048545,-0.031444572,0.0098014325
OrientationDeg,1676595206856,32263678202301,225.0,-10.0,-10.0
UncalMag,1676595206859,32263681409973,-164.6024,745.39557,394.2308,-177.00775,769.7961,430.15182
UncalGyro,1676595206864,32263686692982,-0.3129157,-0.6983717,-3.3735032,-0.00026612,-0.001703367,-0.00033628655
UncalAccel,1676595206864,32263686692982,-0.98883396,0.74117684,7.913663,0.037048545,-0.031444572,0.0098014325
OrientationDeg,1676595206864,32263686692982,227.0,-10.0,-10.0
UncalMag,1676595206869,32263691394754,-163.5288,745.8714,394.8042,-177.00775,769.7961,430.15182
UncalGyro,1676595206873,32263695175414,-0.23777929,-0.5166393,-3.1380148,-0.00026612,-0.001703367,-0.00033628655
UncalAccel,1676595206873,32263695175414,-1.2364911,1.0462617,7.55773,0.037048545,-0.031444572,0.0098014325
OrientationDeg,1676595206873,32263695175414,228.0,-10.0,-11.0
UncalMag,1676595206879,32263701412901,-162.7724,746.2618,395.5972,-177.00775,769.7961,430.15182
UncalGyro,1676595206881,32263703657429,-0.2078469,-0.35643986,-2.8892398,-0.00026612,-0.001703367,-0.00033628655
UncalAccel,1676595206881,32263703657429,-1.46022,1.3812568,7.2442703,0.037048545,-0.031444572,0.0098014325
OrientationDeg,1676595206881,32263703657429,230.0,-9.0,-11.0
UncalMag,1676595206889,32263711412941,-162.46739,746.0788,394.9384,-177.00775,769.7961,430.15182
UncalGyro,1676595206891,32263712133400,-0.23548855,-0.2060143,-2.637258,-0.00026612,-0.001703367,-0.00033628655
UncalAccel,1676595206890,32263712133400,-1.6576279,1.7587247,7.083353,0.037048545,-0.031444572,0.0098014325
OrientationDeg,1676595206890,32263712133400,231.0,-9.0,-11.0
UncalGyro,1676595206898,32263720619279,-0.33292156,-0.015271631,-2.3706152,-0.00026612,-0.001703367,-0.00033628655
UncalAccel,1676595206898,32263720619279,-1.847259,2.1308086,7.2472615,0.037048545,-0.031444572,0.0098014325
UncalMag,1676595206899,32263721402239,-161.284,746.6034,394.4382,-177.00775,769.7961,430.15182
OrientationDeg,1676595206898,32263720619279,232.0,-9.0,-11.0
UncalGyro,1676595206907,32263729100247,-0.4906775,0.22143865,-2.0932825,-0.00026612,-0.001703367,-0.00033628655
UncalAccel,1676595206907,32263729100247,-2.108675,2.6362925,7.3627152,0.037048545,-0.031444572,0.0098014325
OrientationDeg,1676595206907,32263729100247,233.0,-9.0,-11.0
UncalMag,1676595206909,32263731413021,-161.5524,747.2744,393.633,-177.00775,769.7961,430.15182
UncalGyro,1676595206915,32263737573594,-0.65484756,0.39080104,-1.7075211,-0.00026612,-0.001703367,-0.00033628655
UncalAccel,1676595206915,32263737573594,-3.214159,2.3336003,6.9990063,0.037048545,-0.031444572,0.0098014325
OrientationDeg,1676595206915,32263737573594,234.0,-8.0,-11.0
UncalMag,1676595206919,32263741404028,-161.0034,747.72577,393.7306,-177.00775,769.7961,430.15182
UncalGyro,1676595206924,32263746052455,-0.124311075,-0.5500842,0.3932445,-0.00026612,-0.001703367,-0.00033628655
UncalAccel,1676595206924,32263746052455,-10.453644,-1.3274183,3.6400814,0.037048545,-0.031444572,0.0098014325
OrientationDeg,1676595206924,32263746052455,234.0,-8.0,-11.0
UncalMag,1676595206929,32263751405614,-160.79599,747.81116,393.7428,-177.00775,769.7961,430.15182
UncalGyro,1676595206932,32263754541020,1.1748465,-1.9306396,3.8583777,-0.00026612,-0.001703367,-0.00033628655
UncalAccel,1676595206932,32263754541020,-10.00798,0.4103691,8.636295,0.037048545,-0.031444572,0.0098014325
OrientationDeg,1676595206932,32263754541020,232.0,-10.0,-11.0
UncalMag,1676595206939,32263761413060,-163.0652,746.6156,393.2792,-177.00775,769.7961,430.15182
UncalGyro,1676595206941,32263763025771,2.0195205,-2.1013765,5.09538,-0.00026612,-0.001703367,-0.00033628655
UncalAccel,1676595206941,32263763025771,-2.8815567,4.8173504,12.5348015,0.037048545,-0.031444572,0.0098014325
OrientationDeg,1676595206941,32263763025771,229.0,-11.0,-11.0
UncalMag,1676595206949,32263771412855,-164.98059,745.90796,394.121,-177.00775,769.7961,430.15182
UncalGyro,1676595206949,32263771507022,2.172695,-1.5554156,4.6602907,-0.00026612,-0.001703367,-0.00033628655
UncalAccel,1676595206949,32263771507022,-0.4863412,8.418549,13.352549,0.037048545,-0.031444572,0.0098014325
OrientationDeg,1676595206949,32263771507022,226.0,-12.0,-12.0
UncalGyro,1676595206957,32263779988273,1.7515033,-0.63346726,3.692375,-0.00026612,-0.001703367,-0.00033628655
UncalAccel,1676595206957,32263779988273,0.11066805,8.887542,13.110275,0.037048545,-0.031444572,0.0098014325
UncalMag,1676595206959,32263781402194,-166.9448,744.7734,395.35318,-177.00775,769.7961,430.15182
OrientationDeg,1676595206957,32263779988273,224.0,-13.0,-12.0
UncalGyro,1676595206966,32263788470746,1.3026701,0.7087564,2.1907156,-0.00026612,-0.001703367,-0.00033628655
UncalAccel,1676595206966,32263788470746,3.9924245,7.4865437,14.340186,0.037048545,-0.031444572,0.0098014325
OrientationDeg,1676595206966,32263788470746,223.0,-13.0,-13.0
UncalMag,1676595206969,32263791413017,-168.4698,743.712,395.62158,-177.00775,769.7961,430.15182
UncalGyro,1676595206974,32263796946566,0.42332962,1.1670581,0.96837413,-0.00026612,-0.001703367,-0.00033628655
UncalAccel,1676595206974,32263796946566,1.4321043,2.6249263,10.310673,0.037048545,-0.031444572,0.0098014325
OrientationDeg,1676595206974,32263796946566,223.0,-13.0,-13.0
UncalMag,1676595206979,32263801398490,-167.76219,743.27277,395.0116,-177.00775,769.7961,430.15182
UncalGyro,1676595206983,32263805433512,-0.3753767,1.8498527,0.100029185,-0.00026612,-0.001703367,-0.00033628655
UncalAccel,1676595206983,32263805433512,1.9369899,1.358525,13.3842535,0.037048545,-0.031444572,0.0098014325
OrientationDeg,1676595206983,32263805433512,223.0,-12.0,-13.0
UncalMag,1676595206989,32263811404999,-167.2986,743.9804,395.0482,-177.00775,769.7961,430.15182
UncalGyro,1676595206991,32263813906617,-1.1786644,1.2759448,-0.66630125,-0.00026612,-0.001703367,-0.00033628655
UncalAccel,1676595206991,32263813906617,1.1455638,1.6265212,4.624728,0.037048545,-0.031444572,0.0098014325
UncalMag,1676595206999,32263821413177,-166.24939,744.1878,395.56058,-177.00775,769.7961,430.15182
OrientationDeg,1676595206991,32263813906617,223.0,-11.0,-12.0
OrientationDeg,1676595207000,32263822391692,224.0,-11.0,-11.0
UncalGyro,1676595207000,32263822391692,-1.8958203,0.4277584,-1.0606148,-0.00026612,-0.001703367,-0.00033628655
UncalAccel,1676595207000,32263822391692,2.277369,1.0695918,3.923631,0.037048545,-0.031444572,0.0098014325
UncalGyro,1676595207008,32263830876748,-2.4448354,-0.34055737,-1.0656544,-0.00026612,-0.001703367,-0.00033628655
UncalAccel,1676595207008,32263830876748,3.3146574,1.8047864,3.5156546,0.037048545,-0.031444572,0.0098014325
UncalMag,1676595207009,32263831402231,-165.5418,745.39557,394.6212,-177.00775,769.7961,430.15182
OrientationDeg,1676595207008,32263830876748,225.0,-11.0,-10.0
UncalGyro,1676595207017,32263839361885,-2.643214,-0.6962337,-0.8677341,-0.00026612,-0.001703367,-0.00033628655
UncalAccel,1676595207017,32263839361885,3.6251264,2.797808,6.6819572,0.037048545,-0.031444572,0.0098014325
UncalMag,1676595207019,32263841404712,-165.59059,746.2496,394.2186,-177.00775,769.7961,430.15182
OrientationDeg,1676595207017,32263839361885,226.0,-11.0,-9.0
UncalGyro,1676595207026,32263847838661,-2.537687,-0.1553125,-0.678824,-0.00026612,-0.001703367,-0.00033628655
UncalAccel,1676595207025,32263847838661,4.552943,3.7184465,9.862019,0.037048545,-0.031444572,0.0098014325
OrientationDeg,1676595207025,32263847838661,226.0,-11.0,-8.0
UncalMag,1676595207029,32263851412768,-165.93219,747.40857,392.4496,-177.00775,769.7961,430.15182
UncalGyro,1676595207034,32263856309913,-2.2715025,0.3585779,-0.65118235,-0.00026612,-0.001703367,-0.00033628655
UncalAccel,1676595207034,32263856309913,3.7124643,4.156931,8.107481,0.037048545,-0.031444572,0.0098014325
OrientationDeg,1676595207034,32263856309913,227.0,-11.0,-7.0
UncalMag,1676595207039,32263861402676,-165.5418,748.6408,392.4862,-177.00775,769.7961,430.15182
UncalGyro,1676595207042,32263864801632,-1.9448422,0.75793105,-0.6637051,-0.00026612,-0.001703367,-0.00033628655
UncalAccel,1676595207042,32263864801632,3.8237305,2.99043,6.863812,0.037048545,-0.031444572,0.0098014325
OrientationDeg,1676595207042,32263864801632,227.0,-10.0,-6.0
UncalMag,1676595207049,32263871413906,-165.2124,748.897,392.0592,-177.00775,769.7961,430.15182
UncalGyro,1676595207051,32263873284012,-1.6339118,1.0282389,-0.50503284,-0.00026612,-0.001703367,-0.00033628655
UncalAccel,1676595207051,32263873284012,4.976473,1.6175481,7.1784678,0.037048545,-0.031444572,0.0098014325
OrientationDeg,1676595207051,32263873284012,227.0,-10.0,-5.0
UncalMag,1676595207059,32263881409673,-164.4316,749.7876,392.1324,-177.00775,769.7961,430.15182
UncalGyro,1676595207059,32263881761480,-1.3562735,1.2006557,-0.204029,-0.00026612,-0.001703367,-0.00033628655
UncalAccel,1676595207059,32263881761480,5.361717,0.87637126,7.9818583,0.037048545,-0.031444572,0.0098014325
OrientationDeg,1676595207059,32263881761480,228.0,-9.0,-5.0
UncalGyro,1676595207068,32263890244990,-1.1239921,1.3238977,0.065973446,-0.00026612,-0.001703367,-0.00033628655
UncalAccel,1676595207068,32263890244990,4.8011985,0.98644114,8.665009,0.037048545,-0.031444572,0.0098014325
UncalMag,1676595207069,32263891402470,-163.91919,749.50696,391.32718,-177.00775,769.7961,430.15182
OrientationDeg,1676595207068,32263890244990,228.0,-9.0,-4.0
UncalGyro,1676595207076,32263898729334,-0.8720101,1.3416128,0.20234911,-0.00026612,-0.001703367,-0.00033628655
UncalAccel,1676595207076,32263898729334,3.6454654,1.6163517,8.62134,0.037048545,-0.031444572,0.0098014325
UncalMag,1676595207079,32263901413008,-163.6386,750.7392,391.48578,-177.00775,769.7961,430.15182
OrientationDeg,1676595207076,32263898729334,228.0,-8.0,-4.0
UncalGyro,1676595207085,32263907207940,-0.6217081,1.3715452,0.20723604,-0.00026612,-0.001703367,-0.00033628655
UncalAccel,1676595207085,32263907207940,2.3114667,2.292324,9.363115,0.037048545,-0.031444572,0.0098014325
OrientationDeg,1676595207085,32263907207940,228.0,-7.0,-4.0
UncalMag,1676595207089,32263911413089,-162.5772,751.032,391.6566,-177.00775,769.7961,430.15182
UncalGyro,1676595207093,32263915683525,-0.41248676,1.4627168,0.10827587,-0.00026612,-0.001703367,-0.00033628655
UncalAccel,1676595207093,32263915683525,1.3998013,2.4382863,10.320843,0.037048545,-0.031444572,0.0098014325
OrientationDeg,1676595207093,32263915683525,228.0,-7.0,-3.0
UncalMag,1676595207099,32263921412844,-162.1258,751.5688,392.1324,-177.00775,769.7961,430.15182
UncalGyro,1676595207102,32263924171521,-0.27916542,1.5454891,-0.05390886,-0.00026612,-0.001703367,-0.00033628655
UncalAccel,1676595207102,32263924171521,0.9176475,2.324029,10.943574,0.037048545,-0.031444572,0.0098014325
OrientationDeg,1676595207102,32263924171521,228.0,-6.0,-3.0
UncalMag,1676595207109,32263931413088,-162.1258,751.5566,391.7664,-177.00775,769.7961,430.15182
UncalGyro,1676595207110,32263932652030,-0.21930063,1.5416712,-0.22067507,-0.00026612,-0.001703367,-0.00033628655
UncalAccel,1676595207110,32263932652030,0.7692925,2.236691,11.000404,0.037048545,-0.031444572,0.0098014325
OrientationDeg,1676595207110,32263932652030,228.0,-5.0,-3.0
UncalGyro,1676595207119,32263941131694,-0.20754147,1.4953982,-0.33673948,-0.00026612,-0.001703367,-0.00033628655
UncalAccel,1676595207119,32263941131694,0.6867401,2.067997,11.239686,0.037048545,-0.031444572,0.0098014325
OrientationDeg,1676595207119,32263941131694,228.0,-4.0,-3.0
UncalMag,1676595207119,32263941398642,-161.0766,751.6054,392.352,-177.00775,769.7961,430.15182
UncalGyro,1676595207127,32263949613881,-0.21548271,1.4677565,-0.39461896,-0.00026612,-0.001703367,-0.00033628655
UncalAccel,1676595207127,32263949613881,0.6017949,1.7270198,11.364711,0.037048545,-0.031444572,0.0098014325
OrientationDeg,1676595207127,32263949613881,228.0,-4.0,-3.0
UncalMag,1676595207129,32263951421590,-160.6618,751.73956,393.8282,-177.00775,769.7961,430.15182
Status,0,33,0,3,15,1602000000,39.81,296.0,81.0,1,1,1,36.21451
Status,0,33,1,1,11,1176450050,42.20,102.0,77.0,1,1,1,38.5964
Status,0,33,2,1,11,1575420030,42.81,102.0,77.0,1,1,1,39.208935
Status,0,33,3,6,2,1176450050,39.56,118.0,73.0,1,1,1,35.95802
Status,0,33,4,6,2,1575420030,43.17,118.0,73.0,1,1,1,39.56775
Status,0,33,5,1,12,1575420030,39.73,330.0,70.0,1,1,1,36.12941
Status,0,33,6,3,17,1604249980,39.60,336.0,70.0,1,1,1,36.004913
Status,0,33,7,6,34,1176450050,41.07,210.0,63.0,1,1,1,37.470993
Status,0,33,8,6,34,1575420030,44.45,210.0,63.0,1,1,1,40.854206
Status,0,33,9,6,36,1575420030,37.28,47.0,59.0,0,1,1,33.675156
Status,0,33,10,6,36,1176450050,33.24,47.0,59.0,1,1,1,29.639008
Status,0,33,11,6,30,1575420030,38.09,316.0,49.0,1,1,1,34.488834
Status,0,33,12,6,30,1176450050,41.99,316.0,49.0,1,1,1,38.389008
Status,0,33,13,3,14,1598062460,46.16,156.0,40.0,1,1,1,42.56125
Status,0,33,14,3,18,1600312450,44.98,245.0,40.0,1,1,1,41.38312
Status,0,33,15,1,6,1176450050,36.24,46.0,40.0,1,1,1,32.635513
Status,0,33,16,1,6,1575420030,39.56,46.0,40.0,1,1,1,35.95906
Status,0,33,17,1,25,1575420030,38.37,313.0,39.0,1,1,1,34.77242
Status,0,33,18,1,25,1176450050,44.97,313.0,39.0,1,1,1,41.367714
Status,0,33,19,1,24,1575420030,42.83,215.0,34.0,1,1,1,39.230274
Status,0,33,20,1,24,1176450050,37.73,215.0,34.0,1,1,1,34.134487
Status,0,33,21,1,20,1575420030,44.97,139.0,30.0,1,1,1,41.373596
Status,0,33,22,3,16,1601437440,39.92,328.0,26.0,1,1,1,36.319237
Status,0,33,23,3,24,1603124990,39.39,36.0,26.0,1,1,1,35.78973
Status,0,33,24,1,19,1575420030,42.74,64.0,22.0,1,1,1,39.135296
Status,0,33,25,6,25,1575420030,43.07,129.0,22.0,1,1,1,39.466145
Status,0,33,26,6,25,1176450050,39.44,129.0,22.0,1,1,1,35.842762
Status,0,33,27,1,29,1575420030,44.70,268.0,18.0,1,1,1,41.10181
Status,0,33,28,1,2,1575420030,49.02,219.0,16.0,1,1,1,45.41565
Status,0,33,29,6,15,1176450050,33.32,218.0,12.0,1,1,1,29.715069
Status,0,33,30,6,15,1575420030,47.21,218.0,12.0,1,1,1,43.612072
Status,0,33,31,6,11,1176450050,30.20,41.0,11.0,1,1,1,26.604122
Status,0,33,32,6,11,1575420030,34.29,41.0,11.0,0,1,1,30.685352
Raw,1676595206999,444066000000,,,-1360629980933610378,0.0,6.760017519249915,170.0,1.0,60,2,0.0,16431,435224919502721,12,45.658748626708984,-571.7763906425587,0.15,16,-255603.39468626073,340282346638528860000000000000000000000,1575420030,,,,0,,1,,42.05875015258789,0.0,1.0,0.0,1.0,C,32263836583000
Raw,1676595206999,444066000000,,,-1360629980933610378,0.0,6.760017519249915,170.0,1.0,60,6,0.0,16431,435224926606751,17,38.94865417480469,555.8575999218192,0.15,16,241843.91706914004,340282346638528860000000000000000000000,1575420030,,,,0,,1,,35.348655700683594,0.320142130558394,1.0,0.320142130558394,1.0,C,32263836583000
Raw,1676595206999,444066000000,,,-1360629980933610378,0.0,6.760017519249915,170.0,1.0,60,11,0.0,16431,435224931669859,14,41.19439697265625,59.303998367459116,0.15,16,17121.501178696828,340282346638528860000000000000000000000,1575420030,,,,0,,1,,37.594398498535156,-0.20372681261465636,1.0,-0.20372681261465636,1.0,C,32263836583000
Raw,1676595206999,444066000000,,,-1360629980933610378,0.0,6.760017519249915,170.0,1.0,60,12,0.0,16431,435224931543873,24,35.08462905883789,-165.89680019671437,0.534899225672447,16,-79267.32439647152,340282346638528860000000000000000000000,1575420030,,,,1,,1,,31.484630584716797,-0.6984919076624261,1.0,-0.6984919076624261,1.0,C,32263836583000
Raw,1676595206999,444066000000,,,-1360629980933610378,0.0,6.760017519249915,170.0,1.0,60,19,0.0,16431,435224922157111,14,41.88463592529297,566.7480354194659,0.15,16,252681.5811621822,340282346638528860000000000000000000000,1575420030,,,,0,,1,,38.284637451171875,0.0,1.0,0.0,1.0,C,32263836583000
Raw,1676595206999,444066000000,,,-1360629980933610378,0.0,6.760017519249915,170.0,1.0,60,20,0.0,16431,435224923714900,15,40.53422546386719,-459.0057558806011,0.15,16,-206081.81262934644,340282346638528860000000000000000000000,1575420030,,,,0,,1,,36.934226989746094,0.0,1.0,0.0,1.0,C,32263836583000
Raw,1676595206999,444066000000,,,-1360629980933610378,0.0,6.760017519249915,170.0,1.0,60,24,0.0,16431,435224923886930,13,42.114051818847656,599.5430612295836,0.15,16,262935.2676577684,340282346638528860000000000000000000000,1575420030,,,,0,,1,,38.51405334472656,-0.20372681261465636,1.0,-0.20372681261465636,1.0,C,32263836583000
Raw,1676595206999,444066000000,,,-1360629980933610378,0.0,6.760017519249915,170.0,1.0,60,25,0.0,16431,435224927261952,26,34.31381607055664,-451.49299407173453,0.5687915327088171,16,-202822.51076491698,340282346638528860000000000000000000000,1575420030,,,,0,,1,,30.713817596435547,-2.0372682255564105,1.0,-2.0372682255564105,1.0,C,32263836583000
Raw,1676595206999,444066000000,,,-1360629980933610378,0.0,6.760017519249915,170.0,1.0,60,29,0.0,16431,435224919134916,23,35.84912109375,-431.5584038287384,0.5018863059249334,16,-191373.76685140448,340282346638528860000000000000000000000,1575420030,,,,0,,1,,32.249122619628906,-0.6984919076624261,1.0,-0.6984919076624261,1.0,C,32263836583000
Raw,1676595206999,444066000000,,,-1360629980933610378,0.0,6.760017519249915,170.0,1.0,60,6,0.0,81921,435224926607268,9,34.853790283203125,555.3812635094564,0.5443918887706776,16,243499.27585089768,340282346638528860000000000000000000000,1176450050,,,,0,,1,,31.2537899017334,1.9208527336454408,1.4747084128375207,1.9208527336454408,1.0,Q,32263836583000
Raw,1676595206999,444066000000,,,-1360629980933610378,0.0,6.760017519249915,170.0,1.0,60,11,0.0,81921,435224931670354,6,40.490806579589844,59.371421987075365,0.15,16,17147.03299631497,340282346638528860000000000000000000000,1176450050,,,,0,,1,,36.89080810546875,0.0,1.4747084128375207,0.0,1.0,Q,32263836583000
Raw,1676595206999,444066000000,,,-1360629980933610378,0.0,6.760017519249915,170.0,1.0,60,24,0.0,81921,435224923887426,21,28.46598243713379,599.2658345282271,0.8311550877911125,16,264705.74934968073,340282346638528860000000000000000000000,1176450050,,,,0,,1,,24.865982055664062,3.5215636101095664,1.4747084128375207,3.5215636101095664,1.0,Q,32263836583000
Raw,1676595206999,444066000000,,,-1360629980933610378,0.0,6.760017519249915,170.0,1.0,60,25,0.0,81921,435224927262473,7,44.96771240234375,-451.61596357486883,0.15,16,-202862.4807343471,340282346638528860000000000000000000000,1176450050,,,,0,,1,,41.367713928222656,1.0186341127782053,1.4747084128375207,1.0186341127782053,1.0,Q,32263836583000
Raw,1676595206999,444066000000,,,-1360629980933610378,0.0,6.760017519249915,170.0,1.0,60,14,0.0,32995,14006929844930,33,46.16124725341797,683.3426877208262,0.15,16,296314.80514134944,340282346638528860000000000000000000000,1598062460,,,,0,,3,,42.561248779296875,52.1540641784668,2.0000000474974513,52.1540641784668,2.0000000474974513,C,32263836583000
Raw,1676595206999,444066000000,,,-1360629980933610378,0.0,6.760017519249915,170.0,1.0,60,18,0.0,32995,14006929860540,37,38.35916519165039,-386.48926295106094,0.15,16,-178272.0891292193,340282346638528860000000000000000000000,1600312450,,,,0,,3,,34.7591667175293,52.1540641784668,2.0000000474974513,52.1540641784668,2.0000000474974513,C,32263836583000
Raw,1676595206999,444066000000,,,-1360629980933610378,0.0,6.760017519249915,170.0,1.0,60,16,0.0,32995,14006926076102,52,34.0989990234375,-657.4774433007524,0.5782383642224462,16,-293786.4280382435,340282346638528860000000000000000000000,1601437440,,,,1,,3,,30.499000549316406,52.1540641784668,2.0000000474974513,52.1540641784668,2.0000000474974513,C,32263836583000
Raw,1676595206999,444066000000,,,-1360629980933610378,0.0,6.760017519249915,170.0,1.0,60,15,0.0,32995,14006935633563,43,36.6777229309082,-28.725838249871643,0.15,16,-25189.444994443464,340282346638528860000000000000000000000,1602000000,,,,0,,3,,33.07772445678711,52.1540641784668,2.0000000474974513,52.1540641784668,2.0000000474974513,C,32263836583000
Raw,1676595206999,444066000000,,,-1360629980933610378,0.0,6.760017519249915,170.0,1.0,60,24,0.0,32867,14006925989379,58,32.79738998413086,702.1318006825472,0.6367546137072169,16,312453.1585697844,340282346638528860000000000000000000000,1603124990,,,,0,,3,,29.197391510009766,52.1540641784668,2.0000000474974513,52.1540641784668,2.0000000474974513,C,32263836583000
Raw,1676595206999,444066000000,,,-1360629980933610378,0.0,6.760017519249915,170.0,1.0,60,17,0.0,32995,14006935335913,34,39.60491180419922,208.9832964135469,0.15,16,84860.46213105426,340282346638528860000000000000000000000,1604249980,,,,0,,3,,36.004913330078125,52.1540641784668,2.0000000474974513,52.1540641784668,2.0000000474974513,C,32263836583000
Raw,1676595206999,444066000000,,,-1360629980933610378,0.0,6.760017519249915,170.0,1.0,60,2,0.0,85026,435224921406291,12,43.102684020996094,179.8061063220972,0.15,16,76152.25125134281,340282346638528860000000000000000000000,1575420030,,,,0,,6,,39.502685546875,-5.878973752260207,1.5000000237487257,-5.878973752260207,1.5000000237487257,C,32263836583000
Raw,1676595206999,444066000000,,,-1360629980933610378,0.0,6.760017519249915,170.0,1.0,60,11,0.0,85026,435224907958674,49,27.427730560302734,586.5823891578284,299.7931729746838,16,261255.62199904642,340282346638528860000000000000000000000,1575420030,,,,1,,6,,23.827730178833008,-5.878973752260207,1.5000000237487257,-5.878973752260207,1.5000000237487257,C,32263836583000
Raw,1676595206999,444066000000,,,-1360629980933610378,0.0,6.760017519249915,170.0,1.0,60,15,0.0,85026,435224907638094,11,44.819976806640625,-497.14852361388694,0.15,16,-220366.25020407597,340282346638528860000000000000000000000,1575420030,,,,0,,6,,41.21997833251953,-5.878973752260207,1.5000000237487257,-5.878973752260207,1.5000000237487257,C,32263836583000
Raw,1676595206999,444066000000,,,-1360629980933610378,0.0,6.760017519249915,170.0,1.0,60,25,0.0,85026,435224910383897,12,43.06614303588867,513.8285119186069,0.15,16,226342.95807373905,340282346638528860000000000000000000000,1575420030,,,,0,,6,,39.46614456176758,-5.878973752260207,1.5000000237487257,-5.878973752260207,1.5000000237487257,C,32263836583000
Raw,1676595206999,444066000000,,,-1360629980933610378,0.0,6.760017519249915,170.0,1.0,60,30,0.0,85026,435224916706572,36,30.01251983642578,-293.63495023540327,0.7617564164462851,16,-131240.9665979509,340282346638528860000000000000000000000,1575420030,,,,1,,6,,26.412519454956055,-5.878973752260207,1.5000000237487257,-5.878973752260207,1.5000000237487257,C,32263836583000
Raw,1676595206999,444066000000,,,-1360629980933610378,0.0,6.760017519249915,170.0,1.0,60,34,0.0,85026,435224920284921,11,44.45420455932617,-214.89053594299344,0.15,16,-100271.04133868571,340282346638528860000000000000000000000,1575420030,,,,0,,6,,40.85420608520508,-5.878973752260207,1.5000000237487257,-5.878973752260207,1.5000000237487257,C,32263836583000
Raw,1676595206999,444066000000,,,-1360629980933610378,0.0,6.760017519249915,170.0,1.0,60,36,0.0,84002,435224919708210,1000000000,28.688735961914062,313.19340648821367,299792458,16,135269.12620250747,340282346638528860000000000000000000000,1575420030,,,,0,,6,,25.088735580444336,-5.878973752260207,1.5000000237487257,-5.878973752260207,1.5000000237487257,C,32263836583000
Raw,1676595206999,444066000000,,,-1360629980933610378,0.0,6.760017519249915,170.0,1.0,60,2,0.0,84003,435224921406844,8,36.60818862915039,179.864438446436,0.15,16,76246.15124620999,340282346638528860000000000000000000000,1176450050,,,,0,,6,,33.0081901550293,-4.216632805764675,1.9747084365862464,-4.216632805764675,1.5000000237487257,Q,32263836583000
Raw,1676595206999,444066000000,,,-1360629980933610378,0.0,6.760017519249915,170.0,1.0,60,11,0.0,84003,435224907959185,22,29.60913848876953,588.0300074161783,0.780481131671483,16,261789.0595455517,340282346638528860000000000000000000000,1176450050,,,,0,,6,,26.009138107299805,5.203299224376676,1.9747084365862464,5.203299224376676,1.5000000237487257,Q,32263836583000
Raw,1676595206999,444066000000,,,-1360629980933610378,0.0,6.760017519249915,170.0,1.0,60,15,0.0,84003,435224907638592,12,32.03279113769531,-497.2557129396512,0.671434445161347,16,-219963.36383749594,340282346638528860000000000000000000000,1176450050,,,,0,,6,,28.43279266357422,-11.050701141357418,1.9747084365862464,-11.050701141357418,1.5000000237487257,Q,32263836583000
Raw,1676595206999,444066000000,,,-1360629980933610378,0.0,6.760017519249915,170.0,1.0,60,25,0.0,84003,435224910384400,7,36.6281623840332,513.7472593422565,0.15,16,226673.9945407126,340282346638528860000000000000000000000,1176450050,,,,0,,6,,33.02816390991211,-8.649541996419428,1.9747084365862464,-8.649541996419428,1.5000000237487257,Q,32263836583000
Raw,1676595206999,444066000000,,,-1360629980933610378,0.0,6.760017519249915,170.0,1.0,60,30,0.0,84003,435224916707093,9,41.98900604248047,-293.7297676294497,0.15,16,-132193.62686637137,340282346638528860000000000000000000000,1176450050,,,,0,,6,,38.389007568359375,-8.2801328971982,1.9747084365862464,-8.2801328971982,1.5000000237487257,Q,32263836583000
Raw,1676595206999,444066000000,,,-1360629980933610378,0.0,6.760017519249915,170.0,1.0,60,34,0.0,84003,435224920285441,6,41.07099151611328,-214.98779023268128,0.15,16,-100654.14430975264,340282346638528860000000000000000000000,1176450050,,,,0,,6,,37.47099304199219,-9.942473843693731,1.9747084365862464,-9.942473843693731,1.5000000237487257,Q,32263836583000
Raw,1676595206999,444066000000,,,-1360629980933610378,0.0,6.760017519249915,170.0,1.0,60,36,0.0,84003,435224919708732,24,29.713722229003906,313.3037654824345,0.7778915306487284,16,135747.01179027112,340282346638528860000000000000000000000,1176450050,,,,0,,6,,26.11372184753418,-10.865996591746804,1.9747084365862464,-10.865996591746804,1.5000000237487257,Q,32263836583000
UncalGyro,1676595207136,32263958097992,-0.21762075,1.4796684,-0.3996586,-0.00026612,-0.001703367,-0.00033628655
UncalAccel,1676595207136,32263958097992,0.41156548,1.0737791,11.68176,0.037048545,-0.031444572,0.0098014325
UncalMag,1676595207139,32263961413085,-159.4052,751.72736,392.4618,-177.00775,769.7961,430.15182
OrientationDeg,1676595207136,32263958097992,228.0,-3.0,-3.0
Fix,GPS,37.4311374394,-122.1551406998,-7.618648043055942,0.18038148,2.95667,243.45792,1676595206999,0.09302873,180.0,32263836583000,3.0
UncalGyro,1676595207144,32263966577686,-0.15989397,1.5604553,-0.3436117,-0.00026612,-0.001703367,-0.00033628655
UncalAccel,1676595207144,32263966577686,0.35294133,0.4127619,11.694323,0.037048545,-0.031444572,0.0098014325
OrientationDeg,1676595207144,32263966577686,229.0,-2.0,-3.0
Fix,FLP,37.4311331000,-122.1551491000,-15.0,0.4808512,3.926,81.521545,1676595206847,,,32263669731914,2.114138
UncalMag,1676595207149,32263971414549,-158.8074,751.1418,392.91318,-177.00775,769.7961,430.15182
UncalGyro,1676595207153,32263975059182,-0.04718934,1.6475036,-0.24984388,-0.00026612,-0.001703367,-0.00033628655
UncalAccel,1676595207153,32263975059182,0.360718,-0.1381855,11.615957,0.037048545,-0.031444572,0.0098014325
OrientationDeg,1676595207153,32263975059182,229.0,-1.0,-3.0
UncalMag,1676595207159,32263981412840,-158.173,751.42236,393.328,-177.00775,769.7961,430.15182
UncalGyro,1676595207161,32263983536446,0.14553864,1.7121025,-0.117744274,-0.00026612,-0.001703367,-0.00033628655
UncalAccel,1676595207161,32263983536446,0.38584265,-0.6017949,11.207981,0.037048545,-0.031444572,0.0098014325
OrientationDeg,1676595207161,32263983536446,229.0,0.0,-3.0
UncalMag,1676595207169,32263991398882,-156.709,751.398,394.2552,-177.00775,769.7961,430.15182
UncalGyro,1676595207170,32263992003669,0.4129449,1.7686076,0.065973446,-0.00026612,-0.001703367,-0.00033628655
UncalAccel,1676595207170,32263992003669,0.25543383,-1.038485,11.003993,0.037048545,-0.031444572,0.0098014325
OrientationDeg,1676595207170,32263992003669,229.0,0.0,-3.0
UncalGyro,1676595207178,32264000493923,0.7247916,1.815186,0.27214047,-0.00026612,-0.001703367,-0.00033628655
UncalAccel,1676595207178,32264000493923,0.022731815,-0.9625129,10.74497,0.037048545,-0.031444572,0.0098014325
UncalMag,1676595207179,32264001402706,-156.709,751.398,394.2552,-177.00775,769.7961,430.15182
OrientationDeg,1676595207178,32264000493923,229.0,0.0,-3.0
UncalGyro,1676595207186,32264008985775,1.0201449,1.864208,0.46120325,-0.00026612,-0.001703367,-0.00033628655
UncalAccel,1676595207186,32264008985775,-0.60717875,-0.43968117,10.828719,0.037048545,-0.031444572,0.0098014325
OrientationDeg,1676595207186,32264008985775,228.0,1.0,-4.0
UncalMag,1676595207189,32264011413082,-156.72119,751.1296,394.19418,-177.00775,769.7961,430.15182
UncalGyro,1676595207195,32264017463089,1.2305881,1.8648189,0.57558775,-0.00026612,-0.001703367,-0.00033628655
UncalAccel,1676595207195,32264017463089,-1.625923,0.5024927,10.76471,0.037048545,-0.031444572,0.0098014325
OrientationDeg,1676595207195,32264017463089,228.0,2.0,-5.0
UncalMag,1676595207199,32264021413284,-155.0132,750.117,394.2674,-177.00775,769.7961,430.15182
UncalGyro,1676595207203,32264025942306,1.3026701,1.7594446,0.6075055,-0.00026612,-0.001703367,-0.00033628655
UncalAccel,1676595207203,32264025942306,-3.03051,1.250848,10.718649,0.037048545,-0.031444572,0.0098014325
OrientationDeg,1676595207203,32264025942306,228.0,3.0,-5.0
UncalMag,1676595207209,32264031418207,-154.9156,750.0682,395.46298,-177.00775,769.7961,430.15182
UncalGyro,1676595207212,32264034430138,1.2032518,1.4721853,0.527024,-0.00026612,-0.001703367,-0.00033628655
UncalAccel,1676595207212,32264034430138,-4.4931226,1.9645073,10.744371,0.037048545,-0.031444572,0.0098014325
OrientationDeg,1676595207212,32264034430138,228.0,4.0,-6.0
UncalMag,1676595207219,32264041413039,-154.1226,749.385,395.40198,-177.00775,769.7961,430.15182
UncalGyro,1676595207220,32264042909631,0.91767234,1.0780244,0.3129157,-0.00026612,-0.001703367,-0.00033628655
UncalAccel,1676595207220,32264042909631,-5.360521,2.6679974,11.117054,0.037048545,-0.031444572,0.0098014325
OrientationDeg,1676595207220,32264042909631,227.0,4.0,-6.0
UncalGyro,1676595207229,32264051387433,0.52610767,0.728915,0.040011674,-0.00026612,-0.001703367,-0.00033628655
UncalAccel,1676595207229,32264051387433,-5.375476,3.0263224,11.5352,0.037048545,-0.031444572,0.0098014325
UncalMag,1676595207229,32264051411736,-153.842,748.7262,396.3292,-177.00775,769.7961,430.15182
OrientationDeg,1676595207229,32264051387433,227.0,5.0,-7.0
UncalGyro,1676595207238,32264059871441,0.16218472,0.5170974,-0.18829921,-0.00026612,-0.001703367,-0.00033628655
UncalAccel,1676595207237,32264059871441,-4.759324,2.8522446,11.792428,0.037048545,-0.031444572,0.0098014325
UncalMag,1676595207239,32264061399731,-153.842,748.7262,396.3292,-177.00775,769.7961,430.15182
OrientationDeg,1676595207237,32264059871441,228.0,5.0,-7.0
UncalGyro,1676595207246,32264068355144,-0.10262536,0.45753807,-0.32375857,-0.00026612,-0.001703367,-0.00033628655
UncalAccel,1676595207246,32264068355144,-4.08395,2.3054845,12.067004,0.037048545,-0.031444572,0.0098014325
OrientationDeg,1676595207246,32264068355144,228.0,5.0,-7.0
UncalMag,1676595207249,32264071411124,-153.2076,748.836,396.8294,-177.00775,769.7961,430.15182
UncalGyro,1676595207254,32264076832205,-0.27290404,0.47739118,-0.3801109,-0.00026612,-0.001703367,-0.00033628655
UncalAccel,1676595207254,32264076832205,-3.5593238,1.6139588,12.08854,0.037048545,-0.031444572,0.0098014325
OrientationDeg,1676595207254,32264076832205,228.0,5.0,-6.0
UncalMag,1676595207259,32264081402212,-153.2198,748.7384,396.439,-177.00775,769.7961,430.15182
UncalGyro,1676595207263,32264085312764,-0.3715588,0.5314528,-0.3828598,-0.00026612,-0.001703367,-0.00033628655
UncalAccel,1676595207263,32264085312764,-3.2309089,0.97866446,12.06521,0.037048545,-0.031444572,0.0098014325
OrientationDeg,1676595207263,32264085312764,228.0,6.0,-6.0
UncalMag,1676595207269,32264091412669,-152.85379,749.62897,396.89038,-177.00775,769.7961,430.15182
UncalGyro,1676595207271,32264093796356,-0.38881573,0.6388123,-0.34865135,-0.00026612,-0.001703367,-0.00033628655
UncalAccel,1676595207271,32264093796356,-2.841477,0.37746778,12.232708,0.037048545,-0.031444572,0.0098014325
OrientationDeg,1676595207271,32264093796356,228.0,6.0,-6.0
UncalMag,1676595207279,32264101413034,-152.7806,749.09216,396.2682,-177.00775,769.7961,430.15182
UncalGyro,1676595207280,32264102280598,-0.30558532,0.8011498,-0.30955598,-0.00026612,-0.001703367,-0.00033628655
UncalAccel,1676595207280,32264102280598,-2.4017956,0.3044867,11.682359,0.037048545,-0.031444572,0.0098014325
OrientationDeg,1676595207280,32264102280598,228.0,6.0,-6.0
UncalGyro,1676595207288,32264110749520,-0.26893342,0.86116725,-0.26221392,-0.00026612,-0.001703367,-0.00033628655
UncalAccel,1676595207288,32264110749520,-2.5812573,0.6873383,11.111072,0.037048545,-0.031444572,0.0098014325
UncalMag,1676595207289,32264111401152,-152.6464,749.6046,395.9022,-177.00775,769.7961,430.15182
OrientationDeg,1676595207288,32264110749520,228.0,7.0,-6.0
UncalGyro,1676595207297,32264119240751,-0.19058995,0.9787588,-0.20326541,-0.00026612,-0.001703367,-0.00033628655
UncalAccel,1676595207297,32264119240751,-2.5627131,0.7304091,11.154142,0.037048545,-0.031444572,0.0098014325
UncalMag,1676595207299,32264121412951,-152.2316,749.568,397.3418,-177.00775,769.7961,430.15182
OrientationDeg,1676595207297,32264119240751,229.0,7.0,-6.0
UncalGyro,1676595207305,32264127721727,-0.0786489,1.1443033,-0.14370605,-0.00026612,-0.001703367,-0.00033628655
UncalAccel,1676595207305,32264127721727,-2.4221346,0.75553375,10.949556,0.037048545,-0.031444572,0.0098014325
OrientationDeg,1676595207305,32264127721727,229.0,8.0,-6.0
UncalMag,1676595207309,32264131409817,-151.3776,749.7632,397.36618,-177.00775,769.7961,430.15182
UncalGyro,1676595207314,32264136192521,0.012217305,1.25319,-0.063988134,-0.00026612,-0.001703367,-0.00033628655
UncalAccel,1676595207314,32264136192521,-2.4340987,0.7704889,10.58166,0.037048545,-0.031444572,0.0098014325
OrientationDeg,1676595207314,32264136192521,229.0,9.0,-6.0
UncalMag,1676595207319,32264141402777,-150.8896,749.3606,398.0982,-177.00775,769.7961,430.15182
UncalGyro,1676595207322,32264144678910,0.0571159,1.2834278,0.022143865,-0.00026612,-0.001703367,-0.00033628655
UncalAccel,1676595207322,32264144678910,-2.556731,0.90448695,10.265209,0.037048545,-0.031444572,0.0098014325
OrientationDeg,1676595207322,32264144678910,229.0,9.0,-6.0
UncalMag,1676595207329,32264151402207,-150.2674,749.18976,397.9274,-177.00775,769.7961,430.15182
UncalGyro,1676595207331,32264153165706,0.07315111,1.2834278,0.08017606,-0.00026612,-0.001703367,-0.00033628655
UncalAccel,1676595207331,32264153165706,-2.7912276,1.1862419,10.114461,0.037048545,-0.031444572,0.0098014325
OrientationDeg,1676595207332,32264153165706,229.0,10.0,-6.0
UncalMag,1676595207339,32264161412826,-149.6452,749.1288,398.2568,-177.00775,769.7961,430.15182
UncalGyro,1676595207339,32264161645288,0.08903361,1.2767084,0.101098195,-0.00026612,-0.001703367,-0.00033628655
UncalAccel,1676595207339,32264161645288,-3.00718,1.4386846,9.97807,0.037048545,-0.031444572,0.0098014325
OrientationDeg,1676595207340,32264161645288,229.0,10.0,-6.0
UncalGyro,1676595207348,32264170128351,0.12385293,1.2530373,0.09728029,-0.00026612,-0.001703367,-0.00033628655
UncalAccel,1676595207348,32264170128351,-3.1974092,1.5194423,9.799805,0.037048545,-0.031444572,0.0098014325
UncalMag,1676595207349,32264171403589,-149.6452,749.2264,398.7692,-177.00775,769.7961,430.15182
OrientationDeg,1676595207348,32264170128351,229.0,11.0,-6.0
UncalGyro,1676595207355,32264178611820,0.19272798,1.1991285,0.08827003,-0.00026612,-0.001703367,-0.00033628655
UncalAccel,1676595207356,32264178611820,-3.4049866,1.3842479,9.498908,0.037048545,-0.031444572,0.0098014325
UncalMag,1676595207359,32264181413028,-148.901,749.3362,399.01318,-177.00775,769.7961,430.15182
OrientationDeg,1676595207356,32264178611820,228.0,12.0,-6.0
UncalGyro,1676595207365,32264187090762,0.32559118,1.1249083,0.07544186,-0.00026612,-0.001703367,-0.00033628655
UncalAccel,1676595207365,32264187090762,-3.5551362,1.2735798,9.192626,0.037048545,-0.031444572,0.0098014325
OrientationDeg,1676595207365,32264187090762,228.0,12.0,-6.0
UncalMag,1676595207369,32264191414655,-149.0108,749.2508,399.001,-177.00775,769.7961,430.15182
UncalGyro,1676595207373,32264195567547,0.52442783,1.0273226,0.06994407,-0.00026612,-0.001703367,-0.00033628655
UncalAccel,1676595207373,32264195567547,-3.705884,1.2209377,8.9108715,0.037048545,-0.031444572,0.0098014325
OrientationDeg,1676595207373,32264195567547,229.0,13.0,-6.0
UncalMag,1676595207379,32264201409568,-148.474,749.5314,399.4158,-177.00775,769.7961,430.15182
UncalGyro,1676595207382,32264204049217,0.7666359,0.9246973,0.069027774,-0.00026612,-0.001703367,-0.00033628655
UncalAccel,1676595207382,32264204049217,-3.8721852,1.1192428,8.881559,0.037048545,-0.031444572,0.0098014325
OrientationDeg,1676595207382,32264204049217,229.0,13.0,-7.0
UncalMag,1676595207389,32264211412904,-148.4496,748.34796,400.587,-177.00775,769.7961,430.15182
UncalGyro,1676595207390,32264212540803,1.0118983,0.78954333,0.065209866,-0.00026612,-0.001703367,-0.00033628655
UncalAccel,1676595207390,32264212540803,-4.091727,1.0504491,8.89472,0.037048545,-0.031444572,0.0098014325
OrientationDeg,1676595207390,32264212540803,229.0,14.0,-7.0
UncalGyro,1676595207399,32264221014099,1.2544118,0.6215554,0.06566802,-0.00026612,-0.001703367,-0.00033628655
UncalAccel,1676595207399,32264221014099,-4.421936,0.7752745,9.05145,0.037048545,-0.031444572,0.0098014325
UncalMag,1676595207399,32264221402242,-148.4252,748.66516,399.4524,-177.00775,769.7961,430.15182
OrientationDeg,1676595207399,32264221014099,229.0,14.0,-8.0
UncalGyro,1676595207407,32264229494332,1.5109752,0.43279803,0.089949906,-0.00026612,-0.001703367,-0.00033628655
UncalAccel,1676595207407,32264229494332,-4.551149,0.46301118,9.271589,0.037048545,-0.031444572,0.0098014325
OrientationDeg,1676595207407,32264229494332,229.0,14.0,-8.0
UncalMag,1676595207409,32264231412943,-148.46179,748.0674,399.794,-177.00775,769.7961,430.15182
UncalGyro,1676595207415,32264237980977,1.788308,0.24587326,0.15134187,-0.00026612,-0.001703367,-0.00033628655
UncalAccel,1676595207415,32264237980977,-4.5242295,0.25603202,9.697512,0.037048545,-0.031444572,0.0098014325
OrientationDeg,1676595207415,32264237980977,229.0,14.0,-9.0
UncalMag,1676595207419,32264241412983,-148.4374,746.8108,401.55078,-177.00775,769.7961,430.15182
OrientationDeg,1676595207424,32264246463326,229.0,15.0,-10.0
UncalGyro,1676595207424,32264246463326,2.0615175,0.10797043,0.25778514,-0.00026612,-0.001703367,-0.00033628655
UncalAccel,1676595207424,32264246463326,-4.4889355,-0.08015956,10.334601,0.037048545,-0.031444572,0.0098014325
UncalMag,1676595207429,32264251423765,-148.7302,747.06696,401.3678,-177.00775,769.7961,430.15182
UncalGyro,1676595207433,32264254937995,2.3200662,0.027641652,0.4025602,-0.00026612,-0.001703367,-0.00033628655
UncalAccel,1676595207432,32264254937995,-4.435695,-0.32004002,11.023136,0.037048545,-0.031444572,0.0098014325
OrientationDeg,1676595207432,32264254937995,229.0,15.0,-11.0
UncalMag,1676595207439,32264261409645,-148.718,745.6274,402.966,-177.00775,769.7961,430.15182
UncalGyro,1676595207441,32264263421689,2.5616634,-0.027794369,0.57528234,-0.00026612,-0.001703367,-0.00033628655
UncalAccel,1676595207441,32264263421689,-4.366303,-0.4354937,11.420344,0.037048545,-0.031444572,0.0098014325
OrientationDeg,1676595207441,32264263421689,229.0,15.0,-13.0
UncalMag,1676595207449,32264271412737,-148.8644,745.0296,403.4296,-177.00775,769.7961,430.15182
UncalGyro,1676595207449,32264271901312,2.7962356,-0.06856962,0.7680103,-0.00026612,-0.001703367,-0.00033628655
UncalAccel,1676595207449,32264271901312,-4.3926244,-0.37387854,11.69193,0.037048545,-0.031444572,0.0098014325
OrientationDeg,1676595207449,32264271901312,229.0,15.0,-14.0
UncalGyro,1676595207458,32264280386958,3.0483704,-0.06078109,0.9631818,-0.00026612,-0.001703367,-0.00033628655
UncalAccel,1676595207458,32264280386958,-4.3998027,-0.2548356,11.953943,0.037048545,-0.031444572,0.0098014325
OrientationDeg,1676595207458,32264280386958,229.0,14.0,-16.0
UncalMag,1676595207459,32264281402482,-148.7424,743.58997,404.5398,-177.00775,769.7961,430.15182
UncalGyro,1676595207466,32264288858190,3.309057,-0.017104227,1.165989,-0.00026612,-0.001703367,-0.00033628655
UncalAccel,1676595207466,32264288858190,-4.310072,-0.23509483,12.116655,0.037048545,-0.031444572,0.0098014325
OrientationDeg,1676595207466,32264288858190,229.0,14.0,-17.0
UncalMag,1676595207469,32264291413020,-149.1328,742.3578,404.491,-177.00775,769.7961,430.15182
UncalGyro,1676595207475,32264297347457,3.5498908,0.053145275,1.3825408,-0.00026612,-0.001703367,-0.00033628655
UncalAccel,1676595207475,32264297347457,-4.052245,-0.17587246,12.14178,0.037048545,-0.031444572,0.0098014325
OrientationDeg,1676595207475,32264297347457,229.0,14.0,-19.0
UncalMag,1676595207479,32264301412978,-149.70619,741.5892,405.5402,-177.00775,769.7961,430.15182
UncalGyro,1676595207483,32264305818180,3.7555995,0.1386664,1.6084082,-0.00026612,-0.001703367,-0.00033628655
UncalAccel,1676595207483,32264305818180,-3.784249,0.0849452,11.879766,0.037048545,-0.031444572,0.0098014325
OrientationDeg,1676595207483,32264305818180,229.0,14.0,-21.0
UncalMag,1676595207489,32264311412774,-149.9258,739.78357,406.565,-177.00775,769.7961,430.15182
UncalGyro,1676595207492,32264314311283,3.9272528,0.23258694,1.830305,-0.00026612,-0.001703367,-0.00033628655
UncalAccel,1676595207492,32264314311283,-3.6113675,0.4743771,11.520843,0.037048545,-0.031444572,0.0098014325
OrientationDeg,1676595207492,32264314311283,228.0,14.0,-23.0
UncalMag,1676595207499,32264321409844,-149.9868,738.771,407.6508,-177.00775,769.7961,430.15182
UncalGyro,1676595207500,32264322788364,4.0645447,0.3492622,2.026698,-0.00026612,-0.001703367,-0.00033628655
UncalAccel,1676595207500,32264322788364,-3.437888,0.84047896,11.13859,0.037048545,-0.031444572,0.0098014325
OrientationDeg,1676595207500,32264322788364,228.0,14.0,-25.0
UncalGyro,1676595207509,32264331272615,4.166101,0.5123632,2.1931589,-0.00026612,-0.001703367,-0.00033628655
UncalAccel,1676595207509,32264331272615,-3.1441689,1.1928221,10.589437,0.037048545,-0.031444572,0.0098014325
OrientationDeg,1676595207509,32264331272615,227.0,14.0,-27.0
UncalMag,1676595207509,32264331407605,-150.9628,736.5628,410.0542,-177.00775,769.7961,430.15182
UncalGyro,1676595207517,32264339755005,4.2209263,0.70005155,2.3408356,-0.00026612,-0.001703367,-0.00033628655
UncalAccel,1676595207517,32264339755005,-2.8815567,1.4159528,9.835697,0.037048545,-0.031444572,0.0098014325
UncalMag,1676595207519,32264341402559,-151.4386,735.6234,411.1766,-177.00775,769.7961,430.15182
OrientationDeg,1676595207517,32264339755005,227.0,14.0,-30.0
UncalGyro,1676595207526,32264348227550,4.214054,0.8594874,2.4791965,-0.00026612,-0.001703367,-0.00033628655
UncalAccel,1676595207526,32264348227550,-2.6691937,1.6199409,8.843274,0.037048545,-0.031444572,0.0098014325
OrientationDeg,1676595207526,32264348227550,226.0,14.0,-32.0
UncalMag,1676595207529,32264351425141,-151.87779,733.7568,412.909,-177.00775,769.7961,430.15182
UncalGyro,1676595207534,32264356716929,4.139223,0.9764681,2.620612,-0.00026612,-0.001703367,-0.00033628655
UncalAccel,1676595207534,32264356716929,-2.4717858,1.7473587,7.941778,0.037048545,-0.031444572,0.0098014325
OrientationDeg,1676595207534,32264356716929,225.0,14.0,-34.0
UncalMag,1676595207539,32264361397105,-152.37799,732.4026,414.78778,-177.00775,769.7961,430.15182
UncalGyro,1676595207543,32264365197762,4.0043745,1.0351112,2.738356,-0.00026612,-0.001703367,-0.00033628655
UncalAccel,1676595207543,32264365197762,-2.3922246,1.8981066,6.8057857,0.037048545,-0.031444572,0.0098014325
OrientationDeg,1676595207543,32264365197762,224.0,14.0,-36.0
UncalMag,1676595207549,32264371412933,-153.5248,730.8044,417.3376,-177.00775,769.7961,430.15182
UncalGyro,1676595207551,32264373676981,3.8573086,1.0315987,2.8174632,-0.00026612,-0.001703367,-0.00033628655
UncalAccel,1676595207551,32264373676981,-2.2271197,2.03031,5.689534,0.037048545,-0.031444572,0.0098014325
OrientationDeg,1676595207551,32264373676981,223.0,14.0,-38.0
UncalMag,1676595207559,32264381412850,-153.91519,729.70636,418.7772,-177.00775,769.7961,430.15182
UncalGyro,1676595207560,32264382161802,3.7427714,0.9978484,2.844952,-0.00026612,-0.001703367,-0.00033628655
UncalAccel,1676595207560,32264382161802,-2.1003,2.167299,4.625326,0.037048545,-0.031444572,0.0098014325
