# 
# Header Description:
# 
# Version: v3.0.5.6 Platform: 13 Manufacturer: Google Model: Pixel 7
# 
# Raw,utcTimeMillis,TimeNanos,LeapSecond,TimeUncertaintyNanos,FullBiasNanos,BiasNanos,BiasUncertaintyNanos,DriftNanosPerSecond,DriftUncertaintyNanosPerSecond,HardwareClockDiscontinuityCount,Svid,TimeOffsetNanos,State,ReceivedSvTimeNanos,ReceivedSvTimeUncertaintyNanos,Cn0DbHz,PseudorangeRateMetersPerSecond,PseudorangeRateUncertaintyMetersPerSecond,AccumulatedDeltaRangeState,AccumulatedDeltaRangeMeters,AccumulatedDeltaRangeUncertaintyMeters,CarrierFrequencyHz,CarrierCycles,CarrierPhase,CarrierPhaseUncertainty,MultipathIndicator,SnrInDb,ConstellationType,AgcDb,BasebandCn0DbHz,FullInterSignalBiasNanos,FullInterSignalBiasUncertaintyNanos,SatelliteInterSignalBiasNanos,SatelliteInterSignalBiasUncertaintyNanos,CodeType,ChipsetElapsedRealtimeNanos
# 
# UncalAccel,utcTimeMillis,elapsedRealtimeNanos,UncalAccelXMps2,UncalAccelYMps2,UncalAccelZMps2,BiasXMps2,BiasYMps2,BiasZMps2
# 
# Accel,utcTimeMillis,elapsedRealtimeNanos,AccelXMps2,AccelYMps2,AccelZMps2
# 
# UncalGyro,utcTimeMillis,elapsedRealtimeNanos,UncalGyroXRadPerSec,UncalGyroYRadPerSec,UncalGyroZRadPerSec,DriftXRadPerSec,DriftYRadPerSec,DriftZRadPerSec
# 
# Gyro,utcTimeMillis,elapsedRealtimeNanos,GyroXRadPerSec,GyroYRadPerSec,GyroZRadPerSec
# 
# UncalMag,utcTimeMillis,elapsedRealtimeNanos,UncalMagXMicroT,UncalMagYMicroT,UncalMagZMicroT,BiasXMicroT,BiasYMicroT,BiasZMicroT
# 
# Mag,utcTimeMillis,elapsedRealtimeNanos,MagXMicroT,MagYMicroT,MagZMicroT
# 
# OrientationDeg,utcTimeMillis,elapsedRealtimeNanos,yawDeg,rollDeg,pitchDeg
# 
# Fix,Provider,LatitudeDegrees,LongitudeDegrees,AltitudeMeters,SpeedMps,AccuracyMeters,BearingDegrees,UnixTimeMillis,SpeedAccuracyMps,BearingAccuracyDegrees,elapsedRealtimeNanos,VerticalAccuracyMeters
# 
# Nav,Svid,Type,Status,MessageId,Sub-messageId,Data(Bytes)
# 
# Status,UnixTimeMillis,SignalCount,SignalIndex,ConstellationType,Svid,CarrierFrequencyHz,Cn0DbHz,AzimuthDegrees,ElevationDegrees,UsedInFix,HasAlmanacData,HasEphemerisData,BasebandCn0DbHz
# 
UncalMag,1676593806752,30863574591113,-157.22139,751.51996,392.97418,-174.57417,771.0116,430.86337
UncalMag,1676593806762,30863584591073,-156.892,751.8006,393.389,-174.57417,771.0116,430.86337
UncalAccel,1676593806752,30863574983731,-1.0893325,0.12562318,13.124632,0.037048545,-0.031444572,0.0098014325
UncalAccel,1676593806761,30863583464119,-1.096511,0.12622139,12.809378,0.037048545,-0.031444572,0.0098014325
UncalGyro,1676593806765,30863587705697,-0.14355333,0.0364992,0.04550946,0.0006722908,-0.0013431369,-0.0003227942
UncalAccel,1676593806769,30863591946256,-1.0749756,0.10767702,12.528221,0.037048545,-0.031444572,0.0098014325
UncalMag,1676593806772,30863594591236,-156.892,751.8006,393.389,-174.57417,771.0116,430.86337
UncalGyro,1676593806774,30863596186989,-0.04505131,-0.106137834,-0.015577064,0.0006722908,-0.0013431369,-0.0003227942
UncalAccel,1676593806778,30863600426685,-1.0055838,0.02213361,12.195021,0.037048545,-0.031444572,0.0098014325
UncalMag,1676593806782,30863604592823,-156.892,751.8738,393.0474,-174.57417,771.0116,430.86337
UncalGyro,1676593806782,30863604669544,0.05131268,-0.21853705,-0.05085453,0.0006722908,-0.0013431369,-0.0003227942
UncalAccel,1676593806786,30863608908354,-0.910469,-0.1058824,11.781062,0.037048545,-0.031444572,0.0098014325
OrientationDeg,1676593806778,30863600426685,219.0,3.0,0.0
OrientationDeg,1676593806786,30863608908354,219.0,3.0,-1.0
UncalGyro,1676593806791,30863613151376,0.13545936,-0.29611692,-0.057726767,0.0006722908,-0.0013431369,-0.0003227942
UncalMag,1676593806792,30863614591440,-157.2702,752.4106,393.4256,-174.57417,771.0116,430.86337
Fix,FLP,37.4312912000,-122.1550365000,-16.200000762939453,0.37620634,4.207,344.85107,1676593805995,0.11374709,35.443333,30862817048000,1.6428357
UncalAccel,1676593806795,30863617382049,-0.7926225,-0.20518455,11.414961,0.037048545,-0.031444572,0.0098014325
OrientationDeg,1676593806795,30863617382049,219.0,2.0,-1.0
UncalGyro,1676593806799,30863621632180,0.19410244,-0.3368922,-0.043676864,0.0006722908,-0.0013431369,-0.0003227942
UncalMag,1676593806802,30863624591481,-157.17259,752.3984,393.0596,-174.57417,771.0116,430.86337
UncalAccel,1676593806803,30863625871632,-0.7040881,-0.25184458,11.105688,0.037048545,-0.031444572,0.0098014325
OrientationDeg,1676593806803,30863625871632,219.0,2.0,-1.0
UncalGyro,1676593806808,30863630114919,0.22418754,-0.34956762,-0.024587326,0.0006722908,-0.0013431369,-0.0003227942
UncalAccel,1676593806812,30863634353168,-0.7256235,-0.29910284,10.809576,0.037048545,-0.031444572,0.0098014325
OrientationDeg,1676593806812,30863634353168,219.0,2.0,-1.0
UncalMag,1676593806812,30863634591400,-157.80699,752.2032,392.901,-174.57417,771.0116,430.86337
UncalGyro,1676593806816,30863638592956,0.22815818,-0.35124752,-0.018478673,0.0006722908,-0.0013431369,-0.0003227942
UncalAccel,1676593806820,30863642834147,-0.8279166,-0.37627137,10.47518,0.037048545,-0.031444572,0.0098014325
OrientationDeg,1676593806820,30863642834147,219.0,2.0,-1.0
UncalMag,1676593806822,30863644591319,-157.746,751.42236,393.08398,-174.57417,771.0116,430.86337
UncalGyro,1676593806825,30863647075907,0.21288654,-0.35705075,-0.03313944,0.0006722908,-0.0013431369,-0.0003227942
UncalAccel,1676593806829,30863651313212,-0.849452,-0.5246264,10.280165,0.037048545,-0.031444572,0.0098014325
OrientationDeg,1676593806829,30863651313212,219.0,2.0,-1.0
UncalMag,1676593806832,30863654593557,-157.8436,751.703,393.633,-174.57417,771.0116,430.86337
UncalGyro,1676593806833,30863655554983,0.18188512,-0.3680463,-0.05971208,0.0006722908,-0.0013431369,-0.0003227942
UncalAccel,1676593806837,30863659792939,-0.83389866,-0.61016977,10.156336,0.037048545,-0.031444572,0.0098014325
OrientationDeg,1676593806837,30863659792939,219.0,2.0,-1.0
UncalGyro,1676593806842,30863664036895,0.14630222,-0.39171734,-0.10186178,0.0006722908,-0.0013431369,-0.0003227942
UncalMag,1676593806843,30863664591767,-157.83139,751.7518,392.5594,-174.57417,771.0116,430.86337
UncalAccel,1676593806846,30863668277669,-0.77407813,-0.7052845,9.909277,0.037048545,-0.031444572,0.0098014325
OrientationDeg,1676593806846,30863668277669,219.0,1.0,-1.0
UncalGyro,1676593806850,30863672518107,0.1226312,-0.43768495,-0.15668693,0.0006722908,-0.0013431369,-0.0003227942
UncalMag,1676593806852,30863674593801,-158.0388,751.84937,392.9498,-174.57417,771.0116,430.86337
UncalAccel,1676593806854,30863676758922,-0.6945168,-0.8817552,9.657433,0.037048545,-0.031444572,0.0098014325
OrientationDeg,1676593806854,30863676758922,220.0,1.0,-1.0
UncalGyro,1676593806859,30863681000744,0.12095132,-0.47219884,-0.21960606,0.0006722908,-0.0013431369,-0.0003227942
UncalMag,1676593806862,30863684594860,-157.80699,752.3008,393.1694,-174.57417,771.0116,430.86337
UncalAccel,1676593806863,30863685239370,-0.5395815,-1.0576276,9.54497,0.037048545,-0.031444572,0.0098014325
OrientationDeg,1676593806863,30863685239370,220.0,1.0,-1.0
UncalGyro,1676593806867,30863689478873,0.14401148,-0.45555276,-0.2826779,0.0006722908,-0.0013431369,-0.0003227942
UncalAccel,1676593806871,30863693721955,-0.28055847,-1.1563315,9.456435,0.037048545,-0.031444572,0.0098014325
UncalMag,1676593806872,30863694591442,-158.2462,751.9104,392.12018,-174.57417,771.0116,430.86337
OrientationDeg,1676593806871,30863693721955,220.0,1.0,-1.0
UncalGyro,1676593806875,30863697961498,0.1928807,-0.3911065,-0.34208453,0.0006722908,-0.0013431369,-0.0003227942
UncalAccel,1676593806880,30863702199066,0.0029910284,-1.2358929,9.329616,0.037048545,-0.031444572,0.0098014325
OrientationDeg,1676593806880,30863702199066,220.0,1.0,-1.0
UncalMag,1676593806882,30863704592459,-158.7708,751.825,392.474,-174.57417,771.0116,430.86337
UncalGyro,1676593806884,30863706441896,0.26053402,-0.29138273,-0.39278635,0.0006722908,-0.0013431369,-0.0003227942
UncalAccel,1676593806888,30863710681591,0.17168503,-1.326222,9.25484,0.037048545,-0.031444572,0.0098014325
OrientationDeg,1676593806888,30863710681591,220.0,1.0,-1.0
UncalMag,1676593806892,30863714591646,-158.5634,751.73956,392.4496,-174.57417,771.0116,430.86337
UncalGyro,1676593806892,30863714925986,0.33276883,-0.16340645,-0.44119743,0.0006722908,-0.0013431369,-0.0003227942
UncalAccel,1676593806897,30863719160677,0.2536392,-1.3734802,9.2177515,0.037048545,-0.031444572,0.0098014325
OrientationDeg,1676593806897,30863719160677,220.0,1.0,-2.0
UncalGyro,1676593806901,30863723405153,0.408058,-0.019089539,-0.49388456,0.0006722908,-0.0013431369,-0.0003227942
UncalMag,1676593806902,30863724589693,-157.9412,751.7518,392.5594,-174.57417,771.0116,430.86337
UncalAccel,1676593806905,30863727648979,0.2542374,-1.3537394,9.141181,0.037048545,-0.031444572,0.0098014325
OrientationDeg,1676593806905,30863727648979,221.0,1.0,-2.0
UncalGyro,1676593806909,30863731889477,0.4802928,0.11560625,-0.550695,0.0006722908,-0.0013431369,-0.0003227942
UncalMag,1676593806912,30863734592094,-157.8436,751.64197,391.681,-174.57417,771.0116,430.86337
UncalAccel,1676593806914,30863736122926,0.19262223,-1.3160524,9.007183,0.037048545,-0.031444572,0.0098014325
UncalGyro,1676593806918,30863740364291,0.54321194,0.21670444,-0.6087272,0.0006722908,-0.0013431369,-0.0003227942
OrientationDeg,1676593806914,30863736122926,221.0,1.0,-2.0
UncalMag,1676593806922,30863744595105,-157.7338,751.6786,392.901,-174.57417,771.0116,430.86337
UncalAccel,1676593806922,30863744609876,0.14057833,-1.3304094,8.911469,0.037048545,-0.031444572,0.0098014325
OrientationDeg,1676593806922,30863744609876,221.0,1.0,-2.0
UncalGyro,1676593806926,30863748865847,0.58062744,0.27855456,-0.6569856,0.0006722908,-0.0013431369,-0.0003227942
UncalAccel,1676593806931,30863753086977,0.0741775,-1.3214363,8.886943,0.037048545,-0.031444572,0.0098014325
OrientationDeg,1676593806931,30863753086977,222.0,1.0,-3.0
UncalMag,1676593806932,30863754591158,-157.5508,751.2638,393.1572,-174.57417,771.0116,430.86337
UncalGyro,1676593806935,30863757329196,0.5908594,0.29840767,-0.70463306,0.0006722908,-0.0013431369,-0.0003227942
UncalAccel,1676593806939,30863761561973,-0.04546363,-1.2693924,8.833105,0.037048545,-0.031444572,0.0098014325
OrientationDeg,1676593806939,30863761561973,222.0,1.0,-3.0
UncalMag,1676593806942,30863764593193,-157.5508,751.3492,393.4256,-174.57417,771.0116,430.86337
UncalGyro,1676593806943,30863765810600,0.5804747,0.27763826,-0.75670934,0.0006722908,-0.0013431369,-0.0003227942
UncalAccel,1676593806948,30863770047448,-0.15074782,-1.2119647,8.813364,0.037048545,-0.031444572,0.0098014325
OrientationDeg,1676593806948,30863770047448,222.0,1.0,-3.0
UncalGyro,1676593806952,30863774292086,0.5656612,0.22999077,-0.82253003,0.0006722908,-0.0013431369,-0.0003227942
UncalMag,1676593806952,30863774591769,-157.0506,750.849,393.5232,-174.57417,771.0116,430.86337
UncalAccel,1676593806956,30863778532056,-0.26141587,-1.1407782,8.840881,0.037048545,-0.031444572,0.0098014325
OrientationDeg,1676593806956,30863778532056,223.0,1.0,-3.0
UncalGyro,1676593806960,30863782771395,0.55573463,0.16768251,-0.9060659,0.0006722908,-0.0013431369,-0.0003227942
UncalMag,1676593806962,30863784592014,-157.0506,751.0198,393.694,-174.57417,771.0116,430.86337
UncalAccel,1676593806965,30863787013502,-0.3290131,-1.0983056,8.906684,0.037048545,-0.031444572,0.0098014325
OrientationDeg,1676593806965,30863787013502,223.0,1.0,-4.0
UncalGyro,1676593806969,30863791253045,0.54137933,0.095294975,-0.9950995,0.0006722908,-0.0013431369,-0.0003227942
UncalMag,1676593806972,30863794594700,-156.465,750.25116,393.7306,-174.57417,771.0116,430.86337
UncalAccel,1676593806973,30863795490126,-0.35353956,-1.0941181,8.9928255,0.037048545,-0.031444572,0.0098014325
OrientationDeg,1676593806973,30863795490126,224.0,2.0,-4.0
UncalGyro,1676593806978,30863799730930,0.5164866,-0.014660766,-1.0841331,0.0006722908,-0.0013431369,-0.0003227942
UncalAccel,1676593806981,30863803973280,-0.37746778,-1.0893325,8.944969,0.037048545,-0.031444572,0.0098014325
OrientationDeg,1676593806981,30863803973280,224.0,2.0,-4.0
UncalMag,1676593806982,30863804591241,-156.3796,751.6542,394.0722,-174.57417,771.0116,430.86337
UncalGyro,1676593806986,30863808217279,0.46944994,-0.18066339,-1.1792754,0.0006722908,-0.0013431369,-0.0003227942
UncalAccel,1676593806990,30863812455549,-0.36370903,-1.1084751,9.083155,0.037048545,-0.031444572,0.0098014325
OrientationDeg,1676593806990,30863812455549,225.0,1.0,-4.0
UncalMag,1676593806992,30863814591811,-156.831,751.0198,393.328,-174.57417,771.0116,430.86337
UncalGyro,1676593806994,30863816693241,0.36819902,-0.36377025,-1.2883148,0.0006722908,-0.0013431369,-0.0003227942
UncalAccel,1676593806998,30863820932723,-0.36131623,-1.0420742,9.326625,0.037048545,-0.031444572,0.0098014325
OrientationDeg,1676593806998,30863820932723,226.0,1.0,-4.0
UncalMag,1676593807002,30863824591608,-156.5016,751.2882,393.3768,-174.57417,771.0116,430.86337
UncalGyro,1676593807003,30863825175826,0.21502456,-0.5467244,-1.4165965,0.0006722908,-0.0013431369,-0.0003227942
UncalAccel,1676593807007,30863829416092,-0.35234314,-0.94636136,9.38824,0.037048545,-0.031444572,0.0098014325
OrientationDeg,1676593807007,30863829416092,226.0,1.0,-4.0
UncalGyro,1676593807011,30863833659072,0.028863383,-0.7463246,-1.57084,0.0006722908,-0.0013431369,-0.0003227942
UncalMag,1676593807012,30863834584284,-156.26979,751.8128,393.49878,-174.57417,771.0116,430.86337
UncalAccel,1676593807015,30863837898513,-0.3906283,-0.8745767,9.325428,0.037048545,-0.031444572,0.0098014325
OrientationDeg,1676593807015,30863837898513,227.0,1.0,-4.0
UncalGyro,1676593807021,30863842141921,-0.16829337,-0.9755518,-1.7490599,0.0006722908,-0.0013431369,-0.0003227942
UncalMag,1676593807022,30863844593317,-156.6724,751.9836,393.4256,-174.57417,771.0116,430.86337
UncalAccel,1676593807024,30863846376937,-0.40438703,-0.90329057,9.229715,0.037048545,-0.031444572,0.0098014325
OrientationDeg,1676593807024,30863846376937,228.0,0.0,-4.0
UncalGyro,1676593807028,30863850618423,-0.36636642,-1.2286028,-1.9394971,0.0006722908,-0.0013431369,-0.0003227942
UncalMag,1676593807032,30863854594416,-156.4528,752.05676,393.08398,-174.57417,771.0116,430.86337
UncalAccel,1676593807032,30863854857589,-0.3702893,-0.9457632,9.215957,0.037048545,-0.031444572,0.0098014325
OrientationDeg,1676593807032,30863854857589,229.0,0.0,-4.0
UncalGyro,1676593807037,30863859099167,-0.552833,-1.4782939,-2.1294763,0.0006722908,-0.0013431369,-0.0003227942
UncalAccel,1676593807041,30863863339126,-0.34636107,-0.907478,9.182457,0.037048545,-0.031444572,0.0098014325
UncalMag,1676593807042,30863864599543,-157.441,753.0938,393.1084,-174.57417,771.0116,430.86337
OrientationDeg,1676593807041,30863863339126,230.0,0.0,-3.0
UncalGyro,1676593807045,30863867583155,-0.70509124,-1.709201,-2.3041837,0.0006722908,-0.0013431369,-0.0003227942
UncalAccel,1676593807049,30863871820551,-0.22552353,-0.8488538,8.968299,0.037048545,-0.031444572,0.0098014325
OrientationDeg,1676593807049,30863871820551,231.0,-1.0,-3.0
UncalMag,1676593807052,30863874592382,-157.6118,753.6916,393.13278,-174.57417,771.0116,430.86337
UncalGyro,1676593807054,30863876063949,-0.8248208,-1.9356792,-2.4544566,0.0006722908,-0.0013431369,-0.0003227942
UncalAccel,1676593807058,30863880301326,-0.13339986,-0.90089774,8.835498,0.037048545,-0.031444572,0.0098014325
OrientationDeg,1676593807058,30863880301326,233.0,-2.0,-3.0
UncalGyro,1676593807062,30863884544307,-0.91354895,-2.1442897,-2.5728116,0.0006722908,-0.0013431369,-0.0003227942
UncalMag,1676593807062,30863884591365,-157.67279,754.3626,392.2056,-174.57417,771.0116,430.86337
UncalAccel,1676593807066,30863888793900,-0.08554341,-0.9290134,8.879167,0.037048545,-0.031444572,0.0098014325
OrientationDeg,1676593807066,30863888793900,234.0,-3.0,-2.0
UncalGyro,1676593807071,30863893035456,-0.9779953,-2.3170118,-2.6508498,0.0006722908,-0.0013431369,-0.0003227942
UncalMag,1676593807072,30863894601782,-158.0266,755.363,390.75378,-174.57417,771.0116,430.86337
UncalAccel,1676593807075,30863897275366,-0.05742774,-0.80937225,8.873783,0.037048545,-0.031444572,0.0098014325
OrientationDeg,1676593807075,30863897275366,235.0,-4.0,-2.0
UncalGyro,1676593807079,30863901510260,-1.02549,-2.490803,-2.6984973,0.0006722908,-0.0013431369,-0.0003227942
UncalMag,1676593807082,30863904601701,-158.73419,755.86316,390.53418,-174.57417,771.0116,430.86337
UncalAccel,1676593807083,30863905737972,-0.15014961,-0.613759,8.9724865,0.037048545,-0.031444572,0.0098014325
OrientationDeg,1676593807083,30863905737972,237.0,-5.0,-1.0
UncalGyro,1676593807087,30863909996405,-1.0598512,-2.6665795,-2.722779,0.0006722908,-0.0013431369,-0.0003227942
Status,0,30,0,6,2,1176450050,37.54,85.0,79.0,1,1,1,33.937622
Status,0,30,1,6,2,1575420030,40.66,85.0,79.0,1,1,1,37.060135
Status,0,30,2,3,17,1604249980,44.97,292.0,74.0,1,1,1,41.366722
Status,0,30,3,1,11,1575420030,42.76,144.0,72.0,1,1,1,39.163086
Status,0,30,4,1,11,1176450050,43.81,144.0,72.0,1,1,1,40.205406
Status,0,30,5,3,15,1602000000,44.11,327.0,69.0,1,1,1,40.511105
Status,0,30,6,6,36,1575420030,39.78,59.0,67.0,1,1,1,36.178123
Status,0,30,7,6,36,1176450050,38.02,59.0,67.0,1,1,1,34.419052
Status,0,30,8,1,12,1575420030,44.99,323.0,59.0,1,1,1,41.387314
Status,0,30,9,6,34,1176450050,38.96,203.0,54.0,1,1,1,35.356544
Status,0,30,10,6,34,1575420030,44.01,203.0,54.0,1,1,1,40.41317
Status,0,30,11,3,14,1598062460,42.64,147.0,53.0,1,1,1,39.037857
Status,0,30,12,1,6,1176450050,39.38,52.0,50.0,1,1,1,35.78405
Status,0,30,13,1,6,1575420030,40.00,52.0,50.0,1,1,1,36.40359
Status,0,30,14,1,24,1575420030,45.39,224.0,43.0,1,1,1,41.793015
Status,0,30,15,1,24,1176450050,39.09,224.0,43.0,1,1,1,35.485023
Status,0,30,16,6,30,1176450050,37.24,314.0,41.0,1,1,1,33.635178
Status,0,30,17,6,30,1575420030,43.70,314.0,41.0,1,1,1,40.10125
Status,0,30,18,3,24,1603124990,43.03,31.0,37.0,1,1,1,39.42666
Status,0,30,19,3,18,1600312450,46.83,233.0,31.0,1,1,1,43.234386
Status,0,30,20,1,19,1575420030,41.49,57.0,30.0,0,1,1,37.892315
Status,0,30,21,1,25,1176450050,40.91,311.0,29.0,1,1,1,37.313232
Status,0,30,22,6,25,1575420030,38.18,122.0,29.0,1,1,1,34.583687
Status,0,30,23,1,25,1575420030,44.01,311.0,29.0,1,1,1,40.414074
Status,0,30,24,6,25,1176450050,39.93,122.0,29.0,1,1,1,36.330017
Status,0,30,25,1,20,1575420030,45.91,146.0,22.0,1,1,1,42.311024
Status,0,30,26,6,11,1575420030,34.18,40.0,18.0,0,1,1,30.584812
Status,0,30,27,6,11,1176450050,26.76,40.0,18.0,0,1,1,23.155373
Status,0,30,28,3,16,1601437440,46.78,328.0,15.0,1,1,1,43.17793
Status,0,30,29,1,29,1575420030,47.07,260.0,11.0,1,1,1,43.46547
UncalAccel,1676593807092,30863914235063,-0.33379877,-0.37986058,9.027522,0.037048545,-0.031444572,0.0098014325
UncalMag,1676593807092,30863914597551,-159.1734,757.14417,390.00958,-174.57417,771.0116,430.86337
OrientationDeg,1676593807092,30863914235063,238.0,-6.0,-1.0
UncalGyro,1676593807096,30863918481168,-1.07665,-2.8283062,-2.7252226,0.0006722908,-0.0013431369,-0.0003227942
UncalAccel,1676593807100,30863922718136,-0.47318068,-0.19441684,9.016156,0.037048545,-0.031444572,0.0098014325
UncalMag,1676593807102,30863924591081,-160.0762,757.6444,389.7778,-174.57417,771.0116,430.86337
UncalGyro,1676593807104,30863926967516,-1.0729848,-2.9243646,-2.7070494,0.0006722908,-0.0013431369,-0.0003227942
OrientationDeg,1676593807100,30863922718136,239.0,-8.0,-1.0
Fix,GPS,37.4312860994,-122.1550283868,-7.355006740115618,0.2585025,3.2818666,344.4992,1676593806999,0.11595677,74.94393,30863817056000,3.0
Raw,1676593806999,563043000000,,,-1360628461956720810,0.0,8.183598339735267,166.0,1.0,56,6,0.0,16431,433824928815488,47,26.789823532104492,437.44815905798873,0.9074165147125397,16,231520.79926111823,340282346638528860000000000000000000000,1575420030,,,,0,,1,,23.189823150634766,0.320142130558394,1.0,0.320142130558394,1.0,C,30863817056000
Raw,1676593806999,563043000000,,,-1360628461956720810,0.0,8.183598339735267,166.0,1.0,56,11,0.0,16431,433824931427711,13,42.40946960449219,-109.53249465018189,0.15,16,-80147.95786502538,340282346638528860000000000000000000000,1575420030,,,,0,,1,,38.809471130371094,-0.20372681261465636,1.0,-0.20372681261465636,1.0,C,30863817056000
Raw,1676593806999,563043000000,,,-1360628461956720810,0.0,8.183598339735267,166.0,1.0,56,12,0.0,16431,433824930383119,15,41.109413146972656,-273.4867481961504,0.15,16,-163645.81393227307,340282346638528860000000000000000000000,1575420030,,,,0,,1,,37.50941467285156,-0.6984919076624261,1.0,-0.6984919076624261,1.0,C,30863817056000
Raw,1676593806999,563043000000,,,-1360628461956720810,0.0,8.183598339735267,166.0,1.0,56,19,0.0,16430,433824924627300,1000000000,30.60984992980957,543.7652806773522,299792458,16,302742.96817600564,340282346638528860000000000000000000000,1575420030,,,,0,,1,,27.009849548339844,0.0,1.0,0.0,1.0,C,30863817056000
Raw,1676593806999,563043000000,,,-1360628461956720810,0.0,8.183598339735267,166.0,1.0,56,20,0.0,16431,433824921302915,12,45.9110221862793,-513.6064306319042,0.15,16,-291511.8674598194,340282346638528860000000000000000000000,1575420030,,,,0,,1,,42.3110237121582,0.0,1.0,0.0,1.0,C,30863817056000
Raw,1676593806999,563043000000,,,-1360628461956720810,0.0,8.183598339735267,166.0,1.0,56,24,0.0,16431,433824926352130,14,43.758968353271484,503.6241903532209,0.15,16,270568.07669803564,340282346638528860000000000000000000000,1575420030,,,,0,,1,,40.15896987915039,-0.20372681261465636,1.0,-0.20372681261465636,1.0,C,30863817056000
Raw,1676593806999,563043000000,,,-1360628461956720810,0.0,8.183598339735267,166.0,1.0,56,25,0.0,16431,433824924875489,24,35.125,-512.0859781639651,0.531884392750732,16,-292561.7541864661,340282346638528860000000000000000000000,1575420030,,,,0,,1,,31.524999618530273,-2.0372682255564105,1.0,-2.0372682255564105,1.0,C,30863817056000
Raw,1676593806999,563043000000,,,-1360628461956720810,0.0,8.183598339735267,166.0,1.0,56,29,0.0,16419,433824916916009,13,44.8096923828125,-464.8105435457401,0.15,16,-127361.6728575718,340282346638528860000000000000000000000,1575420030,,,,0,,1,,41.209693908691406,-0.6984919076624261,1.0,-0.6984919076624261,1.0,C,30863817056000
Raw,1676593806999,563043000000,,,-1360628461956720810,0.0,8.183598339735267,166.0,1.0,56,6,0.0,81921,433824928816011,18,30.779029846191406,438.1520299500978,0.7280265003331325,16,232737.4626282413,340282346638528860000000000000000000000,1176450050,,,,0,,1,,27.17902946472168,1.9208527336454408,1.4141040942900642,1.9208527336454408,1.0,Q,30863817056000
Raw,1676593806999,563043000000,,,-1360628461956720810,0.0,8.183598339735267,166.0,1.0,56,11,0.0,81921,433824931428232,8,43.80540466308594,-109.93258008668903,0.15,16,-80706.95362167983,340282346638528860000000000000000000000,1176450050,,,,0,,1,,40.205406188964844,0.0,1.4141040942900642,0.0,1.0,Q,30863817056000
Raw,1676593806999,563043000000,,,-1360628461956720810,0.0,8.183598339735267,166.0,1.0,56,24,0.0,81921,433824926352642,9,33.44666290283203,503.8541446873803,0.6076229668308342,16,270541.35231347696,340282346638528860000000000000000000000,1176450050,,,,0,,1,,29.846662521362305,3.5215636101095664,1.4141040942900642,3.5215636101095664,1.0,Q,30863817056000
Raw,1676593806999,563043000000,,,-1360628461956720810,0.0,8.183598339735267,166.0,1.0,56,25,0.0,81921,433824924875991,15,33.63423538208008,-512.1698210070113,0.5989223547266205,16,-294097.1953309879,340282346638528860000000000000000000000,1176450050,,,,0,,1,,30.034236907958984,1.0186341127782053,1.4141040942900642,1.0186341127782053,1.0,Q,30863817056000
Raw,1676593806999,563043000000,,,-1360628461956720810,0.0,8.183598339735267,166.0,1.0,56,14,0.0,32995,12606932557926,33,42.590274810791016,526.5856435600078,0.15,16,277445.5421118778,340282346638528860000000000000000000000,1598062460,,,,0,,3,,38.99027633666992,52.1540641784668,2.0000000474974513,52.1540641784668,2.0000000474974513,C,30863817056000
Raw,1676593806999,563043000000,,,-1360628461956720810,0.0,8.183598339735267,166.0,1.0,56,18,0.0,32995,12606927621399,33,42.411537170410156,-516.1278848479183,0.15,16,-302539.4543413926,340282346638528860000000000000000000000,1600312450,,,,0,,3,,38.81153869628906,52.1540641784668,2.0000000474974513,52.1540641784668,2.0000000474974513,C,30863817056000
Raw,1676593806999,563043000000,,,-1360628461956720810,0.0,8.183598339735267,166.0,1.0,56,16,0.0,32867,12606922734595,33,41.114776611328125,-712.657826555052,0.15,16,-403074.07090955565,340282346638528860000000000000000000000,1601437440,,,,0,,3,,37.51477813720703,52.1540641784668,2.0000000474974513,52.1540641784668,2.0000000474974513,C,30863817056000
Raw,1676593806999,563043000000,,,-1360628461956720810,0.0,8.183598339735267,166.0,1.0,56,15,0.0,32995,12606934889893,34,39.5760612487793,-230.90114480160537,0.15,16,-149741.95676134934,340282346638528860000000000000000000000,1602000000,,,,0,,3,,35.9760627746582,52.1540641784668,2.0000000474974513,52.1540641784668,2.0000000474974513,C,30863817056000
Raw,1676593806999,563043000000,,,-1360628461956720810,0.0,8.183598339735267,166.0,1.0,56,24,0.0,32995,12606929057103,66,31.252599716186523,659.8587163730881,0.7067740251049255,16,364787.6970489357,340282346638528860000000000000000000000,1603124990,,,,0,,3,,27.652599334716797,52.1540641784668,2.0000000474974513,52.1540641784668,2.0000000474974513,C,30863817056000
Raw,1676593806999,563043000000,,,-1360628461956720810,0.0,8.183598339735267,166.0,1.0,56,17,0.0,32995,12606935826296,33,41.728355407714844,50.33643542253051,0.15,16,9141.94268633746,340282346638528860000000000000000000000,1604249980,,,,0,,3,,38.12835693359375,52.1540641784668,2.0000000474974513,52.1540641784668,2.0000000474974513,C,30863817056000
Raw,1676593806999,563043000000,,,-1360628461956720810,0.0,8.183598339735267,166.0,1.0,56,2,0.0,85026,433824921914263,23,35.58942413330078,92.81560356566189,0.5104669637583383,16,43792.25013648899,340282346638528860000000000000000000000,1575420030,,,,1,,6,,31.989425659179688,-5.878973752260207,1.5000000237487257,-5.878973752260207,1.5000000237487257,C,30863817056000
Raw,1676593806999,563043000000,,,-1360628461956720810,0.0,8.183598339735267,166.0,1.0,56,11,0.0,85026,433824910537825,56,26.18146514892578,567.9867282193309,299.7936501290751,16,315870.4685514297,340282346638528860000000000000000000000,1575420030,,,,0,,6,,22.581464767456055,-5.878973752260207,1.5000000237487257,-5.878973752260207,1.5000000237487257,C,30863817056000
Raw,1676593806999,563043000000,,,-1360628461956720810,0.0,8.183598339735267,166.0,1.0,56,25,0.0,85026,433824912532672,19,38.183685302734375,459.1549007103449,0.15,16,252907.3184413512,340282346638528860000000000000000000000,1575420030,,,,0,,6,,34.58368682861328,-5.878973752260207,1.5000000237487257,-5.878973752260207,1.5000000237487257,C,30863817056000
Raw,1676593806999,563043000000,,,-1360628461956720810,0.0,8.183598339735267,166.0,1.0,56,30,0.0,85026,433824915102679,23,35.54948806762695,-336.289962552657,0.5131961896884301,16,-192628.7156608579,340282346638528860000000000000000000000,1575420030,,,,0,,6,,31.949487686157227,-5.878973752260207,1.5000000237487257,-5.878973752260207,1.5000000237487257,C,30863817056000
Raw,1676593806999,563043000000,,,-1360628461956720810,0.0,8.183598339735267,166.0,1.0,56,34,0.0,85026,433824918920316,13,42.48777770996094,-314.6743573890428,0.15,16,-187161.3029474493,340282346638528860000000000000000000000,1575420030,,,,0,,6,,38.887779235839844,-5.878973752260207,1.5000000237487257,-5.878973752260207,1.5000000237487257,C,30863817056000
Raw,1676593806999,563043000000,,,-1360628461956720810,0.0,8.183598339735267,166.0,1.0,56,36,0.0,85026,433824920823073,28,33.22584915161133,215.1955739288726,0.6172775548811971,16,109248.81344578949,340282346638528860000000000000000000000,1575420030,,,,1,,6,,29.625850677490234,-5.878973752260207,1.5000000237487257,-5.878973752260207,1.5000000237487257,C,30863817056000
Raw,1676593806999,563043000000,,,-1360628461956720810,0.0,8.183598339735267,166.0,1.0,56,2,0.0,84003,433824921914843,9,34.121639251708984,92.70022592971804,0.5800692977510788,16,43789.52335561899,340282346638528860000000000000000000000,1176450050,,,,0,,6,,30.521638870239258,-4.216632805764675,1.9141041180387899,-4.216632805764675,1.5000000237487257,Q,30863817056000
Raw,1676593806999,563043000000,,,-1360628461956720810,0.0,8.183598339735267,166.0,1.0,56,11,0.0,16384,433824910538339,1000000000,18.896728515625,566.1108638947719,299792458,16,318716.951361096,340282346638528860000000000000000000000,1176450050,,,,0,,6,,15.296728134155273,4.279776476323602,1.9141041180387899,4.279776476323602,1.5000000237487257,Q,30863817056000
Raw,1676593806999,563043000000,,,-1360628461956720810,0.0,8.183598339735267,166.0,1.0,56,25,0.0,84003,433824912533172,7,39.930015563964844,459.1075260957782,0.15,16,253444.3603932306,340282346638528860000000000000000000000,1176450050,,,,0,,6,,36.33001708984375,-8.649541996419428,1.9141041180387899,-8.649541996419428,1.5000000237487257,Q,30863817056000
Raw,1676593806999,563043000000,,,-1360628461956720810,0.0,8.183598339735267,166.0,1.0,56,30,0.0,84003,433824915103194,13,32.58774185180664,-336.3821555975512,0.6478215601170416,16,-193090.72807913498,340282346638528860000000000000000000000,1176450050,,,,0,,6,,28.987743377685547,-8.2801328971982,1.9141041180387899,-8.2801328971982,1.5000000237487257,Q,30863817056000
Raw,1676593806999,563043000000,,,-1360628461956720810,0.0,8.183598339735267,166.0,1.0,56,34,0.0,84003,433824918920803,7,35.03654098510742,-314.4110363299476,0.5383885835772144,16,-187893.64817405582,340282346638528860000000000000000000000,1176450050,,,,0,,6,,31.436542510986328,-9.942473843693731,1.9141041180387899,-9.942473843693731,1.5000000237487257,Q,30863817056000
Raw,1676593806999,563043000000,,,-1360628461956720810,0.0,8.183598339735267,166.0,1.0,56,36,0.0,84003,433824920823584,8,35.746726989746094,214.61382047848474,0.5067945790680055,16,109457.25644479031,340282346638528860000000000000000000000,1176450050,,,,0,,6,,32.146728515625,-10.865996591746804,1.9141041180387899,-10.865996591746804,1.5000000237487257,Q,30863817056000
UncalAccel,1676593807109,30863931195971,-0.49052864,-0.07956135,9.339785,0.037048545,-0.031444572,0.0098014325
OrientationDeg,1676593807109,30863931195971,241.0,-9.0,0.0
Fix,FLP,37.4312902000,-122.1550332000,-16.200000762939453,0.31665906,4.109,343.8298,1676593806995,0.11595677,74.94393,30863817056000,1.7033234
UncalMag,1676593807112,30863934597226,-160.61299,759.1084,389.42398,-174.57417,771.0116,430.86337
UncalGyro,1676593807113,30863935432441,-1.0615311,-2.8959594,-2.6535985,0.0006722908,-0.0013431369,-0.0003227942
UncalAccel,1676593807117,30863939664985,-0.40259242,-0.0317049,9.678967,0.037048545,-0.031444572,0.0098014325
OrientationDeg,1676593807117,30863939664985,242.0,-10.0,0.0
UncalGyro,1676593807121,30863943920478,-1.0424415,-2.7369816,-2.5567765,0.0006722908,-0.0013431369,-0.0003227942
UncalMag,1676593807123,30863944591082,-161.8208,759.8282,388.4114,-174.57417,771.0116,430.86337
UncalAccel,1676593807126,30863948157509,-0.33200413,0.04965107,9.803394,0.037048545,-0.031444572,0.0098014325
OrientationDeg,1676593807126,30863948157509,243.0,-12.0,0.0
UncalGyro,1676593807130,30863952394060,-1.0071641,-2.4756842,-2.4294112,0.0006722908,-0.0013431369,-0.0003227942
UncalMag,1676593807132,30863954601784,-163.10179,759.45,388.2406,-174.57417,771.0116,430.86337
UncalAccel,1676593807134,30863956639453,-0.14656039,0.15134603,9.847063,0.037048545,-0.031444572,0.0098014325
OrientationDeg,1676593807134,30863956639453,245.0,-13.0,0.0
UncalGyro,1676593807138,30863960880745,-0.94042706,-2.1383338,-2.2828035,0.0006722908,-0.0013431369,-0.0003227942
UncalMag,1676593807142,30863964602760,-163.7484,760.9018,387.63058,-174.57417,771.0116,430.86337
UncalAccel,1676593807143,30863965120603,0.07298109,0.22911277,9.87159,0.037048545,-0.031444572,0.0098014325
OrientationDeg,1676593807143,30863965120603,246.0,-14.0,0.0
UncalGyro,1676593807147,30863969351895,-0.8344419,-1.7368426,-2.126269,0.0006722908,-0.0013431369,-0.0003227942
UncalAccel,1676593807151,30863973602170,0.25902304,0.2835495,9.848858,0.037048545,-0.031444572,0.0098014325
UncalMag,1676593807152,30863974591449,-164.2242,761.6582,387.09378,-174.57417,771.0116,430.86337
OrientationDeg,1676593807151,30863973602170,247.0,-14.0,0.0
UncalGyro,1676593807156,30863977844368,-0.6899723,-1.3070989,-1.9672915,0.0006722908,-0.0013431369,-0.0003227942
UncalAccel,1676593807160,30863982085904,0.38344982,0.3272185,9.820743,0.037048545,-0.031444572,0.0098014325
OrientationDeg,1676593807160,30863982085904,248.0,-15.0,0.0
UncalMag,1676593807162,30863984601866,-164.7244,762.01196,387.5574,-174.57417,771.0116,430.86337
UncalGyro,1676593807164,30863986325580,-0.52778757,-0.8756753,-1.8054122,0.0006722908,-0.0013431369,-0.0003227942
UncalAccel,1676593807168,30863990561359,0.41575295,0.37986058,9.963714,0.037048545,-0.031444572,0.0098014325
OrientationDeg,1676593807168,30863990561359,249.0,-15.0,0.0
UncalMag,1676593807172,30863994602110,-165.0782,763.0246,386.7156,-174.57417,771.0116,430.86337
UncalGyro,1676593807172,30863994794319,-0.36010507,-0.44226643,-1.6374242,0.0006722908,-0.0013431369,-0.0003227942
UncalAccel,1676593807177,30863999038918,0.32362926,0.465404,10.063016,0.037048545,-0.031444572,0.0098014325
OrientationDeg,1676593807177,30863999038918,249.0,-15.0,0.0
UncalGyro,1676593807181,30864003286456,-0.20525073,-0.054519724,-1.4598153,0.0006722908,-0.0013431369,-0.0003227942
UncalMag,1676593807182,30864004601866,-164.98059,762.85376,386.435,-174.57417,771.0116,430.86337
UncalAccel,1676593807185,30864007528706,0.13280165,0.55513483,9.956535,0.037048545,-0.031444572,0.0098014325
OrientationDeg,1676593807185,30864007528706,250.0,-15.0,0.0
UncalGyro,1676593807189,30864011769976,-0.07162395,0.23411411,-1.269378,0.0006722908,-0.0013431369,-0.0003227942
UncalMag,1676593807192,30864014601948,-164.66339,763.049,387.0816,-174.57417,771.0116,430.86337
UncalAccel,1676593807194,30864016006702,-0.13339986,0.6017949,9.682557,0.037048545,-0.031444572,0.0098014325
OrientationDeg,1676593807194,30864016006702,251.0,-15.0,0.0
UncalGyro,1676593807198,30864020248361,0.026725354,0.41447207,-1.0716103,0.0006722908,-0.0013431369,-0.0003227942
UncalAccel,1676593807202,30864024487538,-0.41874397,0.7106683,9.384052,0.037048545,-0.031444572,0.0098014325
OrientationDeg,1676593807202,30864024487538,251.0,-15.0,0.0
UncalMag,1676593807202,30864024595397,-164.52919,763.476,386.56918,-174.57417,771.0116,430.86337
UncalGyro,1676593807206,30864028729217,0.065973446,0.50885075,-0.87689704,0.0006722908,-0.0013431369,-0.0003227942
OrientationDeg,1676593807210,30864032967284,251.0,-14.0,0.0
UncalAccel,1676593807211,30864032967284,-0.65264237,0.90149593,9.205189,0.037048545,-0.031444572,0.0098014325
UncalMag,1676593807212,30864034591003,-164.334,763.1222,386.4838,-174.57417,771.0116,430.86337
UncalGyro,1676593807215,30864037210489,0.029321533,0.57619864,-0.6780604,0.0006722908,-0.0013431369,-0.0003227942
UncalAccel,1676593807219,30864041450307,-0.83030945,1.14018,9.107083,0.037048545,-0.031444572,0.0098014325
OrientationDeg,1676593807219,30864041450307,252.0,-14.0,0.0
UncalMag,1676593807222,30864044601908,-163.8216,763.06116,386.8132,-174.57417,771.0116,430.86337
UncalGyro,1676593807223,30864045689401,-0.08674286,0.64461553,-0.47800204,0.0006722908,-0.0013431369,-0.0003227942
UncalAccel,1676593807227,30864049917785,-0.9738788,1.3094722,10.332209,0.037048545,-0.031444572,0.0098014325
OrientationDeg,1676593807227,30864049917785,252.0,-14.0,0.0
UncalGyro,1676593807232,30864054173461,-0.015118915,1.1597277,-0.26908615,0.0006722908,-0.0013431369,-0.0003227942
UncalMag,1676593807232,30864054591654,-163.4678,763.7688,387.09378,-174.57417,771.0116,430.86337
UncalAccel,1676593807236,30864058411946,-0.02751746,1.4291133,14.084154,0.037048545,-0.031444572,0.0098014325
OrientationDeg,1676593807236,30864058411946,252.0,-13.0,0.0
Fix,NLP,37.4325945000,-122.1544983000,-16.5,,28.304,,1676593806902,,,30863724000000,1.0
UncalGyro,1676593807240,30864062656290,0.31627548,1.6627752,-0.06536258,0.0006722908,-0.0013431369,-0.0003227942
UncalMag,1676593807242,30864064602519,-163.28479,763.3296,386.98398,-174.57417,771.0116,430.86337
UncalAccel,1676593807244,30864066887258,-0.68255264,2.1702902,6.5682983,0.037048545,-0.031444572,0.0098014325
OrientationDeg,1676593807244,30864066887258,252.0,-12.0,0.0
UncalGyro,1676593807249,30864071122813,0.37048978,1.2728904,0.086437434,0.0006722908,-0.0013431369,-0.0003227942
UncalMag,1676593807252,30864074601746,-162.4552,763.18317,387.30118,-174.57417,771.0116,430.86337
UncalAccel,1676593807253,30864075366587,-1.0199406,1.9722841,6.3714886,0.037048545,-0.031444572,0.0098014325
OrientationDeg,1676593807253,30864075366587,252.0,-12.0,-1.0
UncalGyro,1676593807257,30864079617483,0.2519819,0.93691456,0.26389378,0.0006722908,-0.0013431369,-0.0003227942
UncalAccel,1676593807261,30864083857504,-0.76331043,1.4500505,10.141979,0.037048545,-0.031444572,0.0098014325
OrientationDeg,1676593807261,30864083857504,251.0,-11.0,-1.0
UncalMag,1676593807262,30864084611959,-161.6256,763.0368,387.4842,-174.57417,771.0116,430.86337
UncalGyro,1676593807266,30864088095836,0.16890424,1.1908818,0.52763486,0.0006722908,-0.0013431369,-0.0003227942
UncalAccel,1676593807270,30864092325358,-1.1527423,0.77587277,10.882557,0.037048545,-0.031444572,0.0098014325
OrientationDeg,1676593807270,30864092325358,251.0,-10.0,-1.0
UncalMag,1676593807272,30864094601909,-161.6256,763.0368,387.4842,-174.57417,771.0116,430.86337
UncalGyro,1676593807274,30864096576712,0.2996294,1.3110695,1.0268645,0.0006722908,-0.0013431369,-0.0003227942
UncalAccel,1676593807278,30864100810385,-1.6809579,0.032901313,9.150154,0.037048545,-0.031444572,0.0098014325
OrientationDeg,1676593807278,30864100810385,250.0,-10.0,-1.0
UncalMag,1676593807282,30864104601706,-161.1254,762.683,387.14258,-174.57417,771.0116,430.86337
UncalGyro,1676593807283,30864105047954,0.79137594,0.798859,1.5870279,0.0006722908,-0.0013431369,-0.0003227942
UncalAccel,1676593807287,30864109287924,-0.17706887,0.1896312,6.901499,0.037048545,-0.031444572,0.0098014325
OrientationDeg,1676593807287,30864109287924,249.0,-10.0,-1.0
UncalGyro,1676593807291,30864113541698,1.215011,-0.23976462,1.7721201,0.0006722908,-0.0013431369,-0.0003227942
UncalMag,1676593807292,30864114598044,-161.711,761.646,387.8746,-174.57417,771.0116,430.86337
UncalAccel,1676593807295,30864117782014,2.021337,1.1826526,8.347362,0.037048545,-0.031444572,0.0098014325
OrientationDeg,1676593807295,30864117782014,248.0,-10.0,-2.0
UncalGyro,1676593807300,30864122023642,1.114371,-0.7093673,1.5370897,0.0006722908,-0.0013431369,-0.0003227942
UncalMag,1676593807302,30864124601666,-161.9306,761.5728,388.47238,-174.57417,771.0116,430.86337
UncalAccel,1676593807304,30864126256939,2.1822543,2.0578275,9.866206,0.037048545,-0.031444572,0.0098014325
OrientationDeg,1676593807304,30864126256939,248.0,-10.0,-2.0
UncalGyro,1676593807308,30864130501863,0.71883565,-0.591623,1.0850494,0.0006722908,-0.0013431369,-0.0003227942
UncalMag,1676593807312,30864134602195,-161.772,760.7066,388.4968,-174.57417,771.0116,430.86337
UncalAccel,1676593807312,30864134738465,1.7024933,2.9312077,10.030712,0.037048545,-0.031444572,0.0098014325
OrientationDeg,1676593807312,30864134738465,247.0,-11.0,-2.0
UncalGyro,1676593807316,30864138973075,0.32589662,-0.28527406,0.56321776,0.0006722908,-0.0013431369,-0.0003227942
UncalAccel,1676593807321,30864143222506,1.5559329,3.7076788,9.305089,0.037048545,-0.031444572,0.0098014325
UncalMag,1676593807323,30864144599510,-162.30879,760.42596,388.20398,-174.57417,771.0116,430.86337
OrientationDeg,1676593807321,30864143222506,247.0,-11.0,-2.0
UncalGyro,1676593807325,30864147464612,0.051618114,-0.11591168,0.12583824,0.0006722908,-0.0013431369,-0.0003227942
UncalAccel,1676593807329,30864151705792,1.5206388,4.0977087,7.932805,0.037048545,-0.031444572,0.0098014325
OrientationDeg,1676593807329,30864151705792,247.0,-11.0,-2.0
UncalMag,1676593807332,30864154601951,-162.19899,760.609,388.2406,-174.57417,771.0116,430.86337
UncalGyro,1676593807333,30864155944562,-0.10186178,-0.16218472,-0.19517145,0.0006722908,-0.0013431369,-0.0003227942
UncalAccel,1676593807338,30864160183800,1.5463617,4.2335014,7.0205417,0.037048545,-0.031444572,0.0098014325
OrientationDeg,1676593807338,30864160183800,247.0,-11.0,-2.0
UncalGyro,1676593807342,30864164425722,-0.1788308,-0.2761111,-0.47235155,0.0006722908,-0.0013431369,-0.0003227942
UncalMag,1676593807342,30864164592471,-162.62599,760.5114,388.2284,-174.57417,771.0116,430.86337
UncalAccel,1676593807346,30864168665846,1.7012969,4.549354,7.7647095,0.037048545,-0.031444572,0.0098014325
OrientationDeg,1676593807346,30864168665846,248.0,-11.0,-2.0
UncalGyro,1676593807350,30864172908286,-0.15699236,-0.02031127,-0.79152864,0.0006722908,-0.0013431369,-0.0003227942
UncalMag,1676593807352,30864174601748,-161.9916,760.5114,387.72818,-174.57417,771.0116,430.86337
UncalAccel,1676593807356,30864177146884,2.3623142,4.0701914,10.544571,0.037048545,-0.031444572,0.0098014325
OrientationDeg,1676593807355,30864177146884,248.0,-11.0,-2.0
UncalGyro,1676593807359,30864181389702,-0.08231409,0.35460728,-1.1033753,0.0006722908,-0.0013431369,-0.0003227942
UncalMag,1676593807362,30864184601708,-162.17459,760.9262,387.35,-174.57417,771.0116,430.86337
UncalAccel,1676593807363,30864185627261,2.0404794,2.8965118,6.510272,0.037048545,-0.031444572,0.0098014325
OrientationDeg,1676593807363,30864185627261,249.0,-11.0,-2.0
UncalGyro,1676593807367,30864189866103,-0.014660766,0.37125334,-1.2933544,0.0006722908,-0.0013431369,-0.0003227942
UncalAccel,1676593807372,30864194092471,2.7601209,1.4003994,7.205387,0.037048545,-0.031444572,0.0098014325
OrientationDeg,1676593807372,30864194092471,249.0,-10.0,-3.0
UncalMag,1676593807372,30864194613061,-161.1254,760.96277,387.7038,-174.57417,771.0116,430.86337
UncalGyro,1676593807376,30864198349837,0.005497787,0.34040466,-1.3358096,0.0006722908,-0.0013431369,-0.0003227942
UncalAccel,1676593807381,30864202588982,3.8177485,-0.32422748,8.36112,0.037048545,-0.031444572,0.0098014325
OrientationDeg,1676593807380,30864202588982,250.0,-10.0,-3.0
UncalMag,1676593807382,30864204606673,-161.0278,760.8652,387.5574,-174.57417,771.0116,430.86337
UncalGyro,1676593807384,30864206834781,0.03145956,0.2932153,-1.206917,0.0006722908,-0.0013431369,-0.0003227942
UncalAccel,1676593807389,30864211067936,4.369294,-0.9272188,9.847662,0.037048545,-0.031444572,0.0098014325
OrientationDeg,1676593807389,30864211067936,251.0,-10.0,-3.0
UncalMag,1676593807392,30864214601709,-161.6378,761.3288,388.7652,-174.57417,771.0116,430.86337
UncalGyro,1676593807393,30864215302372,0.056199603,0.37583485,-1.0206031,0.0006722908,-0.0013431369,-0.0003227942
UncalAccel,1676593807397,30864219551396,4.436293,-0.7513463,10.978271,0.037048545,-0.031444572,0.0098014325
OrientationDeg,1676593807397,30864219551396,251.0,-10.0,-3.0
UncalGyro,1676593807401,30864223792922,0.04062254,0.50335294,-0.86452705,0.0006722908,-0.0013431369,-0.0003227942
UncalMag,1676593807402,30864224591414,-161.101,761.48737,388.0698,-174.57417,771.0116,430.86337
UncalAccel,1676593807406,30864228034672,4.700102,-0.4426722,10.643873,0.037048545,-0.031444572,0.0098014325
OrientationDeg,1676593807406,30864228034672,251.0,-10.0,-3.0
UncalGyro,1676593807410,30864232273888,-0.016646078,0.5392413,-0.7276932,0.0006722908,-0.0013431369,-0.0003227942
UncalMag,1676593807412,30864234591740,-160.7838,761.48737,387.8136,-174.57417,771.0116,430.86337
UncalAccel,1676593807414,30864236513248,4.644469,-0.28893334,10.371092,0.037048545,-0.031444572,0.0098014325
OrientationDeg,1676593807414,30864236513248,252.0,-9.0,-3.0
UncalGyro,1676593807418,30864240752335,-0.09025534,0.57436603,-0.6010914,0.0006722908,-0.0013431369,-0.0003227942
UncalMag,1676593807422,30864244596949,-160.2592,761.5118,388.2894,-174.57417,771.0116,430.86337
UncalAccel,1676593807422,30864244981144,4.432704,-0.07956135,10.406984,0.037048545,-0.031444572,0.0098014325
OrientationDeg,1676593807422,30864244981144,252.0,-9.0,-3.0
UncalGyro,1676593807427,30864249225540,-0.21181752,0.6400341,-0.5235115,0.0006722908,-0.0013431369,-0.0003227942
UncalAccel,1676593807431,30864253471836,4.2167516,0.23988047,10.265209,0.037048545,-0.031444572,0.0098014325
OrientationDeg,1676593807431,30864253471836,252.0,-9.0,-3.0
UncalMag,1676593807432,30864254591374,-160.32019,762.2926,387.99658,-174.57417,771.0116,430.86337
UncalGyro,1676593807435,30864257717382,-0.36056322,0.70341134,-0.48762318,0.0006722908,-0.0013431369,-0.0003227942
UncalAccel,1676593807439,30864261958724,3.8344984,0.7932207,10.417751,0.037048545,-0.031444572,0.0098014325
OrientationDeg,1676593807439,30864261958724,253.0,-8.0,-3.0
UncalMag,1676593807442,30864264601913,-159.6004,761.9876,388.875,-174.57417,771.0116,430.86337
UncalGyro,1676593807444,30864266198512,-0.50976706,0.78954333,-0.4972443,0.0006722908,-0.0013431369,-0.0003227942
UncalAccel,1676593807448,30864270437973,3.659224,1.4147564,10.370493,0.037048545,-0.031444572,0.0098014325
OrientationDeg,1676593807448,30864270437973,253.0,-8.0,-2.0
UncalMag,1676593807452,30864274601873,-159.576,762.3902,387.8746,-174.57417,771.0116,430.86337
UncalGyro,1676593807452,30864274676346,-0.69913524,0.88499105,-0.5832236,0.0006722908,-0.0013431369,-0.0003227942
UncalAccel,1676593807456,30864278905890,3.388835,1.4943178,10.678569,0.037048545,-0.031444572,0.0098014325
OrientationDeg,1676593807456,30864278905890,253.0,-7.0,-2.0
UncalGyro,1676593807461,30864283150497,-0.8961393,0.97249746,-0.7107417,0.0006722908,-0.0013431369,-0.0003227942
UncalMag,1676593807462,30864284601792,-159.3442,762.8416,388.3504,-174.57417,771.0116,430.86337
UncalAccel,1676593807465,30864287399552,3.187838,1.3740784,10.167104,0.037048545,-0.031444572,0.0098014325
OrientationDeg,1676593807465,30864287399552,254.0,-7.0,-2.0
UncalGyro,1676593807469,30864291643652,-1.1039863,0.9521862,-0.8547532,0.0006722908,-0.0013431369,-0.0003227942
UncalMag,1676593807472,30864294601751,-158.356,763.6468,388.509,-174.57417,771.0116,430.86337
UncalAccel,1676593807473,30864295880224,2.9084759,0.96490574,10.091131,0.037048545,-0.031444572,0.0098014325
OrientationDeg,1676593807473,30864295880224,254.0,-7.0,-1.0
UncalGyro,1676593807478,30864300111314,-1.2760975,0.8915578,-0.9833403,0.0006722908,-0.0013431369,-0.0003227942
UncalAccel,1676593807482,30864304358587,2.7637103,0.34636107,10.045668,0.037048545,-0.031444572,0.0098014325
UncalMag,1676593807482,30864304594224,-158.661,763.7322,388.6676,-174.57417,771.0116,430.86337
OrientationDeg,1676593807482,30864304358587,255.0,-6.0,-1.0
UncalGyro,1676593807486,30864308592413,-1.3903292,0.83001316,-1.078788,0.0006722908,-0.0013431369,-0.0003227942
UncalAccel,1676593807490,30864312844640,2.9336007,-0.212363,9.491131,0.037048545,-0.031444572,0.0098014325
OrientationDeg,1676593807490,30864312844640,255.0,-6.0,0.0
UncalMag,1676593807492,30864314601793,-157.5264,765.245,388.753,-174.57417,771.0116,430.86337
UncalGyro,1676593807495,30864317082037,-1.4387404,0.77381355,-1.1136073,0.0006722908,-0.0013431369,-0.0003227942
UncalAccel,1676593807499,30864321326453,3.2763724,-0.62512493,8.712267,0.037048545,-0.031444572,0.0098014325
OrientationDeg,1676593807499,30864321326453,256.0,-5.0,0.0
UncalMag,1676593807502,30864324601711,-156.8676,765.794,389.2288,-174.57417,771.0116,430.86337
UncalGyro,1676593807503,30864325563747,-1.4555391,0.6058256,-1.1224649,0.0006722908,-0.0013431369,-0.0003227942
UncalAccel,1676593807507,30864329796302,3.3314073,-1.1425728,8.696713,0.037048545,-0.031444572,0.0098014325
UncalGyro,1676593807512,30864334045814,-1.4068227,0.4804455,-1.0699304,0.0006722908,-0.0013431369,-0.0003227942
UncalMag,1676593807512,30864334598294,-156.72119,766.4894,388.9116,-174.57417,771.0116,430.86337
OrientationDeg,1676593807507,30864329796302,257.0,-5.0,0.0
UncalAccel,1676593807516,30864338284533,3.306881,-1.5308083,9.061021,0.037048545,-0.031444572,0.0098014325
OrientationDeg,1676593807516,30864338284533,257.0,-5.0,1.0
UncalGyro,1676593807520,30864342529415,-1.2927436,0.40882155,-0.9954049,0.0006722908,-0.0013431369,-0.0003227942
UncalMag,1676593807522,30864344615384,-156.3308,767.61176,388.326,-174.57417,771.0116,430.86337
UncalAccel,1676593807524,30864346766975,3.2572298,-1.7515461,8.866006,0.037048545,-0.031444572,0.0098014325
OrientationDeg,1676593807524,30864346766975,258.0,-5.0,2.0
UncalGyro,1676593807529,30864351009397,-1.1614076,0.33261612,-0.9265299,0.0006722908,-0.0013431369,-0.0003227942
UncalMag,1676593807532,30864354601794,-157.0262,768.295,388.509,-174.57417,771.0116,430.86337
UncalAccel,1676593807533,30864355244972,2.9676983,-1.8975084,9.28475,0.037048545,-0.031444572,0.0098014325
OrientationDeg,1676593807533,30864355244972,258.0,-5.0,2.0
UncalGyro,1676593807537,30864359478421,-0.9932669,0.3034473,-0.85047716,0.0006722908,-0.0013431369,-0.0003227942
UncalAccel,1676593807541,30864363728156,2.8241289,-2.0805593,9.418748,0.037048545,-0.031444572,0.0098014325
UncalMag,1676593807542,30864364591418,-156.7944,768.6488,388.3382,-174.57417,771.0116,430.86337
OrientationDeg,1676593807541,30864363728156,259.0,-5.0,2.0
UncalGyro,1676593807545,30864367965635,-0.8089383,0.3126103,-0.75670934,0.0006722908,-0.0013431369,-0.0003227942
UncalAccel,1676593807550,30864372194740,2.8277183,-2.565106,9.903295,0.037048545,-0.031444572,0.0098014325
OrientationDeg,1676593807550,30864372194740,259.0,-5.0,3.0
UncalMag,1676593807552,30864374601835,-156.4406,769.271,388.5944,-174.57417,771.0116,430.86337
UncalGyro,1676593807554,30864376451017,-0.6070473,0.36392298,-0.6461427,0.0006722908,-0.0013431369,-0.0003227942
UncalAccel,1676593807558,30864380689960,2.833102,-2.2438695,9.61496,0.037048545,-0.031444572,0.0098014325
OrientationDeg,1676593807558,30864380689960,259.0,-4.0,3.0
UncalMag,1676593807562,30864384602079,-156.11119,769.6126,388.1918,-174.57417,771.0116,430.86337
UncalGyro,1676593807562,30864384931821,-0.45463645,0.35811976,-0.56382865,0.0006722908,-0.0013431369,-0.0003227942
UncalAccel,1676593807567,30864389162422,2.6608188,-2.1732812,9.608977,0.037048545,-0.031444572,0.0098014325
OrientationDeg,1676593807567,30864389162422,260.0,-4.0,3.0
UncalGyro,1676593807571,30864393418851,-0.32436943,0.29520062,-0.48502702,0.0006722908,-0.0013431369,-0.0003227942
UncalMag,1676593807572,30864394614286,-155.65979,770.0884,389.0214,-174.57417,771.0116,430.86337
UncalAccel,1676593807575,30864397653156,2.4466612,-2.2606192,9.517452,0.037048545,-0.031444572,0.0098014325
OrientationDeg,1676593807575,30864397653156,260.0,-4.0,3.0
UncalGyro,1676593807579,30864401896675,-0.22922719,0.17608191,-0.42088616,0.0006722908,-0.0013431369,-0.0003227942
UncalMag,1676593807582,30864404601713,-156.1722,770.3324,388.9726,-174.57417,771.0116,430.86337
UncalAccel,1676593807585,30864406132241,2.0105693,-2.1194427,9.533006,0.037048545,-0.031444572,0.0098014325
OrientationDeg,1676593807584,30864406132241,260.0,-4.0,3.0
UncalGyro,1676593807588,30864410375242,-0.15439619,0.049632803,-0.3837761,0.0006722908,-0.0013431369,-0.0003227942
UncalAccel,1676593807592,30864414610604,1.5158532,-1.9794625,9.701101,0.037048545,-0.031444572,0.0098014325
OrientationDeg,1676593807592,30864414610604,260.0,-4.0,3.0
UncalMag,1676593807592,30864414611317,-155.7574,770.3568,389.4484,-174.57417,771.0116,430.86337
UncalGyro,1676593807596,30864418839272,-0.06536258,-0.061391957,-0.3642284,0.0006722908,-0.0013431369,-0.0003227942
UncalAccel,1676593807601,30864423093107,1.3106686,-1.8652053,9.537193,0.037048545,-0.031444572,0.0098014325
UncalMag,1676593807602,30864424591175,-155.4524,770.16156,388.78958,-174.57417,771.0116,430.86337
OrientationDeg,1676593807601,30864423093107,260.0,-4.0,3.0
UncalGyro,1676593807605,30864427326608,0.024740042,-0.17180584,-0.3539964,0.0006722908,-0.0013431369,-0.0003227942
UncalAccel,1676593807610,30864431580910,1.2490535,-1.8466609,9.469596,0.037048545,-0.031444572,0.0098014325
OrientationDeg,1676593807609,30864431580910,260.0,-4.0,3.0
UncalMag,1676593807612,30864434601877,-155.65979,770.05176,387.9234,-174.57417,771.0116,430.86337
UncalGyro,1676593807613,30864435818043,0.122020334,-0.24694228,-0.34055737,0.0006722908,-0.0013431369,-0.0003227942
UncalAccel,1676593807618,30864440059570,1.262214,-1.8370895,9.598209,0.037048545,-0.031444572,0.0098014325
OrientationDeg,1676593807618,30864440059570,261.0,-5.0,3.0
UncalGyro,1676593807622,30864444295857,0.22937989,-0.2771801,-0.31948254,0.0006722908,-0.0013431369,-0.0003227942
UncalMag,1676593807622,30864444591583,-156.0624,770.308,388.1186,-174.57417,771.0116,430.86337
UncalAccel,1676593807626,30864448538839,1.2855439,-1.7503498,9.636495,0.037048545,-0.031444572,0.0098014325
OrientationDeg,1676593807626,30864448538839,261.0,-5.0,3.0
UncalGyro,1676593807630,30864452781330,0.3231477,-0.28298333,-0.29978213,0.0006722908,-0.0013431369,-0.0003227942
UncalMag,1676593807632,30864454601796,-155.97699,770.1372,388.1918,-174.57417,771.0116,430.86337
UncalAccel,1676593807635,30864457020619,1.227518,-1.683949,9.664611,0.037048545,-0.031444572,0.0098014325
OrientationDeg,1676593807635,30864457020619,261.0,-5.0,3.0
UncalGyro,1676593807639,30864461262258,0.39019018,-0.28099802,-0.2843578,0.0006722908,-0.0013431369,-0.0003227942
UncalMag,1676593807642,30864464601796,-156.1722,770.2348,388.4602,-174.57417,771.0116,430.86337
UncalAccel,1676593807643,30864465500366,1.0743774,-1.6564314,9.677772,0.037048545,-0.031444572,0.0098014325
OrientationDeg,1676593807643,30864465500366,261.0,-5.0,3.0
UncalGyro,1676593807647,30864469742218,0.42256603,-0.29352075,-0.27351493,0.0006722908,-0.0013431369,-0.0003227942
UncalAccel,1676593807651,30864473981343,0.9738788,-1.5846468,9.60479,0.037048545,-0.031444572,0.0098014325
OrientationDeg,1676593807651,30864473981343,261.0,-5.0,3.0
UncalMag,1676593807652,30864474595734,-156.0624,770.308,388.2406,-174.57417,771.0116,430.86337
UncalGyro,1676593807656,30864478221008,0.42439863,-0.3323107,-0.27168232,0.0006722908,-0.0013431369,-0.0003227942
UncalAccel,1676593807660,30864482454478,0.9062816,-1.4751751,9.594621,0.037048545,-0.031444572,0.0098014325
OrientationDeg,1676593807660,30864482454478,261.0,-5.0,2.0
UncalMag,1676593807662,30864484601919,-156.6236,769.7834,388.2406,-174.57417,771.0116,430.86337
UncalGyro,1676593807664,30864486705160,0.40454552,-0.37904188,-0.27931812,0.0006722908,-0.0013431369,-0.0003227942
UncalAccel,1676593807668,30864490943605,0.9296116,-1.3603196,9.637094,0.037048545,-0.031444572,0.0098014325
OrientationDeg,1676593807668,30864490943605,261.0,-6.0,2.0
UncalMag,1676593807672,30864494601838,-156.9408,769.7102,389.2044,-174.57417,771.0116,430.86337
UncalGyro,1676593807673,30864495184744,0.37201694,-0.42119157,-0.29642236,0.0006722908,-0.0013431369,-0.0003227942
UncalAccel,1676593807677,30864499411368,0.9720842,-1.3357933,9.713663,0.037048545,-0.031444572,0.0098014325
OrientationDeg,1676593807677,30864499411368,261.0,-6.0,2.0
UncalGyro,1676593807681,30864503655609,0.33460143,-0.45906523,-0.31871894,0.0006722908,-0.0013431369,-0.0003227942
UncalMag,1676593807682,30864504591421,-156.8432,769.6126,388.692,-174.57417,771.0116,430.86337
UncalAccel,1676593807685,30864507905925,1.0241281,-1.3740784,9.751948,0.037048545,-0.031444572,0.0098014325
OrientationDeg,1676593807685,30864507905925,262.0,-6.0,2.0
UncalGyro,1676593807690,30864512149170,0.30466905,-0.49235737,-0.33857206,0.0006722908,-0.0013431369,-0.0003227942
UncalMag,1676593807692,30864514601920,-156.953,769.42957,388.5334,-174.57417,771.0116,430.86337
UncalAccel,1676593807694,30864516386516,1.096511,-1.3926228,9.757333,0.037048545,-0.031444572,0.0098014325
OrientationDeg,1676593807694,30864516386516,262.0,-6.0,2.0
UncalGyro,1676593807698,30864520629356,0.28985557,-0.52473325,-0.35414913,0.0006722908,-0.0013431369,-0.0003227942
UncalMag,1676593807702,30864524601798,-157.502,769.1368,387.7526,-174.57417,771.0116,430.86337
UncalAccel,1676593807702,30864524868013,1.1437693,-1.402194,9.786645,0.037048545,-0.031444572,0.0098014325
OrientationDeg,1676593807702,30864524868013,262.0,-7.0,2.0
UncalGyro,1676593807707,30864529110831,0.29168814,-0.551764,-0.3678936,0.0006722908,-0.0013431369,-0.0003227942
UncalAccel,1676593807711,30864533350373,1.2005987,-1.416551,9.887143,0.037048545,-0.031444572,0.0098014325
OrientationDeg,1676593807711,30864533350373,262.0,-7.0,1.0
UncalMag,1676593807712,30864534591626,-157.1482,769.6736,387.8624,-174.57417,771.0116,430.86337
UncalGyro,1676593807715,30864537597241,0.3036,-0.5694791,-0.38148534,0.0006722908,-0.0013431369,-0.0003227942
UncalAccel,1676593807719,30864541829408,1.2807583,-1.4255241,10.035499,0.037048545,-0.031444572,0.0098014325
OrientationDeg,1676593807719,30864541829408,262.0,-7.0,1.0
UncalMag,1676593807722,30864544583284,-157.7094,769.0514,388.0942,-174.57417,771.0116,430.86337
UncalGyro,1676593807724,30864546071210,0.31978795,-0.57726765,-0.39828414,0.0006722908,-0.0013431369,-0.0003227942
UncalAccel,1676593807728,30864550309318,1.3704891,-1.439881,10.198809,0.037048545,-0.031444572,0.0098014325
OrientationDeg,1676593807728,30864550309318,262.0,-7.0,1.0
UncalGyro,1676593807732,30864554553265,0.33551773,-0.5751296,-0.4166101,0.0006722908,-0.0013431369,-0.0003227942
UncalMag,1676593807732,30864554591423,-157.7094,769.149,388.1186,-174.57417,771.0116,430.86337
UncalAccel,1676593807736,30864558791934,1.4554343,-1.4536397,10.375877,0.037048545,-0.031444572,0.0098014325
OrientationDeg,1676593807736,30864558791934,263.0,-8.0,1.0
UncalGyro,1676593807741,30864563033470,0.34269542,-0.5653558,-0.43371433,0.0006722908,-0.0013431369,-0.0003227942
UncalMag,1676593807742,30864564601758,-157.7094,769.149,388.1186,-174.57417,771.0116,430.86337
UncalAccel,1676593807745,30864567270388,1.5403795,-1.4823537,10.576875,0.037048545,-0.031444572,0.0098014325
OrientationDeg,1676593807745,30864567270388,263.0,-8.0,1.0
UncalGyro,1676593807749,30864571503817,0.34574974,-0.5477934,-0.44974953,0.0006722908,-0.0013431369,-0.0003227942
UncalMag,1676593807752,30864574601799,-157.7948,769.332,388.52118,-174.57417,771.0116,430.86337
UncalAccel,1676593807754,30864575750867,1.6546369,-1.5583258,10.697114,0.037048545,-0.031444572,0.0098014325
OrientationDeg,1676593807753,30864575750867,263.0,-8.0,1.0
UncalGyro,1676593807757,30864579992719,0.35414913,-0.5140431,-0.4596761,0.0006722908,-0.0013431369,-0.0003227942
UncalAccel,1676593807762,30864584227023,1.8508483,-1.6336997,10.732408,0.037048545,-0.031444572,0.0098014325
UncalMag,1676593807762,30864584598015,-159.05139,769.2954,388.0698,-174.57417,771.0116,430.86337
OrientationDeg,1676593807763,30864584227023,263.0,-8.0,0.0
UncalGyro,1676593807766,30864588478346,0.36819902,-0.45799622,-0.45570546,0.0006722908,-0.0013431369,-0.0003227942
UncalAccel,1676593807770,30864592715976,2.070988,-1.6803597,10.748559,0.037048545,-0.031444572,0.0098014325
OrientationDeg,1676593807770,30864592715976,263.0,-9.0,0.0
UncalMag,1676593807772,30864594601922,-159.05139,769.2954,388.0698,-174.57417,771.0116,430.86337
UncalGyro,1676593807774,30864596961144,0.38072178,-0.3811799,-0.44165558,0.0006722908,-0.0013431369,-0.0003227942
UncalAccel,1676593807779,30864601196659,2.2097716,-1.7036897,10.758729,0.037048545,-0.031444572,0.0098014325
OrientationDeg,1676593807779,30864601196659,264.0,-9.0,0.0
UncalMag,1676593807782,30864604601678,-159.1002,768.46576,386.6546,-174.57417,771.0116,430.86337
UncalGyro,1676593807783,30864605438500,0.38163805,-0.2875648,-0.4166101,0.0006722908,-0.0013431369,-0.0003227942
UncalAccel,1676593807787,30864609677626,2.2582264,-1.7222341,10.677971,0.037048545,-0.031444572,0.0098014325
OrientationDeg,1676593807787,30864609677626,264.0,-9.0,0.0
UncalGyro,1676593807791,30864613919284,0.36850446,-0.19456059,-0.39095375,0.0006722908,-0.0013431369,-0.0003227942
UncalMag,1676593807792,30864614591139,-159.515,768.57556,387.9112,-174.57417,771.0116,430.86337
OrientationDeg,1676593807796,30864618159011,264.0,-9.0,0.0
UncalAccel,1676593807796,30864618159011,2.2157538,-1.6504494,10.563115,0.037048545,-0.031444572,0.0098014325
UncalGyro,1676593807800,30864622402886,0.3407101,-0.104610674,-0.37003163,0.0006722908,-0.0013431369,-0.0003227942
UncalMag,1676593807802,30864624601800,-159.088,768.7464,387.3256,-174.57417,771.0116,430.86337
UncalAccel,1676593807804,30864626646111,2.1343977,-1.5020944,10.437492,0.037048545,-0.031444572,0.0098014325
OrientationDeg,1676593807804,30864626646111,264.0,-9.0,0.0
