# 
# Header Description:
# 
# Version: v3.0.5.6 Platform: 13 Manufacturer: Google Model: Pixel 7
# 
# Raw,utcTimeMillis,TimeNanos,LeapSecond,TimeUncertaintyNanos,FullBiasNanos,BiasNanos,BiasUncertaintyNanos,DriftNanosPerSecond,DriftUncertaintyNanosPerSecond,HardwareClockDiscontinuityCount,Svid,TimeOffsetNanos,State,ReceivedSvTimeNanos,ReceivedSvTimeUncertaintyNanos,Cn0DbHz,PseudorangeRateMetersPerSecond,PseudorangeRateUncertaintyMetersPerSecond,AccumulatedDeltaRangeState,AccumulatedDeltaRangeMeters,AccumulatedDeltaRangeUncertaintyMeters,CarrierFrequencyHz,CarrierCycles,CarrierPhase,CarrierPhaseUncertainty,MultipathIndicator,SnrInDb,ConstellationType,AgcDb,BasebandCn0DbHz,FullInterSignalBiasNanos,FullInterSignalBiasUncertaintyNanos,SatelliteInterSignalBiasNanos,SatelliteInterSignalBiasUncertaintyNanos,CodeType,ChipsetElapsedRealtimeNanos
# 
# UncalAccel,utcTimeMillis,elapsedRealtimeNanos,UncalAccelXMps2,UncalAccelYMps2,UncalAccelZMps2,BiasXMps2,BiasYMps2,BiasZMps2
# 
# Accel,utcTimeMillis,elapsedRealtimeNanos,AccelXMps2,AccelYMps2,AccelZMps2
# 
# UncalGyro,utcTimeMillis,elapsedRealtimeNanos,UncalGyroXRadPerSec,UncalGyroYRadPerSec,UncalGyroZRadPerSec,DriftXRadPerSec,DriftYRadPerSec,DriftZRadPerSec
# 
# Gyro,utcTimeMillis,elapsedRealtimeNanos,GyroXRadPerSec,GyroYRadPerSec,GyroZRadPerSec
# 
# UncalMag,utcTimeMillis,elapsedRealtimeNanos,UncalMagXMicroT,UncalMagYMicroT,UncalMagZMicroT,BiasXMicroT,BiasYMicroT,BiasZMicroT
# 
# Mag,utcTimeMillis,elapsedRealtimeNanos,MagXMicroT,MagYMicroT,MagZMicroT
# 
# OrientationDeg,utcTimeMillis,elapsedRealtimeNanos,yawDeg,rollDeg,pitchDeg
# 
# Fix,Provider,LatitudeDegrees,LongitudeDegrees,AltitudeMeters,SpeedMps,AccuracyMeters,BearingDegrees,UnixTimeMillis,SpeedAccuracyMps,BearingAccuracyDegrees,elapsedRealtimeNanos,VerticalAccuracyMeters
# 
# Nav,Svid,Type,Status,MessageId,Sub-messageId,Data(Bytes)
# 
# Status,UnixTimeMillis,SignalCount,SignalIndex,ConstellationType,Svid,CarrierFrequencyHz,Cn0DbHz,AzimuthDegrees,ElevationDegrees,UsedInFix,HasAlmanacData,HasEphemerisData,BasebandCn0DbHz
# 
UncalMag,1676593844872,30901694592188,-157.5752,749.29956,394.7432,-174.57417,771.0116,430.86337
UncalAccel,1676593844874,30901696870041,-1.2382857,0.8033902,11.534601,0.037048545,-0.031444572,0.0098014325
UncalGyro,1676593844879,30901701114731,0.0290161,0.07803804,-0.030543262,0.0006537356,-0.0013458843,-0.00032249582
UncalAccel,1676593844883,30901705359420,-0.8787641,0.72442704,11.504093,0.037048545,-0.031444572,0.0098014325
UncalGyro,1676593844887,30901709588913,0.046883907,-0.048563786,-0.08781188,0.0006537356,-0.0013458843,-0.00032249582
UncalGyro,1676593844896,30901718073400,0.06536258,-0.104610674,-0.13271047,0.0006537356,-0.0013458843,-0.00032249582
UncalAccel,1676593844891,30901713828414,-0.5724828,0.6735796,11.468201,0.037048545,-0.031444572,0.0098014325
UncalAccel,1676593844900,30901722308833,-0.3505485,0.5940182,11.293525,0.037048545,-0.031444572,0.0098014325
UncalMag,1676593844883,30901704592229,-157.258,749.324,395.2312,-174.57417,771.0116,430.86337
UncalMag,1676593844892,30901714597723,-156.8432,749.141,394.5724,-174.57417,771.0116,430.86337
OrientationDeg,1676593844891,30901713828414,220.0,4.0,-4.0
UncalMag,1676593844903,30901724592311,-156.831,749.40936,394.87738,-174.57417,771.0116,430.86337
UncalGyro,1676593844904,30901726551855,0.08353582,-0.12782355,-0.16294831,0.0006537356,-0.0013458843,-0.00032249582
UncalAccel,1676593844908,30901730789150,-0.31944183,0.5180461,11.036296,0.037048545,-0.031444572,0.0098014325
OrientationDeg,1676593844908,30901730789150,220.0,4.0,-4.0
UncalMag,1676593844912,30901734593369,-157.258,749.2142,394.71878,-174.57417,771.0116,430.86337
UncalGyro,1676593844913,30901735033147,0.094989546,-0.14950927,-0.18112154,0.0006537356,-0.0013458843,-0.00032249582
UncalGyro,1676593844921,30901743516964,0.10781772,-0.17684549,-0.19685133,0.0006537356,-0.0013458843,-0.00032249582
UncalAccel,1676593844917,30901739271053,-0.39421752,0.50787663,10.825727,0.037048545,-0.031444572,0.0098014325
UncalMag,1676593844922,30901744592352,-157.35559,749.31177,394.8652,-174.57417,771.0116,430.86337
OrientationDeg,1676593844917,30901739271053,220.0,4.0,-4.0
UncalAccel,1676593844925,30901747751400,-0.53659046,0.5168497,10.628919,0.037048545,-0.031444572,0.0098014325
OrientationDeg,1676593844925,30901747751400,220.0,4.0,-4.0
UncalGyro,1676593844929,30901751993699,0.12522738,-0.2125811,-0.21090123,0.0006537356,-0.0013458843,-0.00032249582
UncalMag,1676593844932,30901754592190,-157.06279,748.9702,394.8896,-174.57417,771.0116,430.86337
UncalAccel,1676593844934,30901756232489,-0.6831509,0.5162515,10.413564,0.037048545,-0.031444572,0.0098014325
OrientationDeg,1676593844934,30901756232489,220.0,4.0,-4.0
UncalGyro,1676593844938,30901760473782,0.14645495,-0.2507602,-0.2275473,0.0006537356,-0.0013458843,-0.00032249582
UncalMag,1676593844942,30901764592353,-157.5752,749.2142,394.853,-174.57417,771.0116,430.86337
UncalAccel,1676593844942,30901764713192,-0.7052845,0.4211368,10.246665,0.037048545,-0.031444572,0.0098014325
OrientationDeg,1676593844942,30901764713192,220.0,4.0,-4.0
UncalGyro,1676593844946,30901768955360,0.16493362,-0.2845105,-0.24419338,0.0006537356,-0.0013458843,-0.00032249582
UncalAccel,1676593844951,30901773195197,-0.64606214,0.26799613,10.137792,0.037048545,-0.031444572,0.0098014325
UncalMag,1676593844952,30901774592394,-157.35559,749.324,395.2312,-174.57417,771.0116,430.86337
OrientationDeg,1676593844951,30901773195197,220.0,4.0,-4.0
UncalGyro,1676593844955,30901777436897,0.17852537,-0.31429017,-0.2565634,0.0006537356,-0.0013458843,-0.00032249582
UncalAccel,1676593844959,30901781677069,-0.60598236,0.13459627,9.986445,0.037048545,-0.031444572,0.0098014325
OrientationDeg,1676593844959,30901781677069,221.0,4.0,-4.0
UncalMag,1676593844962,30901784592923,-156.9286,749.568,394.304,-174.57417,771.0116,430.86337
UncalGyro,1676593844963,30901785921048,0.18768835,-0.35063666,-0.2706133,0.0006537356,-0.0013458843,-0.00032249582
UncalAccel,1676593844968,30901790158943,-0.58983076,0.05383851,9.7812605,0.037048545,-0.031444572,0.0098014325
OrientationDeg,1676593844968,30901790158943,221.0,3.0,-4.0
UncalGyro,1676593844972,30901794400408,0.20754147,-0.39492437,-0.3023783,0.0006537356,-0.0013458843,-0.00032249582
UncalMag,1676593844972,30901794592069,-157.563,749.446,393.938,-174.57417,771.0116,430.86337
UncalAccel,1676593844976,30901798637632,-0.5593223,-0.05623133,9.591031,0.037048545,-0.031444572,0.0098014325
OrientationDeg,1676593844976,30901798637632,221.0,3.0,-4.0
UncalGyro,1676593844980,30901802884926,0.23197608,-0.4268421,-0.35506544,0.0006537356,-0.0013458843,-0.00032249582
UncalMag,1676593844982,30901804592395,-157.563,749.446,393.938,-174.57417,771.0116,430.86337
UncalAccel,1676593844985,30901807118711,-0.5054838,-0.13220344,9.520443,0.037048545,-0.031444572,0.0098014325
OrientationDeg,1676593844985,30901807118711,221.0,3.0,-5.0
UncalGyro,1676593844989,30901811360655,0.2490803,-0.4268421,-0.42439863,0.0006537356,-0.0013458843,-0.00032249582
UncalMag,1676593844992,30901814594145,-157.4532,749.4704,394.29178,-174.57417,771.0116,430.86337
UncalAccel,1676593844993,30901815599933,-0.45762733,-0.18484555,9.564112,0.037048545,-0.031444572,0.0098014325
OrientationDeg,1676593844993,30901815599933,221.0,3.0,-5.0
UncalGyro,1676593844997,30901819840687,0.26251933,-0.4007276,-0.50442195,0.0006537356,-0.0013458843,-0.00032249582
UncalAccel,1676593845002,30901824083666,-0.46181476,-0.25663024,9.512068,0.037048545,-0.031444572,0.0098014325
UncalMag,1676593845002,30901824592029,-157.2458,749.4826,394.6578,-174.57417,771.0116,430.86337
OrientationDeg,1676593845002,30901824083666,222.0,3.0,-5.0
UncalGyro,1676593845006,30901828324288,0.27855456,-0.37201694,-0.59131753,0.0006537356,-0.0013458843,-0.00032249582
UncalAccel,1676593845010,30901832561948,-0.5138587,-0.35234314,9.468997,0.037048545,-0.031444572,0.0098014325
OrientationDeg,1676593845011,30901832561948,222.0,3.0,-5.0
UncalMag,1676593845012,30901834592395,-157.2458,749.4826,394.6578,-174.57417,771.0116,430.86337
UncalGyro,1676593845015,30901836807066,0.29947668,-0.3529274,-0.68707067,0.0006537356,-0.0013458843,-0.00032249582
UncalAccel,1676593845019,30901841050933,-0.58504516,-0.40079778,9.468997,0.037048545,-0.031444572,0.0098014325
OrientationDeg,1676593845019,30901841050933,222.0,2.0,-5.0
UncalMag,1676593845022,30901844594145,-157.685,749.2142,394.975,-174.57417,771.0116,430.86337
UncalGyro,1676593845023,30901845287230,0.3210097,-0.35048392,-0.79045963,0.0006537356,-0.0013458843,-0.00032249582
UncalAccel,1676593845027,30901849521351,-0.6855437,-0.4642076,9.540184,0.037048545,-0.031444572,0.0098014325
OrientationDeg,1676593845027,30901849521351,223.0,2.0,-5.0
UncalGyro,1676593845031,30901853760425,0.33567044,-0.36758816,-0.90285885,0.0006537356,-0.0013458843,-0.00032249582
UncalMag,1676593845032,30901854592599,-157.2458,749.4826,394.6578,-174.57417,771.0116,430.86337
UncalAccel,1676593845036,30901858005624,-0.83389866,-0.49351966,9.568299,0.037048545,-0.031444572,0.0098014325
OrientationDeg,1676593845036,30901858005624,223.0,2.0,-5.0
UncalGyro,1676593845040,30901862245370,0.34483343,-0.41233405,-1.047023,0.0006537356,-0.0013458843,-0.00032249582
UncalMag,1676593845042,30901864592925,-157.22139,749.83636,394.8652,-174.57417,771.0116,430.86337
UncalAccel,1676593845044,30901866486409,-0.9343972,-0.5808577,9.577272,0.037048545,-0.031444572,0.0098014325
OrientationDeg,1676593845044,30901866486409,224.0,2.0,-5.0
UncalGyro,1676593845048,30901870728383,0.3408628,-0.47998735,-1.2281445,0.0006537356,-0.0013458843,-0.00032249582
UncalMag,1676593845052,30901874592478,-157.258,749.2874,394.13318,-174.57417,771.0116,430.86337
UncalAccel,1676593845052,30901874967498,-1.0013963,-0.701097,9.701699,0.037048545,-0.031444572,0.0098014325
UncalGyro,1676593845057,30901879207428,0.30573806,-0.55955255,-1.4471397,0.0006537356,-0.0013458843,-0.00032249582
UncalAccel,1676593845061,30901883448537,-1.049851,-0.7304091,9.830314,0.037048545,-0.031444572,0.0098014325
UncalMag,1676593845062,30901884592275,-157.746,749.9218,395.0238,-174.57417,771.0116,430.86337
OrientationDeg,1676593845052,30901874967498,224.0,2.0,-5.0
OrientationDeg,1676593845061,30901883448537,225.0,2.0,-6.0
UncalGyro,1676593845065,30901887687988,0.23945917,-0.65133506,-1.7088956,0.0006537356,-0.0013458843,-0.00032249582
UncalAccel,1676593845069,30901891930775,-1.1030912,-0.6969096,9.853643,0.037048545,-0.031444572,0.0098014325
OrientationDeg,1676593845069,30901891930775,226.0,1.0,-6.0
UncalMag,1676593845072,30901894592193,-156.74559,749.0678,395.28,-174.57417,771.0116,430.86337
UncalGyro,1676593845074,30901896168680,0.15561792,-0.7499898,-2.0189097,0.0006537356,-0.0013458843,-0.00032249582
UncalAccel,1676593845078,30901900409506,-1.1904292,-0.7507481,10.044471,0.037048545,-0.031444572,0.0098014325
OrientationDeg,1676593845078,30901900409506,227.0,1.0,-6.0
Status,0,30,0,6,2,1575420030,39.37,87.0,79.0,1,1,1,35.770443
Status,0,30,1,6,2,1176450050,35.66,87.0,79.0,1,1,1,32.05642
Status,0,30,2,3,17,1604249980,42.76,293.0,74.0,1,1,1,39.15714
Status,0,30,3,1,11,1176450050,35.60,143.0,72.0,1,1,1,32.001263
Status,0,30,4,1,11,1575420030,39.60,143.0,72.0,1,1,1,35.9971
Status,0,30,5,3,15,1602000000,43.96,327.0,70.0,1,1,1,40.36425
Status,0,30,6,6,36,1176450050,34.13,58.0,66.0,1,1,1,30.534935
Status,0,30,7,6,36,1575420030,39.65,58.0,66.0,1,1,1,36.049847
Status,0,30,8,1,12,1575420030,44.94,323.0,59.0,1,1,1,41.3357
Status,0,30,9,6,34,1575420030,45.32,203.0,54.0,1,1,1,41.71796
Status,0,30,10,6,34,1176450050,36.60,203.0,54.0,1,1,1,33.0024
Status,0,30,11,3,14,1598062460,44.91,148.0,52.0,1,1,1,41.310623
Status,0,30,12,1,6,1575420030,41.94,51.0,49.0,1,1,1,38.337734
Status,0,30,13,1,6,1176450050,38.23,51.0,49.0,1,1,1,34.6277
Status,0,30,14,1,24,1176450050,41.28,223.0,43.0,1,1,1,37.68026
Status,0,30,15,1,24,1575420030,43.08,223.0,43.0,1,1,1,39.47619
Status,0,30,16,6,30,1575420030,43.91,315.0,42.0,1,1,1,40.30797
Status,0,30,17,6,30,1176450050,35.91,315.0,42.0,1,1,1,32.307198
Status,0,30,18,3,24,1603124990,44.95,31.0,36.0,1,1,1,41.350937
Status,0,30,19,3,18,1600312450,42.73,233.0,31.0,1,1,1,39.1348
Status,0,30,20,1,25,1575420030,44.52,311.0,30.0,1,1,1,40.919426
Status,0,30,21,1,25,1176450050,37.93,311.0,30.0,1,1,1,34.334396
Status,0,30,22,1,19,1575420030,41.51,57.0,29.0,1,1,1,37.913506
Status,0,30,23,6,25,1575420030,43.56,123.0,29.0,1,1,1,39.96221
Status,0,30,24,6,25,1176450050,28.30,123.0,29.0,1,1,1,24.703903
Status,0,30,25,1,20,1575420030,43.19,146.0,22.0,1,1,1,39.58603
Status,0,30,26,6,11,1176450050,26.89,40.0,18.0,0,1,1,23.28977
Status,0,30,27,6,11,1575420030,36.55,40.0,18.0,1,1,1,32.94874
Status,0,30,28,3,16,1601437440,46.04,328.0,16.0,1,1,1,42.439434
Status,0,30,29,1,29,1575420030,46.80,260.0,11.0,1,1,1,43.204178
UncalMag,1676593845082,30901904592234,-156.6114,749.5802,394.548,-174.57417,771.0116,430.86337
UncalGyro,1676593845082,30901904652272,0.05589417,-0.8388707,-2.3612995,0.0006537356,-0.0013458843,-0.00032249582
UncalAccel,1676593845086,30901908891226,-1.2717853,-0.8422736,10.187443,0.037048545,-0.031444572,0.0098014325
OrientationDeg,1676593845086,30901908891226,228.0,1.0,-6.0
Fix,GPS,37.4312913893,-122.1550296044,-8.982873395271605,0.2765069,3.240717,3.5187979,1676593844999,0.12084032,180.0,30901817574000,3.0
Raw,1676593844999,601043000000,,,-1360628461956714565,0.0,8.265788015415533,165.0,1.0,56,6,0.0,16431,433862928759753,29,32.64108657836914,441.1730988962797,0.64428171091682,16,248238.7342253759,340282346638528860000000000000000000000,1575420030,,,,1,,1,,29.041088104248047,0.320142130558394,1.0,0.320142130558394,1.0,C,30901817574000
Raw,1676593844999,601043000000,,,-1360628461956714565,0.0,8.265788015415533,165.0,1.0,56,11,0.0,16431,433862931441428,19,37.64780807495117,-105.9098788669865,0.15,16,-84235.9148293251,340282346638528860000000000000000000000,1575420030,,,,0,,1,,34.04780960083008,-0.20372681261465636,1.0,-0.20372681261465636,1.0,C,30901817574000
Raw,1676593844999,601043000000,,,-1360628461956714565,0.0,8.265788015415533,165.0,1.0,56,12,0.0,16431,433862930417713,21,36.41682052612305,-271.35930421876833,0.15,16,-173991.79514272275,340282346638528860000000000000000000000,1575420030,,,,0,,1,,32.81682205200195,-0.6984919076624261,1.0,-0.6984919076624261,1.0,C,30901817574000
Raw,1676593844999,601043000000,,,-1360628461956714565,0.0,8.265788015415533,165.0,1.0,56,19,0.0,16431,433862924558532,25,34.425048828125,543.5855638841074,0.563303391833772,16,323387.2933463565,340282346638528860000000000000000000000,1575420030,,,,0,,1,,30.825048446655273,0.0,1.0,0.0,1.0,C,30901817574000
Raw,1676593844999,601043000000,,,-1360628461956714565,0.0,8.265788015415533,165.0,1.0,56,20,0.0,16431,433862921367965,15,42.91096496582031,-512.9713722195147,0.15,16,-311008.0258543567,340282346638528860000000000000000000000,1575420030,,,,0,,1,,39.31096649169922,0.0,1.0,0.0,1.0,C,30901817574000
Raw,1676593844999,601043000000,,,-1360628461956714565,0.0,8.265788015415533,165.0,1.0,56,24,0.0,16431,433862926288160,14,41.97210693359375,506.41220346169985,0.15,16,289768.46810143645,340282346638528860000000000000000000000,1575420030,,,,0,,1,,38.372108459472656,-0.20372681261465636,1.0,-0.20372681261465636,1.0,C,30901817574000
Raw,1676593844999,601043000000,,,-1360628461956714565,0.0,8.265788015415533,165.0,1.0,56,25,0.0,16431,433862924940423,20,37.2940673828125,-511.4632916832934,0.15,16,-312012.52505693637,340282346638528860000000000000000000000,1575420030,,,,0,,1,,33.694068908691406,-2.0372682255564105,1.0,-2.0372682255564105,1.0,C,30901817574000
Raw,1676593844999,601043000000,,,-1360628461956714565,0.0,8.265788015415533,165.0,1.0,56,29,0.0,16419,433862916974958,14,43.87847900390625,-464.29606886452825,0.15,16,-144993.61774602276,340282346638528860000000000000000000000,1575420030,,,,0,,1,,40.278480529785156,-0.6984919076624261,1.0,-0.6984919076624261,1.0,C,30901817574000
Raw,1676593844999,601043000000,,,-1360628461956714565,0.0,8.265788015415533,165.0,1.0,56,6,0.0,81921,433862928760314,13,33.33976364135742,441.4306259377661,0.6128631445212163,16,249465.105573013,340282346638528860000000000000000000000,1176450050,,,,0,,1,,29.739765167236328,1.9208527336454408,1.404341749083105,1.9208527336454408,1.0,Q,30901817574000
Raw,1676593844999,601043000000,,,-1360628461956714565,0.0,8.265788015415533,165.0,1.0,56,11,0.0,81921,433862931441927,31,30.297964096069336,-105.68429560787615,0.7501318357819846,16,-84806.65250732434,340282346638528860000000000000000000000,1176450050,,,,0,,1,,26.69796371459961,0.0,1.404341749083105,0.0,1.0,Q,30901817574000
Raw,1676593844999,601043000000,,,-1360628461956714565,0.0,8.265788015415533,165.0,1.0,56,24,0.0,81921,433862926288676,10,38.240478515625,506.3139437395446,0.15,16,289731.278434405,340282346638528860000000000000000000000,1176450050,,,,0,,1,,34.640480041503906,3.5215636101095664,1.404341749083105,3.5215636101095664,1.0,Q,30901817574000
Raw,1676593844999,601043000000,,,-1360628461956714565,0.0,8.265788015415533,165.0,1.0,56,25,0.0,81921,433862924940905,10,32.62405014038086,-511.2044013435461,0.6443609925686142,16,-313549.4071544805,340282346638528860000000000000000000000,1176450050,,,,0,,1,,29.024049758911133,1.0186341127782053,1.404341749083105,1.0186341127782053,1.0,Q,30901817574000
Raw,1676593844999,601043000000,,,-1360628461956714565,0.0,8.265788015415533,165.0,1.0,56,14,0.0,32995,12644932490792,33,44.910621643066406,531.0293483239084,0.15,16,297553.6120032383,340282346638528860000000000000000000000,1598062460,,,,0,,3,,41.31062316894531,52.1540641784668,2.0000000474974513,52.1540641784668,2.0000000474974513,C,30901817574000
Raw,1676593844999,601043000000,,,-1360628461956714565,0.0,8.265788015415533,165.0,1.0,56,18,0.0,32995,12644927686684,41,36.98689651489258,-513.8289549905417,0.15,16,-322083.02040078933,340282346638528860000000000000000000000,1600312450,,,,0,,3,,33.386898040771484,52.1540641784668,2.0000000474974513,52.1540641784668,2.0000000474974513,C,30901817574000
Raw,1676593844999,601043000000,,,-1360628461956714565,0.0,8.265788015415533,165.0,1.0,56,16,0.0,32867,12644922824991,50,34.663108825683594,-712.3767826185649,0.5522861046281777,16,-430157.72147377004,340282346638528860000000000000000000000,1601437440,,,,0,,3,,31.0631103515625,52.1540641784668,2.0000000474974513,52.1540641784668,2.0000000474974513,C,30901817574000
Raw,1676593844999,601043000000,,,-1360628461956714565,0.0,8.265788015415533,165.0,1.0,56,15,0.0,32995,12644934918932,45,35.94998550415039,-226.07454067989931,0.49659224200690444,16,-158431.92027816043,340282346638528860000000000000000000000,1602000000,,,,1,,3,,32.3499870300293,52.1540641784668,2.0000000474974513,52.1540641784668,2.0000000474974513,C,30901817574000
Raw,1676593844999,601043000000,,,-1360628461956714565,0.0,8.265788015415533,165.0,1.0,56,24,0.0,32995,12644928973620,52,34.26711654663086,661.1289695276932,0.571199604710209,16,389885.41330619354,340282346638528860000000000000000000000,1603124990,,,,0,,3,,30.667118072509766,52.1540641784668,2.0000000474974513,52.1540641784668,2.0000000474974513,C,30901817574000
Raw,1676593844999,601043000000,,,-1360628461956714565,0.0,8.265788015415533,165.0,1.0,56,17,0.0,32995,12644935819857,44,36.26559829711914,54.46382516774992,0.15,16,11131.440866397435,340282346638528860000000000000000000000,1604249980,,,,0,,3,,32.66559982299805,52.1540641784668,2.0000000474974513,52.1540641784668,2.0000000474974513,C,30901817574000
Raw,1676593844999,601043000000,,,-1360628461956714565,0.0,8.265788015415533,165.0,1.0,56,2,0.0,85026,433862921902466,19,37.735294342041016,94.75347239924997,0.15,16,47373.12562524026,340282346638528860000000000000000000000,1575420030,,,,0,,6,,34.13529586791992,-5.878973752260207,1.5000000237487257,-5.878973752260207,1.5000000237487257,C,30901817574000
Raw,1676593844999,601043000000,,,-1360628461956714565,0.0,8.265788015415533,165.0,1.0,56,11,0.0,85026,433862910466074,40,28.956552505493164,565.974363656398,0.8095585262000804,16,337421.6902438118,340282346638528860000000000000000000000,1575420030,,,,1,,6,,25.356552124023438,-5.878973752260207,1.5000000237487257,-5.878973752260207,1.5000000237487257,C,30901817574000
Raw,1676593844999,601043000000,,,-1360628461956714565,0.0,8.265788015415533,165.0,1.0,56,25,0.0,85026,433862912474439,12,43.56221008300781,460.2291797399439,0.15,16,270391.1018871866,340282346638528860000000000000000000000,1575420030,,,,0,,6,,39.96221160888672,-5.878973752260207,1.5000000237487257,-5.878973752260207,1.5000000237487257,C,30901817574000
Raw,1676593844999,601043000000,,,-1360628461956714565,0.0,8.265788015415533,165.0,1.0,56,30,0.0,85026,433862915145372,25,34.74807357788086,-335.89627609736203,0.5492425146337716,16,-205417.52579789617,340282346638528860000000000000000000000,1575420030,,,,0,,6,,31.148075103759766,-5.878973752260207,1.5000000237487257,-5.878973752260207,1.5000000237487257,C,30901817574000
Raw,1676593844999,601043000000,,,-1360628461956714565,0.0,8.265788015415533,165.0,1.0,56,34,0.0,85026,433862918960079,10,45.305721282958984,-312.38220994051426,0.15,16,-199066.52670985347,340282346638528860000000000000000000000,1575420030,,,,0,,6,,41.70572280883789,-5.878973752260207,1.5000000237487257,-5.878973752260207,1.5000000237487257,C,30901817574000
Raw,1676593844999,601043000000,,,-1360628461956714565,0.0,8.265788015415533,165.0,1.0,56,36,0.0,85026,433862920795716,26,34.09796142578125,217.32131378342854,0.5780547716148488,16,117475.05907389597,340282346638528860000000000000000000000,1575420030,,,,0,,6,,30.497961044311523,-5.878973752260207,1.5000000237487257,-5.878973752260207,1.5000000237487257,C,30901817574000
Raw,1676593844999,601043000000,,,-1360628461956714565,0.0,8.265788015415533,165.0,1.0,56,2,0.0,84003,433862921903011,8,34.568626403808594,94.5881043202013,0.5599666394594314,16,47364.077627926934,340282346638528860000000000000000000000,1176450050,,,,0,,6,,30.968626022338867,-4.216632805764675,1.9043417728318306,-4.216632805764675,1.5000000237487257,Q,30901817574000
Raw,1676593844999,601043000000,,,-1360628461956714565,0.0,8.265788015415533,165.0,1.0,56,11,0.0,16384,433862910466593,1000000000,20.31618309020996,566.6746899730288,299792458,16,340259.43984098115,340282346638528860000000000000000000000,1176450050,,,,0,,6,,16.716182708740234,4.279776476323602,1.9043417728318306,4.279776476323602,1.5000000237487257,Q,30901817574000
Raw,1676593844999,601043000000,,,-1360628461956714565,0.0,8.265788015415533,165.0,1.0,56,25,0.0,84003,433862912474938,27,28.303903579711914,460.4023186190798,0.8399883019527352,16,270916.96929255826,340282346638528860000000000000000000000,1176450050,,,,0,,6,,24.703903198242188,-8.649541996419428,1.9043417728318306,-8.649541996419428,1.5000000237487257,Q,30901817574000
Raw,1676593844999,601043000000,,,-1360628461956714565,0.0,8.265788015415533,165.0,1.0,56,30,0.0,84003,433862915145882,16,31.74822998046875,-336.11907311565164,0.6855813273102291,16,-205891.7466893728,340282346638528860000000000000000000000,1176450050,,,,0,,6,,28.148229598999023,-8.2801328971982,1.9043417728318306,-8.2801328971982,1.5000000237487257,Q,30901817574000
Raw,1676593844999,601043000000,,,-1360628461956714565,0.0,8.265788015415533,165.0,1.0,56,34,0.0,84003,433862918960599,18,31.701993942260742,-312.57003835841147,0.6883466659994295,16,-199821.8036676061,340282346638528860000000000000000000000,1176450050,,,,0,,6,,28.101993560791016,-9.942473843693731,1.9043417728318306,-9.942473843693731,1.5000000237487257,Q,30901817574000
Raw,1676593844999,601043000000,,,-1360628461956714565,0.0,8.265788015415533,165.0,1.0,56,36,0.0,84003,433862920796248,10,32.40724182128906,217.24333312290435,0.656962581464136,16,117696.08407145247,340282346638528860000000000000000000000,1176450050,,,,0,,6,,28.807241439819336,-10.865996591746804,1.9043417728318306,-10.865996591746804,1.5000000237487257,Q,30901817574000
UncalGyro,1676593845091,30901913136994,-0.043218717,-0.9246973,-2.7206411,0.0006537356,-0.0013458843,-0.00032249582
UncalMag,1676593845092,30901914592235,-155.95259,750.117,394.7798,-174.57417,771.0116,430.86337
UncalAccel,1676593845095,30901917374065,-1.2993027,-1.0438689,10.168898,0.037048545,-0.031444572,0.0098014325
OrientationDeg,1676593845095,30901917374065,230.0,1.0,-5.0
Fix,FLP,37.4313015000,-122.1550391000,-16.5,0.3067105,4.836,335.37183,1676593844995,0.12084032,180.0,30901817574000,1.890018
UncalGyro,1676593845099,30901921612132,-0.13698652,-1.0340421,-3.0740266,0.0006537356,-0.0013458843,-0.00032249582
UncalMag,1676593845102,30901924594920,-156.0624,750.0926,393.92578,-174.57417,771.0116,430.86337
UncalAccel,1676593845103,30901925852204,-1.1359925,-1.3208381,10.247861,0.037048545,-0.031444572,0.0098014325
OrientationDeg,1676593845103,30901925852204,231.0,0.0,-5.0
UncalGyro,1676593845108,30901930092418,-0.22510384,-1.1563679,-3.404352,0.0006537356,-0.0013458843,-0.00032249582
UncalAccel,1676593845112,30901934335338,-0.8488538,-1.5104693,10.369895,0.037048545,-0.031444572,0.0098014325
OrientationDeg,1676593845112,30901934335338,233.0,0.0,-5.0
UncalMag,1676593845112,30901934592601,-156.16,751.7518,393.9624,-174.57417,771.0116,430.86337
UncalGyro,1676593845116,30901938576234,-0.30176744,-1.2942708,-3.7013853,0.0006537356,-0.0013458843,-0.00032249582
UncalAccel,1676593845120,30901942813406,-0.58624154,-1.5906289,10.424332,0.037048545,-0.031444572,0.0098014325
OrientationDeg,1676593845120,30901942813406,235.0,0.0,-5.0
UncalMag,1676593845122,30901944592927,-155.733,751.9836,393.0474,-174.57417,771.0116,430.86337
UncalGyro,1676593845125,30901947056773,-0.3576616,-1.4407257,-3.9551997,0.0006537356,-0.0013458843,-0.00032249582
UncalAccel,1676593845129,30901951294974,-0.35114673,-1.7042879,10.43151,0.037048545,-0.031444572,0.0098014325
OrientationDeg,1676593845129,30901951294974,237.0,0.0,-5.0
UncalMag,1676593845132,30901954592113,-156.4772,753.3622,392.901,-174.57417,771.0116,430.86337
UncalGyro,1676593845133,30901955537721,-0.399964,-1.5703819,-4.1573963,0.0006537356,-0.0013458843,-0.00032249582
UncalAccel,1676593845137,30901959774131,-0.03888337,-1.797608,10.31486,0.037048545,-0.031444572,0.0098014325
OrientationDeg,1676593845137,30901959774131,239.0,-1.0,-5.0
UncalGyro,1676593845142,30901964016379,-0.42760566,-1.6707164,-4.314083,0.0006537356,-0.0013458843,-0.00032249582
UncalMag,1676593845142,30901964592236,-156.5016,754.6554,392.2422,-174.57417,771.0116,430.86337
UncalAccel,1676593845146,30901968257855,0.24885355,-1.7670995,10.173085,0.037048545,-0.031444572,0.0098014325
OrientationDeg,1676593845146,30901968257855,241.0,-1.0,-4.0
UncalGyro,1676593845150,30901972500804,-0.43493605,-1.7276796,-4.4440446,0.0006537356,-0.0013458843,-0.00032249582
UncalMag,1676593845152,30901974593091,-156.13559,755.6192,392.22998,-174.57417,771.0116,430.86337
UncalAccel,1676593845154,30901976738008,0.5694918,-1.6594225,10.079167,0.037048545,-0.031444572,0.0098014325
OrientationDeg,1676593845154,30901976738008,244.0,-2.0,-4.0
UncalGyro,1676593845158,30901980981162,-0.40958515,-1.7330247,-4.554917,0.0006537356,-0.0013458843,-0.00032249582
UncalMag,1676593845162,30901984598625,-156.3796,756.7294,391.64438,-174.57417,771.0116,430.86337
UncalAccel,1676593845163,30901985220481,0.8811569,-1.5038891,9.91825,0.037048545,-0.031444572,0.0098014325
OrientationDeg,1676593845163,30901985220481,246.0,-3.0,-4.0
UncalGyro,1676593845167,30901989459923,-0.34590244,-1.6811012,-4.636467,0.0006537356,-0.0013458843,-0.00032249582
UncalAccel,1676593845171,30901993701988,1.2011969,-1.3244274,9.818948,0.037048545,-0.031444572,0.0098014325
UncalMag,1676593845172,30901994603182,-156.3552,757.1564,391.2662,-174.57417,771.0116,430.86337
OrientationDeg,1676593845171,30901993701988,248.0,-3.0,-4.0
UncalGyro,1676593845175,30901997940005,-0.25427267,-1.5647314,-4.675257,0.0006537356,-0.0013458843,-0.00032249582
UncalAccel,1676593845180,30902002183219,1.3710874,-1.0839486,9.933205,0.037048545,-0.031444572,0.0098014325
OrientationDeg,1676593845180,30902002183219,250.0,-4.0,-4.0
UncalMag,1676593845182,30902004592115,-156.6724,758.8034,391.3028,-174.57417,771.0116,430.86337
UncalGyro,1676593845184,30902006423525,-0.14385876,-1.3741413,-4.6631927,0.0006537356,-0.0013458843,-0.00032249582
UncalAccel,1676593845188,30902010661868,1.4069797,-0.8063812,10.0372925,0.037048545,-0.031444572,0.0098014325
OrientationDeg,1676593845188,30902010661868,253.0,-4.0,-4.0
UncalMag,1676593845192,30902014594394,-156.1234,759.2426,391.0344,-174.57417,771.0116,430.86337
UncalGyro,1676593845192,30902014902743,-0.022602014,-1.1258247,-4.5857654,0.0006537356,-0.0013458843,-0.00032249582
UncalAccel,1676593845197,30902019140811,1.3770695,-0.4953143,10.040284,0.037048545,-0.031444572,0.0098014325
OrientationDeg,1676593845197,30902019140811,255.0,-5.0,-4.0
UncalGyro,1676593845201,30902023385572,0.090713486,-0.85918194,-4.4393106,0.0006537356,-0.0013458843,-0.00032249582
UncalMag,1676593845202,30902024592278,-156.709,759.9136,390.48538,-174.57417,771.0116,430.86337
UncalAccel,1676593845205,30902027629876,1.2604194,-0.15074782,10.013963,0.037048545,-0.031444572,0.0098014325
OrientationDeg,1676593845205,30902027629876,257.0,-5.0,-5.0
UncalGyro,1676593845209,30902031864342,0.17577648,-0.5882632,-4.215734,0.0006537356,-0.0013458843,-0.00032249582
UncalMag,1676593845212,30902034600864,-155.6232,760.52356,389.9974,-174.57417,771.0116,430.86337
UncalAccel,1676593845214,30902036105615,1.1150553,0.26021945,9.996614,0.037048545,-0.031444572,0.0098014325
OrientationDeg,1676593845214,30902036105615,259.0,-5.0,-5.0
UncalGyro,1676593845218,30902040344151,0.22128594,-0.3370449,-3.911981,0.0006537356,-0.0013458843,-0.00032249582
UncalAccel,1676593845222,30902044588789,0.7507481,0.6364908,9.787243,0.037048545,-0.031444572,0.0098014325
UncalMag,1676593845222,30902044609531,-155.6842,761.3288,390.80258,-174.57417,771.0116,430.86337
OrientationDeg,1676593845222,30902044588789,261.0,-5.0,-5.0
UncalGyro,1676593845226,30902048842187,0.21853705,-0.14859296,-3.5445457,0.0006537356,-0.0013458843,-0.00032249582
UncalAccel,1676593845231,30902053088941,0.23389842,0.9738788,9.586246,0.037048545,-0.031444572,0.0098014325
UncalMag,1676593845232,30902054592035,-155.123,761.9266,389.9608,-174.57417,771.0116,430.86337
OrientationDeg,1676593845231,30902053088941,262.0,-5.0,-6.0
UncalGyro,1676593845235,30902057319422,0.14920384,-0.043829583,-3.142749,0.0006537356,-0.0013458843,-0.00032249582
UncalAccel,1676593845239,30902061556125,-0.2973082,1.2921243,9.41456,0.037048545,-0.031444572,0.0098014325
OrientationDeg,1676593845239,30902061556125,264.0,-4.0,-6.0
UncalMag,1676593845242,30902064602614,-155.123,761.8534,390.1804,-174.57417,771.0116,430.86337
UncalGyro,1676593845243,30902065795414,0.015118915,-0.017256944,-2.7360654,0.0006537356,-0.0013458843,-0.00032249582
UncalAccel,1676593845248,30902070037012,-0.80877405,1.5810575,9.16152,0.037048545,-0.031444572,0.0098014325
OrientationDeg,1676593845248,30902070037012,265.0,-4.0,-6.0
UncalGyro,1676593845252,30902074276950,-0.16371189,-0.043982297,-2.3553436,0.0006537356,-0.0013458843,-0.00032249582
UncalMag,1676593845252,30902074593581,-154.6472,762.9148,390.5464,-174.57417,771.0116,430.86337
UncalAccel,1676593845256,30902078518682,-1.2005987,1.8233309,8.985647,0.037048545,-0.031444572,0.0098014325
OrientationDeg,1676593845256,30902078518682,266.0,-4.0,-6.0
UncalGyro,1676593845260,30902082757471,-0.37568212,-0.086437434,-2.0247128,0.0006537356,-0.0013458843,-0.00032249582
UncalMag,1676593845262,30902084603103,-154.68379,763.842,389.6802,-174.57417,771.0116,430.86337
UncalAccel,1676593845264,30902086990890,-1.4650056,2.0135603,9.016754,0.037048545,-0.031444572,0.0098014325
OrientationDeg,1676593845264,30902086990890,267.0,-4.0,-6.0
UncalGyro,1676593845269,30902091240849,-0.6169739,-0.11652254,-1.7527251,0.0006537356,-0.0013458843,-0.00032249582
UncalMag,1676593845272,30902094602900,-154.7814,764.02496,389.973,-174.57417,771.0116,430.86337
UncalAccel,1676593845273,30902095480443,-1.6390835,2.2229323,9.129216,0.037048545,-0.031444572,0.0098014325
OrientationDeg,1676593845273,30902095480443,268.0,-4.0,-5.0
UncalGyro,1676593845277,30902099724228,-0.8686504,-0.1255328,-1.541213,0.0006537356,-0.0013458843,-0.00032249582
UncalAccel,1676593845281,30902103959783,-1.7934206,2.4472594,9.136395,0.037048545,-0.031444572,0.0098014325
OrientationDeg,1676593845281,30902103959783,268.0,-4.0,-5.0
UncalMag,1676593845282,30902104596186,-154.5008,765.28156,390.7416,-174.57417,771.0116,430.86337
UncalGyro,1676593845286,30902108193293,-1.1023064,-0.10186178,-1.387275,0.0006537356,-0.0013458843,-0.00032249582
UncalAccel,1676593845290,30902112431828,-1.9998015,2.6135604,9.162716,0.037048545,-0.031444572,0.0098014325
UncalMag,1676593845292,30902114602982,-155.0132,765.29376,388.94818,-174.57417,771.0116,430.86337
OrientationDeg,1676593845290,30902112431828,269.0,-4.0,-4.0
UncalGyro,1676593845294,30902116681890,-1.2932017,-0.025198191,-1.272585,0.0006537356,-0.0013458843,-0.00032249582
UncalAccel,1676593845298,30902120914211,-2.2025933,2.7511477,9.266206,0.037048545,-0.031444572,0.0098014325
OrientationDeg,1676593845298,30902120914211,270.0,-4.0,-4.0
UncalMag,1676593845302,30902124602697,-154.818,766.7944,389.05798,-174.57417,771.0116,430.86337
UncalGyro,1676593845303,30902125167160,-1.4234687,0.11789699,-1.1791227,0.0006537356,-0.0013458843,-0.00032249582
UncalAccel,1676593845307,30902129403906,-2.4089742,2.917449,9.297313,0.037048545,-0.031444572,0.0098014325
OrientationDeg,1676593845307,30902129403906,270.0,-4.0,-3.0
UncalGyro,1676593845311,30902133648138,-1.490053,0.3135266,-1.0946705,0.0006537356,-0.0013458843,-0.00032249582
UncalMag,1676593845312,30902134592077,-155.1108,767.20917,388.8018,-174.57417,771.0116,430.86337
UncalAccel,1676593845315,30902137882116,-2.6350958,3.0735807,9.347562,0.037048545,-0.031444572,0.0098014325
UncalGyro,1676593845320,30902142113409,-1.50731,0.5554292,-0.99128157,0.0006537356,-0.0013458843,-0.00032249582
UncalMag,1676593845322,30902144602779,-154.94,768.36816,389.4362,-174.57417,771.0116,430.86337
UncalAccel,1676593845325,30902146362931,-2.9078777,3.1776686,9.27817,0.037048545,-0.031444572,0.0098014325
UncalGyro,1676593845329,30902150607601,-1.4885259,0.81321436,-0.8538369,0.0006537356,-0.0013458843,-0.00032249582
OrientationDeg,1676593845315,30902137882116,271.0,-3.0,-2.0
OrientationDeg,1676593845324,30902146362931,271.0,-3.0,-2.0
UncalMag,1676593845332,30902154602820,-152.9758,767.8802,389.5094,-174.57417,771.0116,430.86337
UncalAccel,1676593845332,30902154850510,-3.1890345,3.31047,9.056235,0.037048545,-0.031444572,0.0098014325
OrientationDeg,1676593845332,30902154850510,272.0,-3.0,-1.0
UncalGyro,1676593845337,30902159090929,-1.4715744,1.0488557,-0.66721755,0.0006537356,-0.0013458843,-0.00032249582
UncalAccel,1676593845341,30902163327805,-3.4480574,3.2799616,9.202796,0.037048545,-0.031444572,0.0098014325
OrientationDeg,1676593845341,30902163327805,272.0,-2.0,0.0
UncalMag,1676593845342,30902164592159,-152.8904,769.2832,389.729,-174.57417,771.0116,430.86337
UncalGyro,1676593845345,30902167569383,-1.5115861,1.2434162,-0.41034874,0.0006537356,-0.0013458843,-0.00032249582
UncalAccel,1676593845349,30902171810878,-3.7160535,3.1579278,9.297313,0.037048545,-0.031444572,0.0098014325
OrientationDeg,1676593845349,30902171810878,272.0,-1.0,0.0
UncalMag,1676593845352,30902174602861,-152.6464,769.9908,389.6436,-174.57417,771.0116,430.86337
UncalGyro,1676593845354,30902176060432,-1.6268868,1.3658947,-0.09666943,0.0006537356,-0.0013458843,-0.00032249582
UncalAccel,1676593845358,30902180290005,-4.02054,3.1375887,9.037691,0.037048545,-0.031444572,0.0098014325
OrientationDeg,1676593845358,30902180290005,272.0,-1.0,0.0
UncalGyro,1676593845362,30902184532152,-1.8132007,1.3978124,0.2519819,0.0006537356,-0.0013458843,-0.00032249582
UncalMag,1676593845362,30902184613075,-152.6098,770.6374,391.00998,-174.57417,771.0116,430.86337
UncalAccel,1676593845366,30902188768074,-6.558129,1.1288141,6.411568,0.037048545,-0.031444572,0.0098014325
OrientationDeg,1676593845366,30902188768074,272.0,0.0,1.0
UncalGyro,1676593845371,30902193009691,-1.0514518,-0.30283645,1.7466165,0.0006537356,-0.0013458843,-0.00032249582
UncalMag,1676593845372,30902194602780,-151.9876,772.1014,390.00958,-174.57417,771.0116,430.86337
UncalAccel,1676593845375,30902197241146,-13.73899,-5.305486,11.777473,0.037048545,-0.031444572,0.0098014325
OrientationDeg,1676593845375,30902197241146,270.0,0.0,1.0
UncalGyro,1676593845379,30902201492561,0.9682214,-0.25121832,4.141208,0.0006537356,-0.0013458843,-0.00032249582
UncalMag,1676593845382,30902204604286,-152.1584,771.0522,390.1316,-174.57417,771.0116,430.86337
UncalAccel,1676593845383,30902205729520,-3.3379877,-0.111864455,26.861229,0.037048545,-0.031444572,0.0098014325
OrientationDeg,1676593845383,30902205729520,268.0,0.0,0.0
UncalGyro,1676593845387,30902209977679,1.707063,1.0768027,4.494441,0.0006537356,-0.0013458843,-0.00032249582
UncalAccel,1676593845392,30902214213325,-7.3363943,4.128217,8.562716,0.037048545,-0.031444572,0.0098014325
UncalMag,1676593845392,30902214599281,-152.8904,769.4052,390.8392,-174.57417,771.0116,430.86337
OrientationDeg,1676593845392,30902214213325,266.0,0.0,0.0
UncalGyro,1676593845396,30902218455747,1.1992812,0.48059824,3.8192823,0.0006537356,-0.0013458843,-0.00032249582
UncalAccel,1676593845400,30902222694272,-6.1974106,6.1603217,15.361323,0.037048545,-0.031444572,0.0098014325
OrientationDeg,1676593845400,30902222694272,264.0,0.0,0.0
UncalMag,1676593845402,30902224602944,-152.35359,767.84357,390.69278,-174.57417,771.0116,430.86337
UncalGyro,1676593845404,30902226939492,0.48502702,0.5493206,2.4090998,0.0006537356,-0.0013458843,-0.00032249582
UncalAccel,1676593845409,30902231187112,-2.9162526,5.267799,8.318049,0.037048545,-0.031444572,0.0098014325
OrientationDeg,1676593845409,30902231187112,264.0,0.0,0.0
UncalMag,1676593845412,30902234602741,-152.0974,766.98956,391.2174,-174.57417,771.0116,430.86337
UncalGyro,1676593845413,30902235405291,-0.2866485,0.0804815,1.0742066,0.0006537356,-0.0013458843,-0.00032249582
UncalAccel,1676593845417,30902239646045,-0.6029913,3.37388,6.652645,0.037048545,-0.031444572,0.0098014325
OrientationDeg,1676593845417,30902239646045,263.0,0.0,0.0
UncalGyro,1676593845421,30902243895445,-0.8677341,-0.19807306,0.1518,0.0006537356,-0.0013458843,-0.00032249582
UncalMag,1676593845422,30902244591999,-151.7558,767.3434,391.0466,-174.57417,771.0116,430.86337
UncalAccel,1676593845426,30902248138131,1.4362918,0.71365935,6.3403816,0.037048545,-0.031444572,0.0098014325
OrientationDeg,1676593845426,30902248138131,263.0,0.0,0.0
UncalGyro,1676593845430,30902252375741,-1.2308935,-0.039858956,-0.2846632,0.0006537356,-0.0013458843,-0.00032249582
UncalMag,1676593845432,30902254602660,-152.0242,768.1242,391.2418,-174.57417,771.0116,430.86337
UncalAccel,1676593845434,30902256618010,0.76271224,-1.6283158,6.591628,0.037048545,-0.031444572,0.0098014325
OrientationDeg,1676593845434,30902256618010,264.0,0.0,0.0
UncalGyro,1676593845438,30902260859547,-1.3564262,0.30558532,-0.39293906,0.0006537356,-0.0013458843,-0.00032249582
UncalMag,1676593845442,30902264602579,-151.707,768.112,390.5098,-174.57417,771.0116,430.86337
OrientationDeg,1676593845443,30902265098052,264.0,0.0,1.0
UncalAccel,1676593845443,30902265098052,1.6773686,-0.11425728,6.6514487,0.037048545,-0.031444572,0.0098014325
UncalGyro,1676593845447,30902269329935,-1.1438452,0.48075095,-0.6021604,0.0006537356,-0.0013458843,-0.00032249582
UncalAccel,1676593845451,30902273576516,1.4458631,0.27756742,6.643074,0.037048545,-0.031444572,0.0098014325
OrientationDeg,1676593845451,30902273576516,264.0,0.0,1.0
UncalMag,1676593845452,30902274592691,-151.8534,769.149,390.156,-174.57417,771.0116,430.86337
UncalGyro,1676593845455,30902277819244,-0.8396343,0.473726,-0.72784597,0.0006537356,-0.0013458843,-0.00032249582
UncalAccel,1676593845460,30902282060658,1.1389836,0.23330021,6.150152,0.037048545,-0.031444572,0.0098014325
OrientationDeg,1676593845460,30902282060658,265.0,1.0,2.0
UncalMag,1676593845462,30902284602823,-151.524,769.42957,390.5708,-174.57417,771.0116,430.86337
UncalGyro,1676593845464,30902286292693,-0.4831944,0.3857614,-0.8174904,0.0006537356,-0.0013458843,-0.00032249582
UncalAccel,1676593845468,30902290542521,1.8693926,-0.1058824,5.297111,0.037048545,-0.031444572,0.0098014325
OrientationDeg,1676593845468,30902290542521,265.0,1.0,2.0
UncalMag,1676593845472,30902294602823,-151.6338,769.454,391.4248,-174.57417,771.0116,430.86337
UncalGyro,1676593845472,30902294779775,0.0056505036,0.38683042,-0.8414669,0.0006537356,-0.0013458843,-0.00032249582
UncalAccel,1676593845477,30902299010518,4.2508492,-1.5529419,5.7206407,0.037048545,-0.031444572,0.0098014325
OrientationDeg,1676593845477,30902299010518,265.0,1.0,2.0
UncalGyro,1676593845481,30902303264352,0.47067168,0.54260105,-0.5190827,0.0006537356,-0.0013458843,-0.00032249582
UncalMag,1676593845482,30902304605631,-151.1458,770.674,391.1076,-174.57417,771.0116,430.86337
UncalAccel,1676593845486,30902307504089,6.766304,-2.9126635,6.1393847,0.037048545,-0.031444572,0.0098014325
OrientationDeg,1676593845485,30902307504089,265.0,1.0,1.0
UncalGyro,1676593845489,30902311750152,0.8750645,0.8026769,0.15515977,0.0006537356,-0.0013458843,-0.00032249582
UncalMag,1676593845492,30902314609172,-151.3288,769.332,390.05838,-174.57417,771.0116,430.86337
UncalAccel,1676593845493,30902315985555,7.5924263,-2.2612174,6.494719,0.037048545,-0.031444572,0.0098014325
UncalGyro,1676593845498,30902320230215,1.2742649,1.0865766,0.8932377,0.0006537356,-0.0013458843,-0.00032249582
OrientationDeg,1676593845493,30902315985555,265.0,1.0,1.0
UncalAccel,1676593845502,30902324465545,6.3068824,-0.95712906,6.6945195,0.037048545,-0.031444572,0.0098014325
UncalMag,1676593845503,30902324600708,-149.9136,768.6,390.8148,-174.57417,771.0116,430.86337
OrientationDeg,1676593845502,30902324465545,265.0,2.0,0.0
UncalGyro,1676593845506,30902328706329,1.6707164,1.1556044,1.3147347,0.0006537356,-0.0013458843,-0.00032249582
UncalAccel,1676593845510,30902332941539,3.173481,0.80877405,7.448259,0.037048545,-0.031444572,0.0098014325
OrientationDeg,1676593845510,30902332941539,264.0,2.0,0.0
UncalMag,1676593845512,30902334602743,-149.9136,768.6,390.8148,-174.57417,771.0116,430.86337
UncalGyro,1676593845515,30902337184428,1.939039,0.8907942,1.3634512,0.0006537356,-0.0013458843,-0.00032249582
UncalAccel,1676593845519,30902341426504,-0.19680966,3.4486556,9.165109,0.037048545,-0.031444572,0.0098014325
OrientationDeg,1676593845519,30902341426504,263.0,3.0,-1.0
UncalMag,1676593845522,30902344602743,-149.6696,767.40436,391.498,-174.57417,771.0116,430.86337
UncalGyro,1676593845523,30902345670939,1.936901,0.46609017,0.9859365,0.0006537356,-0.0013458843,-0.00032249582
UncalAccel,1676593845527,30902349909374,-4.104887,6.1190457,10.606785,0.037048545,-0.031444572,0.0098014325
OrientationDeg,1676593845527,30902349909374,263.0,3.0,-2.0
UncalGyro,1676593845532,30902354150453,1.5212072,-0.16355917,0.14996742,0.0006537356,-0.0013458843,-0.00032249582
UncalMag,1676593845532,30902354600831,-149.9746,765.8428,391.9738,-174.57417,771.0116,430.86337
UncalAccel,1676593845536,30902358387219,-4.983651,7.0408807,11.641681,0.037048545,-0.031444572,0.0098014325
OrientationDeg,1676593845536,30902358387219,263.0,3.0,-2.0
UncalGyro,1676593845540,30902362622783,0.7502952,-0.5309946,-0.763887,0.0006537356,-0.0013458843,-0.00032249582
UncalMag,1676593845542,30902364602703,-150.1942,765.5622,391.6688,-174.57417,771.0116,430.86337
UncalAccel,1676593845544,30902366870342,-1.2963116,5.1786666,10.43809,0.037048545,-0.031444572,0.0098014325
OrientationDeg,1676593845544,30902366870342,264.0,2.0,-2.0
UncalGyro,1676593845549,30902371109357,-0.01160644,-0.58352906,-1.273654,0.0006537356,-0.0013458843,-0.00032249582
UncalMag,1676593845552,30902374602663,-150.1698,766.0868,391.43698,-174.57417,771.0116,430.86337
UncalAccel,1676593845553,30902375343416,2.3341985,3.3720853,9.7399845,0.037048545,-0.031444572,0.0098014325
OrientationDeg,1676593845553,30902375343416,265.0,2.0,-2.0
UncalGyro,1676593845557,30902379594007,-0.5141958,-0.5511532,-1.4515685,0.0006537356,-0.0013458843,-0.00032249582
UncalAccel,1676593845561,30902383832704,3.8195431,1.7001005,9.920643,0.037048545,-0.031444572,0.0098014325
OrientationDeg,1676593845561,30902383832704,265.0,2.0,-2.0
UncalMag,1676593845562,30902384590171,-149.9136,766.87976,391.62,-174.57417,771.0116,430.86337
UncalGyro,1676593845566,30902388077333,-0.7881689,-0.4908302,-1.4598153,0.0006537356,-0.0013458843,-0.00032249582
UncalAccel,1676593845570,30902392309866,3.78724,0.4444668,10.036695,0.037048545,-0.031444572,0.0098014325
OrientationDeg,1676593845570,30902392309866,266.0,2.0,-1.0
UncalMag,1676593845572,30902394602704,-149.877,767.502,392.0104,-174.57417,771.0116,430.86337
UncalGyro,1676593845574,30902396541790,-0.91981035,-0.41309762,-1.3805555,0.0006537356,-0.0013458843,-0.00032249582
UncalAccel,1676593845578,30902400793622,3.2536407,-0.18664017,10.198809,0.037048545,-0.031444572,0.0098014325
OrientationDeg,1676593845578,30902400793622,267.0,1.0,-1.0
UncalMag,1676593845582,30902404592206,-150.68219,768.0022,391.9006,-174.57417,771.0116,430.86337
UncalGyro,1676593845583,30902405032890,-0.93645644,-0.3266602,-1.2730432,0.0006537356,-0.0013458843,-0.00032249582
UncalAccel,1676593845587,30902409268161,2.7355945,-0.62093747,10.063614,0.037048545,-0.031444572,0.0098014325
OrientationDeg,1676593845587,30902409268161,267.0,1.0,0.0
UncalGyro,1676593845591,30902413517621,-0.85811293,-0.2770274,-1.1820242,0.0006537356,-0.0013458843,-0.00032249582
UncalMag,1676593845592,30902414591677,-150.7188,768.9538,391.64438,-174.57417,771.0116,430.86337
UncalAccel,1676593845595,30902417756197,2.4125633,-0.9726824,9.991829,0.037048545,-0.031444572,0.0098014325
OrientationDeg,1676593845595,30902417756197,268.0,1.0,0.0
UncalGyro,1676593845600,30902422000246,-0.7075347,-0.23533584,-1.0968086,0.0006537356,-0.0013458843,-0.00032249582
UncalMag,1676593845602,30902424602827,-150.9018,769.393,391.9982,-174.57417,771.0116,430.86337
UncalAccel,1676593845604,30902426233412,2.251646,-1.3998013,10.074382,0.037048545,-0.031444572,0.0098014325
OrientationDeg,1676593845604,30902426233412,268.0,1.0,0.0
UncalGyro,1676593845608,30902430464786,-0.4925101,-0.17592919,-0.98471475,0.0006537356,-0.0013458843,-0.00032249582
UncalMag,1676593845612,30902434602746,-150.8774,769.7956,391.00998,-174.57417,771.0116,430.86337
UncalAccel,1676593845612,30902434717746,2.2725832,-1.7497516,10.1288185,0.037048545,-0.031444572,0.0098014325
OrientationDeg,1676593845612,30902434717746,269.0,1.0,0.0
UncalGyro,1676593845616,30902438959222,-0.24510968,-0.10216721,-0.8491027,0.0006537356,-0.0013458843,-0.00032249582
UncalAccel,1676593845621,30902443202405,2.373082,-1.9166509,10.249656,0.037048545,-0.031444572,0.0098014325
UncalMag,1676593845622,30902444592004,-151.0726,770.06396,391.193,-174.57417,771.0116,430.86337
OrientationDeg,1676593845622,30902443202405,269.0,1.0,0.0
UncalGyro,1676593845625,30902447441267,-0.0012217305,-0.02687807,-0.7122689,0.0006537356,-0.0013458843,-0.00032249582
UncalAccel,1676593845629,30902451679965,2.3048863,-1.9172492,10.348958,0.037048545,-0.031444572,0.0098014325
OrientationDeg,1676593845629,30902451679965,269.0,1.0,0.0
UncalMag,1676593845632,30902454602868,-150.7554,770.1494,390.9734,-174.57417,771.0116,430.86337
UncalGyro,1676593845633,30902455922427,0.21135938,0.025809057,-0.5936083,0.0006537356,-0.0013458843,-0.00032249582
UncalAccel,1676593845638,30902460159580,1.9447666,-1.7665013,10.432109,0.037048545,-0.031444572,0.0098014325
OrientationDeg,1676593845638,30902460159580,270.0,1.0,0.0
UncalGyro,1676593845642,30902464399071,0.36911532,0.04932737,-0.51068336,0.0006537356,-0.0013458843,-0.00032249582
UncalMag,1676593845642,30902464598433,-150.7432,770.2348,390.9856,-174.57417,771.0116,430.86337
UncalAccel,1676593845646,30902468641179,1.4075779,-1.463211,10.455439,0.037048545,-0.031444572,0.0098014325
OrientationDeg,1676593845646,30902468641179,270.0,1.0,0.0
UncalGyro,1676593845650,30902472883162,0.46715918,0.04505131,-0.47540587,0.0006537356,-0.0013458843,-0.00032249582
UncalMag,1676593845652,30902474602706,-151.29219,769.881,390.91238,-174.57417,771.0116,430.86337
UncalAccel,1676593845655,30902477123570,0.8883354,-1.0642079,10.540982,0.037048545,-0.031444572,0.0098014325
UncalGyro,1676593845659,30902481362248,0.5224425,0.03756821,-0.48395798,0.0006537356,-0.0013458843,-0.00032249582
OrientationDeg,1676593845655,30902477123570,270.0,1.0,0.0
UncalMag,1676593845662,30902484602584,-150.9628,770.05176,390.705,-174.57417,771.0116,430.86337
UncalAccel,1676593845663,30902485592900,0.36430725,-0.80937225,10.746166,0.037048545,-0.031444572,0.0098014325
OrientationDeg,1676593845663,30902485592900,270.0,1.0,0.0
UncalGyro,1676593845667,30902489845067,0.5329799,0.028252518,-0.52519137,0.0006537356,-0.0013458843,-0.00032249582
UncalAccel,1676593845672,30902494084355,-0.08673982,-0.7160522,10.857432,0.037048545,-0.031444572,0.0098014325
OrientationDeg,1676593845672,30902494084355,271.0,1.0,-1.0
UncalMag,1676593845672,30902494588912,-150.8774,769.9054,391.64438,-174.57417,771.0116,430.86337
UncalGyro,1676593845676,30902498328648,0.4804455,-0.0016798794,-0.5887214,0.0006537356,-0.0013458843,-0.00032249582
UncalAccel,1676593845680,30902502565455,-0.34516466,-0.6843473,10.86521,0.037048545,-0.031444572,0.0098014325
OrientationDeg,1676593845680,30902502565455,271.0,1.0,-1.0
UncalMag,1676593845682,30902504602625,-150.4504,769.9054,391.1442,-174.57417,771.0116,430.86337
UncalGyro,1676593845684,30902506806716,0.3840815,-0.0355829,-0.65393126,0.0006537356,-0.0013458843,-0.00032249582
UncalAccel,1676593845689,30902511046636,-0.48394838,-0.77647096,10.926825,0.037048545,-0.031444572,0.0098014325
OrientationDeg,1676593845689,30902511046636,271.0,1.0,-1.0
UncalMag,1676593845692,30902514600469,-151.29219,769.9664,391.0588,-174.57417,771.0116,430.86337
UncalGyro,1676593845693,30902515291569,0.28802297,-0.04795292,-0.70646566,0.0006537356,-0.0013458843,-0.00032249582
UncalAccel,1676593845697,30902519538427,-0.4642076,-0.9726824,10.9375925,0.037048545,-0.031444572,0.0098014325
OrientationDeg,1676593845698,30902519538427,272.0,1.0,-1.0
UncalGyro,1676593845701,30902523766790,0.22708915,-0.042760566,-0.7295258,0.0006537356,-0.0013458843,-0.00032249582
UncalMag,1676593845702,30902524592535,-151.0848,769.9054,391.5224,-174.57417,771.0116,430.86337
UncalAccel,1676593845706,30902528008397,-0.38344982,-1.1066805,11.106286,0.037048545,-0.031444572,0.0098014325
OrientationDeg,1676593845706,30902528008397,272.0,1.0,-1.0
UncalGyro,1676593845710,30902532246963,0.18646662,0.0027488936,-0.72143185,0.0006537356,-0.0013458843,-0.00032249582
UncalMag,1676593845712,30902534602707,-150.99939,769.6492,391.8274,-174.57417,771.0116,430.86337
UncalAccel,1676593845714,30902536489802,-0.40378883,-1.1503495,11.349756,0.037048545,-0.031444572,0.0098014325
OrientationDeg,1676593845714,30902536489802,272.0,1.0,-1.0
UncalGyro,1676593845718,30902540730567,0.13164146,0.07467828,-0.6962337,0.0006537356,-0.0013458843,-0.00032249582
UncalMag,1676593845722,30902544602708,-150.7554,770.1494,391.0954,-174.57417,771.0116,430.86337
UncalAccel,1676593845722,30902544967790,-0.6346962,-1.0175478,11.433505,0.037048545,-0.031444572,0.0098014325
OrientationDeg,1676593845722,30902544967790,273.0,1.0,-1.0
UncalGyro,1676593845727,30902549202012,0.037110064,0.116980694,-0.6826419,0.0006537356,-0.0013458843,-0.00032249582
UncalAccel,1676593845731,30902553451106,-1.0043873,-0.67477596,11.391032,0.037048545,-0.031444572,0.0098014325
OrientationDeg,1676593845731,30902553451106,273.0,1.0,-1.0
UncalMag,1676593845732,30902554592576,-150.52359,770.4178,390.9002,-174.57417,771.0116,430.86337
UncalGyro,1676593845735,30902557692358,-0.089491755,0.114689946,-0.7021896,0.0006537356,-0.0013458843,-0.00032249582
UncalAccel,1676593845739,30902561934250,-1.3519448,-0.20279172,11.429317,0.037048545,-0.031444572,0.0098014325
OrientationDeg,1676593845739,30902561934250,273.0,1.0,-1.0
UncalMag,1676593845742,30902564602708,-150.304,770.674,390.8392,-174.57417,771.0116,430.86337
UncalGyro,1676593845744,30902566173529,-0.21288654,0.088422745,-0.7658723,0.0006537356,-0.0013458843,-0.00032249582
UncalAccel,1676593845748,30902570412940,-1.5080764,0.18843478,11.56511,0.037048545,-0.031444572,0.0098014325
OrientationDeg,1676593845748,30902570412940,274.0,1.0,-1.0
UncalMag,1676593845752,30902574602668,-150.4382,770.1494,390.8392,-174.57417,771.0116,430.86337
UncalGyro,1676593845752,30902574651628,-0.3052799,0.04841107,-0.8743009,0.0006537356,-0.0013458843,-0.00032249582
OrientationDeg,1676593845756,30902578883612,274.0,1.0,-1.0
UncalAccel,1676593845756,30902578883612,-1.5481563,0.360718,11.6686,0.037048545,-0.031444572,0.0098014325
UncalGyro,1676593845761,30902583136379,-0.33276883,0.0016798794,-1.0126618,0.0006537356,-0.0013458843,-0.00032249582
UncalMag,1676593845762,30902584602668,-150.67,771.5646,391.6688,-174.57417,771.0116,430.86337
UncalAccel,1676593845765,30902587375271,-1.4626129,0.360718,11.784053,0.037048545,-0.031444572,0.0098014325
OrientationDeg,1676593845765,30902587375271,275.0,1.0,-1.0
UncalGyro,1676593845769,30902591619188,-0.2602286,-0.03191771,-1.159575,0.0006537356,-0.0013458843,-0.00032249582
UncalMag,1676593845772,30902594603034,-150.67,771.467,391.0344,-174.57417,771.0116,430.86337
UncalAccel,1676593845773,30902595852353,-1.2490535,0.30927232,12.000006,0.037048545,-0.031444572,0.0098014325
OrientationDeg,1676593845773,30902595852353,275.0,1.0,0.0
UncalGyro,1676593845778,30902600097145,-0.09605856,-0.024281893,-1.2924381,0.0006537356,-0.0013458843,-0.00032249582
UncalAccel,1676593845782,30902604336942,-1.0342976,0.0849452,12.250653,0.037048545,-0.031444572,0.0098014325
OrientationDeg,1676593845782,30902604336942,276.0,1.0,0.0
UncalMag,1676593845782,30902604592293,-150.5358,772.016,392.0104,-174.57417,771.0116,430.86337
UncalGyro,1676593845786,30902608578102,0.11255192,0.019242255,-1.3875804,0.0006537356,-0.0013458843,-0.00032249582
UncalAccel,1676593845790,30902612807187,-0.87278205,-0.19740787,12.568301,0.037048545,-0.031444572,0.0098014325
UncalMag,1676593845792,30902614592333,-150.853,771.9062,391.5102,-174.57417,771.0116,430.86337
OrientationDeg,1676593845790,30902612807187,277.0,1.0,0.0
UncalGyro,1676593845795,30902617060096,0.30283645,0.10369437,-1.4396566,0.0006537356,-0.0013458843,-0.00032249582
UncalAccel,1676593845799,30902621298134,-0.7292127,-0.5270192,12.828521,0.037048545,-0.031444572,0.0098014325
OrientationDeg,1676593845799,30902621298134,277.0,1.0,-1.0
UncalMag,1676593845802,30902624602872,-151.036,772.4186,391.0344,-174.57417,771.0116,430.86337
UncalGyro,1676593845803,30902625542529,0.41554108,0.20189096,-1.4463762,0.0006537356,-0.0013458843,-0.00032249582
UncalAccel,1676593845807,30902629779041,-0.6095716,-0.85244304,13.064812,0.037048545,-0.031444572,0.0098014325
OrientationDeg,1676593845807,30902629779041,278.0,1.0,-1.0
UncalGyro,1676593845812,30902634021095,0.42546764,0.2921463,-1.4124732,0.0006537356,-0.0013458843,-0.00032249582
UncalMag,1676593845812,30902634608529,-150.5968,772.687,391.0832,-174.57417,771.0116,430.86337
UncalAccel,1676593845816,30902638257932,-0.5419743,-1.1252248,13.186248,0.037048545,-0.031444572,0.0098014325
OrientationDeg,1676593845816,30902638257932,279.0,2.0,-1.0
UncalGyro,1676593845820,30902642491941,0.3565926,0.3743077,-1.3492486,0.0006537356,-0.0013458843,-0.00032249582
UncalMag,1676593845822,30902644602629,-150.5846,772.8578,391.132,-174.57417,771.0116,430.86337
UncalAccel,1676593845824,30902646741708,-0.5599205,-1.3220345,13.134204,0.037048545,-0.031444572,0.0098014325
OrientationDeg,1676593845824,30902646741708,279.0,2.0,-1.0
UncalGyro,1676593845828,30902650983204,0.25610524,0.4531093,-1.2646438,0.0006537356,-0.0013458843,-0.00032249582
UncalMag,1676593845832,30902654602832,-150.609,772.5284,391.6566,-174.57417,771.0116,430.86337
UncalAccel,1676593845833,30902655224434,-0.6305088,-1.4129617,13.039089,0.037048545,-0.031444572,0.0098014325
OrientationDeg,1676593845833,30902655224434,280.0,2.0,-1.0
UncalGyro,1676593845837,30902659475320,0.16584991,0.5381723,-1.1728612,0.0006537356,-0.0013458843,-0.00032249582
UncalAccel,1676593845841,30902663703581,-0.69571316,-1.5427724,12.929617,0.037048545,-0.031444572,0.0098014325
OrientationDeg,1676593845841,30902663703581,281.0,2.0,-1.0
UncalMag,1676593845842,30902664592335,-150.06,772.992,392.108,-174.57417,771.0116,430.86337
UncalGyro,1676593845845,30902667945444,0.11133019,0.6252206,-1.0789407,0.0006537356,-0.0013458843,-0.00032249582
UncalAccel,1676593845850,30902672181436,-0.64606214,-1.6953149,12.734602,0.037048545,-0.031444572,0.0098014325
OrientationDeg,1676593845850,30902672181436,281.0,3.0,-1.0
UncalMag,1676593845852,30902674602914,-149.6086,773.5898,391.5224,-174.57417,771.0116,430.86337
UncalGyro,1676593845854,30902676425586,0.10797043,0.71669763,-0.98547834,0.0006537356,-0.0013458843,-0.00032249582
UncalAccel,1676593845858,30902680665099,-0.49950173,-1.8711873,12.474382,0.037048545,-0.031444572,0.0098014325
OrientationDeg,1676593845858,30902680665099,282.0,3.0,-1.0
UncalMag,1676593845862,30902684602833,-149.267,774.0534,392.108,-174.57417,771.0116,430.86337
UncalGyro,1676593845862,30902684904865,0.15683965,0.820392,-0.88606006,0.0006537356,-0.0013458843,-0.00032249582
UncalAccel,1676593845867,30902689135315,-0.3182454,-2.0416758,12.04188,0.037048545,-0.031444572,0.0098014325
OrientationDeg,1676593845867,30902689135315,282.0,4.0,-1.0
UncalGyro,1676593845871,30902693387532,0.2443461,0.9222538,-0.7707592,0.0006537356,-0.0013458843,-0.00032249582
UncalMag,1676593845872,30902694588795,-149.5232,773.1628,391.6566,-174.57417,771.0116,430.86337
UncalAccel,1676593845875,30902697626820,-0.20817557,-2.2031915,11.532807,0.037048545,-0.031444572,0.0098014325
OrientationDeg,1676593845875,30902697626820,282.0,4.0,-1.0
UncalGyro,1676593845879,30902701871255,0.34315357,1.0022771,-0.6386596,0.0006537356,-0.0013458843,-0.00032249582
UncalMag,1676593845882,30902704602874,-148.9864,773.55316,392.5838,-174.57417,771.0116,430.86337
UncalAccel,1676593845884,30902706108073,-0.19501504,-2.2648067,11.032109,0.037048545,-0.031444572,0.0098014325
OrientationDeg,1676593845884,30902706108073,283.0,5.0,-1.0
UncalGyro,1676593845888,30902710348816,0.42943826,1.0542006,-0.49281552,0.0006537356,-0.0013458843,-0.00032249582
UncalAccel,1676593845892,30902714585754,-0.31106696,-2.2115662,10.577473,0.037048545,-0.031444572,0.0098014325
OrientationDeg,1676593845892,30902714585754,283.0,5.0,-2.0
UncalMag,1676593845892,30902714603241,-148.7668,773.724,392.3764,-174.57417,771.0116,430.86337
UncalGyro,1676593845896,30902718831197,0.49464813,1.0729848,-0.34773505,0.0006537356,-0.0013458843,-0.00032249582
UncalAccel,1676593845901,30902723070118,-0.47138608,-2.0733807,10.122238,0.037048545,-0.031444572,0.0098014325
UncalMag,1676593845902,30902724597056,-147.8396,773.419,393.2548,-174.57417,771.0116,430.86337
OrientationDeg,1676593845901,30902723070118,283.0,6.0,-2.0
UncalGyro,1676593845905,30902727313040,0.537256,1.0497719,-0.21502456,0.0006537356,-0.0013458843,-0.00032249582
UncalAccel,1676593845909,30902731550507,-0.65024954,-1.9298115,9.652647,0.037048545,-0.031444572,0.0098014325
OrientationDeg,1676593845909,30902731550507,283.0,6.0,-2.0
UncalMag,1676593845912,30902734592255,-147.3272,773.33356,393.0962,-174.57417,771.0116,430.86337
UncalGyro,1676593845913,30902735789429,0.57344973,0.980286,-0.09392053,0.0006537356,-0.0013458843,-0.00032249582
UncalAccel,1676593845918,30902740020814,-0.7716853,-1.8005991,9.221938,0.037048545,-0.031444572,0.0098014325
OrientationDeg,1676593845918,30902740020814,283.0,7.0,-2.0
UncalGyro,1676593845922,30902744273051,0.624457,0.88407475,0.014813482,0.0006537356,-0.0013458843,-0.00032249582
UncalMag,1676593845922,30902744591930,-147.437,773.175,393.7916,-174.57417,771.0116,430.86337
UncalAccel,1676593845926,30902748510652,-0.7513463,-1.6707884,8.9013,0.037048545,-0.031444572,0.0098014325
OrientationDeg,1676593845926,30902748510652,283.0,7.0,-3.0
UncalGyro,1676593845930,30902752748495,0.69226307,0.7826711,0.10308351,0.0006537356,-0.0013458843,-0.00032249582
