# 
# Header Description:
# 
# Version: v3.0.5.6 Platform: 13 Manufacturer: Google Model: Pixel 7
# 
# Raw,utcTimeMillis,TimeNanos,LeapSecond,TimeUncertaintyNanos,FullBiasNanos,BiasNanos,BiasUncertaintyNanos,DriftNanosPerSecond,DriftUncertaintyNanosPerSecond,HardwareClockDiscontinuityCount,Svid,TimeOffsetNanos,State,ReceivedSvTimeNanos,ReceivedSvTimeUncertaintyNanos,Cn0DbHz,PseudorangeRateMetersPerSecond,PseudorangeRateUncertaintyMetersPerSecond,AccumulatedDeltaRangeState,AccumulatedDeltaRangeMeters,AccumulatedDeltaRangeUncertaintyMeters,CarrierFrequencyHz,CarrierCycles,CarrierPhase,CarrierPhaseUncertainty,MultipathIndicator,SnrInDb,ConstellationType,AgcDb,BasebandCn0DbHz,FullInterSignalBiasNanos,FullInterSignalBiasUncertaintyNanos,SatelliteInterSignalBiasNanos,SatelliteInterSignalBiasUncertaintyNanos,CodeType,ChipsetElapsedRealtimeNanos
# 
# UncalAccel,utcTimeMillis,elapsedRealtimeNanos,UncalAccelXMps2,UncalAccelYMps2,UncalAccelZMps2,BiasXMps2,BiasYMps2,BiasZMps2
# 
# Accel,utcTimeMillis,elapsedRealtimeNanos,AccelXMps2,AccelYMps2,AccelZMps2
# 
# UncalGyro,utcTimeMillis,elapsedRealtimeNanos,UncalGyroXRadPerSec,UncalGyroYRadPerSec,UncalGyroZRadPerSec,DriftXRadPerSec,DriftYRadPerSec,DriftZRadPerSec
# 
# Gyro,utcTimeMillis,elapsedRealtimeNanos,GyroXRadPerSec,GyroYRadPerSec,GyroZRadPerSec
# 
# UncalMag,utcTimeMillis,elapsedRealtimeNanos,UncalMagXMicroT,UncalMagYMicroT,UncalMagZMicroT,BiasXMicroT,BiasYMicroT,BiasZMicroT
# 
# Mag,utcTimeMillis,elapsedRealtimeNanos,MagXMicroT,MagYMicroT,MagZMicroT
# 
# OrientationDeg,utcTimeMillis,elapsedRealtimeNanos,yawDeg,rollDeg,pitchDeg
# 
# Fix,Provider,LatitudeDegrees,LongitudeDegrees,AltitudeMeters,SpeedMps,AccuracyMeters,BearingDegrees,UnixTimeMillis,SpeedAccuracyMps,BearingAccuracyDegrees,elapsedRealtimeNanos,VerticalAccuracyMeters
# 
# Nav,Svid,Type,Status,MessageId,Sub-messageId,Data(Bytes)
# 
# Status,UnixTimeMillis,SignalCount,SignalIndex,ConstellationType,Svid,CarrierFrequencyHz,Cn0DbHz,AzimuthDegrees,ElevationDegrees,UsedInFix,HasAlmanacData,HasEphemerisData,BasebandCn0DbHz
# 
UncalAccel,1676595039496,32096318120437,-2.5034907,1.9345971,13.290934,0.037048545,-0.031444572,0.0098014325
UncalMag,1676595039499,32096321411270,-150.3284,775.4198,391.9738,-177.00775,769.7961,430.15182
UncalGyro,1676595039500,32096322353846,-0.50625455,0.61208695,-0.084146686,-0.00027828955,-0.0017051809,-0.000334872
UncalAccel,1676595039504,32096326594272,-2.7726831,1.8897316,13.494922,0.037048545,-0.031444572,0.0098014325
OrientationDeg,1676595039504,32096326594272,305.0,7.0,-10.0
UncalGyro,1676595039508,32096330837824,-0.41584653,0.5119051,-0.12293663,-0.00027828955,-0.0017051809,-0.000334872
UncalMag,1676595039509,32096331410863,-150.9018,776.347,391.11978,-177.00775,769.7961,430.15182
Fix,FLP,37.4311585000,-122.1551393000,-16.200000762939453,0.31527486,4.255,25.986206,1676595038847,,,32095669307422,2.1116688
UncalAccel,1676595039513,32096335075240,-2.8342984,1.7312071,13.557135,0.037048545,-0.031444572,0.0098014325
OrientationDeg,1676595039513,32096335075240,305.0,7.0,-10.0
UncalGyro,1676595039517,32096339317316,-0.29275718,0.4185954,-0.16218472,-0.00027828955,-0.0017051809,-0.000334872
UncalMag,1676595039519,32096341411270,-150.4748,776.4568,391.86398,-177.00775,769.7961,430.15182
UncalAccel,1676595039521,32096343560674,-2.7936203,1.5541383,13.3435755,0.037048545,-0.031444572,0.0098014325
OrientationDeg,1676595039521,32096343560674,305.0,8.0,-10.0
UncalGyro,1676595039525,32096347811823,-0.13087788,0.31902438,-0.19165897,-0.00027828955,-0.0017051809,-0.000334872
UncalMag,1676595039529,32096351411230,-150.2918,776.0298,391.9982,-177.00775,769.7961,430.15182
UncalAccel,1676595039530,32096352050156,-2.7086751,1.3639089,12.992429,0.037048545,-0.031444572,0.0098014325
OrientationDeg,1676595039530,32096352050156,305.0,8.0,-10.0
UncalGyro,1676595039534,32096356281795,0.06536258,0.20693061,-0.20662516,-0.00027828955,-0.0017051809,-0.000334872
UncalAccel,1676595039538,32096360518966,-2.6566312,1.1587243,12.564114,0.037048545,-0.031444572,0.0098014325
OrientationDeg,1676595039538,32096360518966,305.0,8.0,-10.0
UncalMag,1676595039539,32096361411271,-150.7798,776.6886,391.2052,-177.00775,769.7961,430.15182
UncalGyro,1676595039542,32096364771225,0.27214047,0.09682214,-0.21120666,-0.00027828955,-0.0017051809,-0.000334872
UncalAccel,1676595039547,32096369012945,-2.5758736,0.91585284,12.198011,0.037048545,-0.031444572,0.0098014325
OrientationDeg,1676595039547,32096369012945,305.0,8.0,-10.0
UncalMag,1676595039549,32096371421688,-150.8652,777.0668,391.9006,-177.00775,769.7961,430.15182
UncalGyro,1676595039551,32096373255244,0.46043968,0.010537425,-0.21090123,-0.00027828955,-0.0017051809,-0.000334872
UncalAccel,1676595039555,32096377492284,-2.44367,0.7926225,11.836696,0.037048545,-0.031444572,0.0098014325
OrientationDeg,1676595039555,32096377492284,305.0,8.0,-10.0
UncalMag,1676595039559,32096381421810,-150.5846,776.4568,391.742,-177.00775,769.7961,430.15182
UncalGyro,1676595039559,32096381731268,0.6079636,-0.052381694,-0.21838433,-0.00027828955,-0.0017051809,-0.000334872
UncalAccel,1676595039563,32096385963924,-2.2965117,0.71246296,11.422737,0.037048545,-0.031444572,0.0098014325
OrientationDeg,1676595039563,32096385963924,305.0,8.0,-11.0
UncalGyro,1676595039568,32096390212652,0.6918049,-0.110413894,-0.2501493,-0.00027828955,-0.0017051809,-0.000334872
UncalMag,1676595039569,32096391416236,-150.548,776.9936,392.352,-177.00775,769.7961,430.15182
UncalAccel,1676595039572,32096394443803,-2.1828525,0.64247286,11.01835,0.037048545,-0.031444572,0.0098014325
OrientationDeg,1676595039572,32096394443803,306.0,8.0,-11.0
UncalGyro,1676595039576,32096398696030,0.7119634,-0.16707164,-0.31673363,-0.00027828955,-0.0017051809,-0.000334872
UncalMag,1676595039579,32096401411027,-150.6944,776.2494,390.7294,-177.00775,769.7961,430.15182
UncalAccel,1676595039580,32096402936255,-2.012962,0.6053841,10.676176,0.037048545,-0.031444572,0.0098014325
OrientationDeg,1676595039580,32096402936255,306.0,8.0,-11.0
UncalGyro,1676595039585,32096407180375,0.67363167,-0.23136522,-0.42317688,-0.00027828955,-0.0017051809,-0.000334872
UncalAccel,1676595039589,32096411417925,-1.8681962,0.6831509,10.485349,0.037048545,-0.031444572,0.0098014325
OrientationDeg,1676595039589,32096411417925,306.0,8.0,-12.0
UncalMag,1676595039589,32096411430803,-150.81639,776.10297,391.6688,-177.00775,769.7961,430.15182
UncalGyro,1676595039593,32096415659258,0.59650993,-0.3023783,-0.58032197,-0.00027828955,-0.0017051809,-0.000334872
UncalAccel,1676595039597,32096419900102,-1.8969102,0.85124665,10.360324,0.037048545,-0.031444572,0.0098014325
OrientationDeg,1676595039597,32096419900102,306.0,8.0,-12.0
UncalMag,1676595039599,32096421413022,-151.3532,775.8224,391.6078,-177.00775,769.7961,430.15182
UncalGyro,1676595039602,32096424143725,0.50610185,-0.38560867,-0.7863363,-0.00027828955,-0.0017051809,-0.000334872
UncalAccel,1676595039606,32096428389523,-2.0494525,0.96550393,10.182058,0.037048545,-0.031444572,0.0098014325
OrientationDeg,1676595039606,32096428389523,307.0,8.0,-12.0
UncalMag,1676595039609,32096431421689,-150.8286,775.89557,390.766,-177.00775,769.7961,430.15182
UncalGyro,1676595039610,32096432621406,0.4240932,-0.48288897,-1.0204504,-0.00027828955,-0.0017051809,-0.000334872
UncalAccel,1676595039614,32096436861304,-2.181058,0.8787641,9.924232,0.037048545,-0.031444572,0.0098014325
OrientationDeg,1676595039615,32096436861304,308.0,8.0,-12.0
UncalGyro,1676595039619,32096441100634,0.3549127,-0.59528816,-1.251052,-0.00027828955,-0.0017051809,-0.000334872
UncalMag,1676595039619,32096441417010,-151.8168,776.73737,390.3878,-177.00775,769.7961,430.15182
UncalAccel,1676595039623,32096445342374,-2.283351,0.73459655,9.695119,0.037048545,-0.031444572,0.0098014325
OrientationDeg,1676595039623,32096445342374,308.0,7.0,-12.0
UncalGyro,1676595039627,32096449584602,0.29764408,-0.71578133,-1.4546229,-0.00027828955,-0.0017051809,-0.000334872
UncalMag,1676595039629,32096451418597,-152.256,776.29816,390.53418,-177.00775,769.7961,430.15182
UncalAccel,1676595039631,32096453825691,-2.3108685,0.567099,9.591031,0.037048545,-0.031444572,0.0098014325
OrientationDeg,1676595039631,32096453825691,309.0,7.0,-12.0
UncalGyro,1676595039637,32096458062548,0.24984388,-0.82344633,-1.6236799,-0.00027828955,-0.0017051809,-0.000334872
UncalMag,1676595039639,32096461421608,-152.19499,777.4206,390.32678,-177.00775,769.7961,430.15182
UncalAccel,1676595039640,32096462305326,-2.3192434,0.48095736,9.491131,0.037048545,-0.031444572,0.0098014325
OrientationDeg,1676595039640,32096462305326,310.0,7.0,-12.0
UncalGyro,1676595039644,32096466546151,0.22632557,-0.9126327,-1.7705929,-0.00027828955,-0.0017051809,-0.000334872
UncalAccel,1676595039648,32096470787320,-2.2737796,0.41934216,9.257831,0.037048545,-0.031444572,0.0098014325
OrientationDeg,1676595039648,32096470787320,311.0,7.0,-12.0
UncalMag,1676595039649,32096471428607,-152.7318,777.05457,390.1316,-177.00775,769.7961,430.15182
UncalGyro,1676595039653,32096475028115,0.23151793,-0.9860892,-1.8978056,-0.00027828955,-0.0017051809,-0.000334872
UncalAccel,1676595039657,32096479267962,-2.1661026,0.29132617,9.0347,0.037048545,-0.031444572,0.0098014325
OrientationDeg,1676595039657,32096479267962,312.0,6.0,-12.0
UncalMag,1676595039659,32096481421812,-153.537,777.68896,391.38818,-177.00775,769.7961,430.15182
UncalGyro,1676595039661,32096483509723,0.25320363,-1.0367911,-2.0066924,-0.00027828955,-0.0017051809,-0.000334872
UncalAccel,1676595039665,32096487750263,-2.059622,0.17228323,8.921639,0.037048545,-0.031444572,0.0098014325
OrientationDeg,1676595039665,32096487750263,313.0,6.0,-12.0
UncalMag,1676595039669,32096491421853,-153.842,777.8354,390.461,-177.00775,769.7961,430.15182
UncalGyro,1676595039669,32096491988961,0.27091873,-1.0580186,-2.0983222,-0.00027828955,-0.0017051809,-0.000334872
UncalAccel,1676595039674,32096496219797,-1.9250258,0.08673982,8.913264,0.037048545,-0.031444572,0.0098014325
OrientationDeg,1676595039674,32096496219797,314.0,6.0,-12.0
UncalGyro,1676595039678,32096500470447,0.26221392,-1.0401508,-2.172084,-0.00027828955,-0.0017051809,-0.000334872
UncalMag,1676595039679,32096501412983,-154.7814,777.79877,389.8754,-177.00775,769.7961,430.15182
UncalAccel,1676595039682,32096504703123,-1.7820547,0.068793654,8.943174,0.037048545,-0.031444572,0.0098014325
OrientationDeg,1676595039682,32096504703123,315.0,6.0,-12.0
UncalGyro,1676595039686,32096508945575,0.2237294,-0.9980011,-2.238821,-0.00027828955,-0.0017051809,-0.000334872
UncalMag,1676595039689,32096511411030,-154.9766,778.0428,389.5704,-177.00775,769.7961,430.15182
UncalAccel,1676595039691,32096513190449,-1.599602,0.1274178,8.834301,0.037048545,-0.031444572,0.0098014325
UncalGyro,1676595039695,32096517425780,0.16646078,-0.9558514,-2.2934935,-0.00027828955,-0.0017051809,-0.000334872
UncalMag,1676595039699,32096521418558,-155.5744,778.3478,388.57,-177.00775,769.7961,430.15182
OrientationDeg,1676595039691,32096513190449,316.0,5.0,-12.0
UncalAccel,1676595039699,32096521677052,-1.4231312,0.18125631,8.863613,0.037048545,-0.031444572,0.0098014325
OrientationDeg,1676595039699,32096521677052,317.0,5.0,-12.0
UncalGyro,1676595039703,32096525912536,0.09468412,-0.9068295,-2.3393085,-0.00027828955,-0.0017051809,-0.000334872
UncalAccel,1676595039708,32096530158111,-1.3489537,0.26261228,9.083155,0.037048545,-0.031444572,0.0098014325
OrientationDeg,1676595039708,32096530158111,319.0,5.0,-12.0
UncalMag,1676595039709,32096531408020,-155.855,778.97,388.9726,-177.00775,769.7961,430.15182
UncalGyro,1676595039712,32096534395996,0.027641652,-0.84238315,-2.3829854,-0.00027828955,-0.0017051809,-0.000334872
UncalAccel,1676595039716,32096538634186,-1.4650056,0.40079778,9.210572,0.037048545,-0.031444572,0.0098014325
OrientationDeg,1676595039716,32096538634186,320.0,5.0,-12.0
UncalMag,1676595039719,32096541421570,-157.4654,780.068,389.0336,-177.00775,769.7961,430.15182
UncalGyro,1676595039720,32096542878438,-0.012217305,-0.79458296,-2.4443772,-0.00027828955,-0.0017051809,-0.000334872
UncalAccel,1676595039725,32096547118082,-1.7198412,0.5377869,9.270393,0.037048545,-0.031444572,0.0098014325
OrientationDeg,1676595039725,32096547118082,321.0,5.0,-11.0
UncalGyro,1676595039729,32096551360911,-0.021533,-0.7669413,-2.5331054,-0.00027828955,-0.0017051809,-0.000334872
UncalMag,1676595039729,32096551410991,-156.9286,780.22656,388.20398,-177.00775,769.7961,430.15182
UncalAccel,1676595039733,32096555600790,-1.975275,0.6269195,9.468399,0.037048545,-0.031444572,0.0098014325
OrientationDeg,1676595039733,32096555600790,322.0,5.0,-11.0
UncalGyro,1676595039737,32096559842051,-0.01450805,-0.7480045,-2.640465,-0.00027828955,-0.0017051809,-0.000334872
UncalMag,1676595039739,32096561421611,-157.6362,780.6658,388.814,-177.00775,769.7961,430.15182
UncalAccel,1676595039742,32096564080577,-2.245066,0.74476606,9.690333,0.037048545,-0.031444572,0.0098014325
OrientationDeg,1676595039742,32096564080577,324.0,5.0,-11.0
UncalGyro,1676595039746,32096568319702,-0.01282817,-0.7518224,-2.745992,-0.00027828955,-0.0017051809,-0.000334872
UncalMag,1676595039749,32096571421652,-158.2096,781.5564,389.5216,-177.00775,769.7961,430.15182
UncalAccel,1676595039750,32096572552552,-2.5142584,0.8673982,9.711869,0.037048545,-0.031444572,0.0098014325
OrientationDeg,1676595039750,32096572552552,325.0,5.0,-11.0
UncalGyro,1676595039754,32096576803894,-0.025809057,-0.81107634,-2.8298333,-0.00027828955,-0.0017051809,-0.000334872
UncalAccel,1676595039759,32096581042715,-2.75713,0.9379865,9.58146,0.037048545,-0.031444572,0.0098014325
UncalMag,1676595039759,32096581409364,-158.6122,781.6784,388.3504,-177.00775,769.7961,430.15182
OrientationDeg,1676595039759,32096581042715,326.0,4.0,-11.0
UncalGyro,1676595039763,32096585284384,-0.055588737,-0.93218035,-2.8759537,-0.00027828955,-0.0017051809,-0.000334872
UncalAccel,1676595039767,32096589525574,-2.9473593,0.97567344,9.374481,0.037048545,-0.031444572,0.0098014325
OrientationDeg,1676595039767,32096589525574,328.0,4.0,-11.0
UncalMag,1676595039769,32096591421734,-159.23439,781.837,388.2894,-177.00775,769.7961,430.15182
UncalGyro,1676595039772,32096593766043,-0.09728029,-1.1029172,-2.8774807,-0.00027828955,-0.0017051809,-0.000334872
UncalAccel,1676595039776,32096598006745,-2.9892337,1.0953146,9.139984,0.037048545,-0.031444572,0.0098014325
OrientationDeg,1676595039776,32096598006745,329.0,4.0,-11.0
UncalMag,1676595039779,32096601421897,-159.8322,782.3616,388.42358,-177.00775,769.7961,430.15182
UncalGyro,1676595039780,32096602247051,-0.15027285,-1.3025174,-2.8417451,-0.00027828955,-0.0017051809,-0.000334872
UncalAccel,1676595039784,32096606487103,-2.9521449,1.2251252,9.182457,0.037048545,-0.031444572,0.0098014325
OrientationDeg,1676595039784,32096606487103,331.0,4.0,-10.0
UncalGyro,1676595039788,32096610728710,-0.21930063,-1.4640913,-2.7699685,-0.00027828955,-0.0017051809,-0.000334872
UncalMag,1676595039789,32096611411236,-161.6866,782.8008,387.0084,-177.00775,769.7961,430.15182
UncalAccel,1676595039792,32096614968630,-2.9102705,1.2777673,9.325428,0.037048545,-0.031444572,0.0098014325
OrientationDeg,1676595039792,32096614968630,332.0,3.0,-10.0
UncalGyro,1676595039797,32096619210298,-0.2863431,-1.5624406,-2.6734517,-0.00027828955,-0.0017051809,-0.000334872
UncalMag,1676595039799,32096621421653,-162.2844,783.2278,387.1182,-177.00775,769.7961,430.15182
UncalAccel,1676595039801,32096623447166,-2.8570302,1.4075779,9.1872425,0.037048545,-0.031444572,0.0098014325
OrientationDeg,1676595039801,32096623447166,333.0,3.0,-10.0
UncalGyro,1676595039805,32096627676271,-0.3391829,-1.6244434,-2.5660923,-0.00027828955,-0.0017051809,-0.000334872
UncalMag,1676595039809,32096631421572,-163.0896,783.7524,387.5086,-177.00775,769.7961,430.15182
UncalAccel,1676595039809,32096631928479,-2.742773,1.5954145,9.072387,0.037048545,-0.031444572,0.0098014325
OrientationDeg,1676595039809,32096631928479,334.0,2.0,-10.0
UncalGyro,1676595039814,32096636161837,-0.37858373,-1.6455183,-2.4543037,-0.00027828955,-0.0017051809,-0.000334872
UncalAccel,1676595039818,32096640415438,-2.5615165,1.7306089,9.063414,0.037048545,-0.031444572,0.0098014325
OrientationDeg,1676595039818,32096640415438,336.0,1.0,-9.0
UncalMag,1676595039819,32096641411400,-163.4556,784.5332,387.94778,-177.00775,769.7961,430.15182
UncalGyro,1676595039822,32096644648714,-0.4005749,-1.6042849,-2.3321307,-0.00027828955,-0.0017051809,-0.000334872
UncalAccel,1676595039826,32096648888084,-2.4711876,1.855634,9.044271,0.037048545,-0.031444572,0.0098014325
OrientationDeg,1676595039826,32096648888084,337.0,1.0,-9.0
UncalMag,1676595039829,32096651421939,-165.2124,784.826,387.2158,-177.00775,769.7961,430.15182
UncalGyro,1676595039831,32096653135663,-0.40882155,-1.5144876,-2.2094996,-0.00027828955,-0.0017051809,-0.000334872
UncalAccel,1676595039835,32096657376935,-2.4867408,2.0135603,9.057432,0.037048545,-0.031444572,0.0098014325
OrientationDeg,1676595039835,32096657376935,338.0,0.0,-9.0
UncalMag,1676595039839,32096661421532,-166.469,784.88696,387.14258,-177.00775,769.7961,430.15182
UncalGyro,1676595039839,32096661615460,-0.41416663,-1.3825408,-2.0960314,-0.00027828955,-0.0017051809,-0.000334872
UncalAccel,1676595039843,32096665842757,-2.5262225,2.1475582,9.185448,0.037048545,-0.031444572,0.0098014325
OrientationDeg,1676595039843,32096665842757,339.0,0.0,-9.0
UncalGyro,1676595039848,32096670097649,-0.42928556,-1.2209669,-1.9866865,-0.00027828955,-0.0017051809,-0.000334872
UncalMag,1676595039849,32096671421614,-166.347,785.09436,387.9112,-177.00775,769.7961,430.15182
UncalAccel,1676595039852,32096674333398,-2.661417,2.3042881,9.19801,0.037048545,-0.031444572,0.0098014325
OrientationDeg,1676595039852,32096674333398,340.0,0.0,-9.0
UncalGyro,1676595039856,32096678568067,-0.44822237,-1.0651963,-1.8710803,-0.00027828955,-0.0017051809,-0.000334872
UncalMag,1676595039859,32096681421655,-167.3474,785.82635,387.14258,-177.00775,769.7961,430.15182
UncalAccel,1676595039860,32096682824049,-2.8193433,2.524428,9.043075,0.037048545,-0.031444572,0.0098014325
OrientationDeg,1676595039860,32096682824049,341.0,0.0,-8.0
UncalGyro,1676595039865,32096687060713,-0.4642576,-0.9262244,-1.7412714,-0.00027828955,-0.0017051809,-0.000334872
UncalAccel,1676595039869,32096691305393,-2.9682965,2.7918258,8.950353,0.037048545,-0.031444572,0.0098014325
OrientationDeg,1676595039869,32096691305393,341.0,0.0,-8.0
UncalMag,1676595039869,32096691411035,-168.3234,785.3872,387.6672,-177.00775,769.7961,430.15182
UncalGyro,1676595039873,32096695536849,-0.47403142,-0.7939721,-1.5922203,-0.00027828955,-0.0017051809,-0.000334872
UncalAccel,1676595039877,32096699762719,-3.1028929,3.0161529,8.895916,0.037048545,-0.031444572,0.0098014325
UncalMag,1676595039879,32096701410994,-168.68939,786.05817,386.8742,-177.00775,769.7961,430.15182
OrientationDeg,1676595039877,32096699762719,342.0,0.0,-8.0
UncalGyro,1676595039882,32096704022709,-0.48670688,-0.6806566,-1.4194981,-0.00027828955,-0.0017051809,-0.000334872
UncalAccel,1676595039886,32096708262383,-3.0867412,3.112464,8.62792,0.037048545,-0.031444572,0.0098014325
OrientationDeg,1676595039886,32096708262383,343.0,0.0,-8.0
UncalMag,1676595039889,32096711410913,-168.9212,785.8996,387.6916,-177.00775,769.7961,430.15182
UncalGyro,1676595039890,32096712506291,-0.50991976,-0.6209445,-1.2191343,-0.00027828955,-0.0017051809,-0.000334872
UncalAccel,1676595039894,32096716733616,-3.1196425,3.0933216,8.55135,0.037048545,-0.031444572,0.0098014325
OrientationDeg,1676595039894,32096716733616,343.0,-1.0,-8.0
UncalGyro,1676595039898,32096720985935,-0.552833,-0.57528234,-1.002888,-0.00027828955,-0.0017051809,-0.000334872
UncalMag,1676595039900,32096721410832,-169.2872,786.7048,388.4968,-177.00775,769.7961,430.15182
UncalAccel,1676595039903,32096725226364,-3.0915267,3.00718,8.647661,0.037048545,-0.031444572,0.0098014325
OrientationDeg,1676595039903,32096725226364,344.0,-1.0,-7.0
UncalGyro,1676595039907,32096729469465,-0.6198755,-0.5036584,-0.77763146,-0.00027828955,-0.0017051809,-0.000334872
UncalMag,1676595039909,32096731421574,-170.0802,787.3636,387.7038,-177.00775,769.7961,430.15182
UncalAccel,1676595039911,32096733706506,-2.9760733,2.969493,8.619545,0.037048545,-0.031444572,0.0098014325
OrientationDeg,1676595039911,32096733706506,344.0,-1.0,-7.0
UncalGyro,1676595039915,32096737947737,-0.7075347,-0.41401392,-0.550695,-0.00027828955,-0.0017051809,-0.000334872
UncalMag,1676595039919,32096741421453,-169.763,787.4612,387.83798,-177.00775,769.7961,430.15182
UncalAccel,1676595039920,32096742187952,-2.9509485,3.0323045,8.438289,0.037048545,-0.031444572,0.0098014325
OrientationDeg,1676595039920,32096742187952,344.0,-1.0,-7.0
UncalGyro,1676595039924,32096746426844,-0.81077087,-0.3304781,-0.34422258,-0.00027828955,-0.0017051809,-0.000334872
UncalAccel,1676595039928,32096750658513,-2.9593234,3.1088748,8.232507,0.037048545,-0.031444572,0.0098014325
UncalMag,1676595039929,32096751425847,-170.2876,787.3392,387.09378,-177.00775,769.7961,430.15182
OrientationDeg,1676595039928,32096750658513,344.0,-1.0,-6.0
UncalGyro,1676595039932,32096754910995,-0.9454667,-0.2751948,-0.15851954,-0.00027828955,-0.0017051809,-0.000334872
UncalAccel,1676595039937,32096759151687,-2.978466,3.1423743,8.141579,0.037048545,-0.031444572,0.0098014325
OrientationDeg,1676595039937,32096759151687,345.0,-1.0,-6.0
UncalMag,1676595039939,32096761421616,-169.8118,788.3518,388.5334,-177.00775,769.7961,430.15182
UncalGyro,1676595039941,32096763394923,-1.1178834,-0.24831672,0.0143553335,-0.00027828955,-0.0017051809,-0.000334872
UncalAccel,1676595039945,32096767631932,-3.0640094,3.0586255,9.473185,0.037048545,-0.031444572,0.0098014325
OrientationDeg,1676595039945,32096767631932,344.0,-1.0,-5.0
UncalMag,1676595039949,32096771418564,-170.495,789.21796,388.8872,-177.00775,769.7961,430.15182
UncalGyro,1676595039949,32096771871608,-0.90377516,0.48349985,0.19685133,-0.00027828955,-0.0017051809,-0.000334872
UncalAccel,1676595039954,32096776102453,-1.6516458,2.4502504,20.477179,0.037048545,-0.031444572,0.0098014325
OrientationDeg,1676595039954,32096776102453,344.0,0.0,-5.0
UncalGyro,1676595039958,32096780354783,0.0010690142,1.5632042,0.48563787,-0.00027828955,-0.0017051809,-0.000334872
UncalMag,1676595039959,32096781411973,-171.0074,789.2546,387.3256,-177.00775,769.7961,430.15182
UncalAccel,1676595039962,32096784591488,-3.1980073,2.9557343,4.447061,0.037048545,-0.031444572,0.0098014325
OrientationDeg,1676595039962,32096784591488,344.0,0.0,-5.0
UncalGyro,1676595039966,32096788825303,0.89629203,0.81122905,0.93828905,-0.00027828955,-0.0017051809,-0.000334872
UncalMag,1676595039969,32096791421779,-170.3608,789.6328,388.0088,-177.00775,769.7961,430.15182
UncalAccel,1676595039971,32096793064907,-3.735196,1.090529,12.347563,0.037048545,-0.031444572,0.0098014325
OrientationDeg,1676595039971,32096793064907,343.0,0.0,-6.0
UncalGyro,1676595039975,32096797317368,1.7189748,0.5491679,1.3245085,-0.00027828955,-0.0017051809,-0.000334872
UncalMag,1676595039979,32096801421902,-169.275,788.608,387.8624,-177.00775,769.7961,430.15182
UncalAccel,1676595039979,32096801559627,-1.5678971,1.8191434,8.553742,0.037048545,-0.031444572,0.0098014325
OrientationDeg,1676595039979,32096801559627,343.0,0.0,-7.0
UncalGyro,1676595039983,32096805801103,1.6018413,0.14034629,1.1840096,-0.00027828955,-0.0017051809,-0.000334872
UncalAccel,1676595039988,32096810038031,-1.5050855,1.6325033,8.607581,0.037048545,-0.031444572,0.0098014325
OrientationDeg,1676595039988,32096810038031,342.0,0.0,-8.0
UncalMag,1676595039989,32096811411363,-169.2384,787.5588,387.72818,-177.00775,769.7961,430.15182
UncalGyro,1676595039992,32096814275255,1.0447323,-0.15500705,0.905455,-0.00027828955,-0.0017051809,-0.000334872
UncalAccel,1676595039996,32096818501573,-0.89371926,1.2131611,9.605987,0.037048545,-0.031444572,0.0098014325
OrientationDeg,1676595039996,32096818501573,342.0,0.0,-8.0
UncalMag,1676595039999,32096821421821,-169.2506,787.266,386.93518,-177.00775,769.7961,430.15182
UncalGyro,1676595040001,32096822759904,0.5132795,-0.27122417,0.6114761,-0.00027828955,-0.0017051809,-0.000334872
UncalAccel,1676595040004,32096826995235,-0.715454,1.2693924,8.151151,0.037048545,-0.031444572,0.0098014325
OrientationDeg,1676595040004,32096826995235,342.0,0.0,-8.0
UncalGyro,1676595040009,32096831248227,0.17394388,-0.67149365,0.35308012,-0.00027828955,-0.0017051809,-0.000334872
UncalMag,1676595040009,32096831412462,-169.6898,786.8268,387.20358,-177.00775,769.7961,430.15182
UncalAccel,1676595040013,32096835482226,-0.6442675,1.3052847,6.9248285,0.037048545,-0.031444572,0.0098014325
OrientationDeg,1676595040013,32096835482226,342.0,0.0,-8.0
UncalGyro,1676595040017,32096839724474,-0.011301007,-1.2444853,0.18997909,-0.00027828955,-0.0017051809,-0.000334872
UncalMag,1676595040019,32096841418485,-169.6898,786.8268,387.20358,-177.00775,769.7961,430.15182
UncalAccel,1676595040021,32096843958951,0.07058827,1.4123635,8.446664,0.037048545,-0.031444572,0.0098014325
OrientationDeg,1676595040021,32096843958951,341.0,-1.0,-8.0
UncalGyro,1676595040026,32096848201758,-0.12660182,-1.6612481,0.05787948,-0.00027828955,-0.0017051809,-0.000334872
UncalMag,1676595040029,32096851421496,-170.739,786.88776,386.8742,-177.00775,769.7961,430.15182
UncalAccel,1676595040030,32096852444791,0.5820541,1.9651057,9.37807,0.037048545,-0.031444572,0.0098014325
OrientationDeg,1676595040030,32096852444791,341.0,-2.0,-8.0
UncalGyro,1676595040034,32096856687578,-0.1863139,-1.8828394,-0.12156218,-0.00027828955,-0.0017051809,-0.000334872
UncalAccel,1676595040038,32096860927864,0.8350951,2.5878377,10.283155,0.037048545,-0.031444572,0.0098014325
UncalMag,1676595040039,32096861430407,-171.36119,786.8756,387.0084,-177.00775,769.7961,430.15182
OrientationDeg,1676595040038,32096860927864,342.0,-3.0,-8.0
UncalGyro,1676595040043,32096865164823,-0.22052236,-1.7602082,-0.35979962,-0.00027828955,-0.0017051809,-0.000334872
UncalAccel,1676595040047,32096869396532,1.2951152,3.150151,11.01835,0.037048545,-0.031444572,0.0098014325
OrientationDeg,1676595040047,32096869396532,342.0,-4.0,-8.0
UncalMag,1676595040049,32096871421700,-172.081,787.1318,386.9718,-177.00775,769.7961,430.15182
UncalGyro,1676595040051,32096873648547,-0.24633141,-1.2753339,-0.6609562,-0.00027828955,-0.0017051809,-0.000334872
UncalAccel,1676595040055,32096877888629,1.1784651,3.374478,11.087742,0.037048545,-0.031444572,0.0098014325
OrientationDeg,1676595040055,32096877888629,342.0,-4.0,-8.0
UncalMag,1676595040059,32096881421904,-173.0204,787.1806,386.6424,-177.00775,769.7961,430.15182
UncalGyro,1676595040060,32096882132617,-0.21197024,-0.53023106,-0.9737192,-0.00027828955,-0.0017051809,-0.000334872
UncalAccel,1676595040064,32096886369820,1.0049855,3.4564323,9.940982,0.037048545,-0.031444572,0.0098014325
OrientationDeg,1676595040064,32096886369820,343.0,-4.0,-8.0
UncalGyro,1676595040068,32096890611651,-0.02076942,0.15699236,-1.2838861,-0.00027828955,-0.0017051809,-0.000334872
UncalMag,1676595040069,32096891411325,-172.7032,787.11957,386.98398,-177.00775,769.7961,430.15182
UncalAccel,1676595040072,32096894852782,0.60837513,3.2165518,8.81815,0.037048545,-0.031444572,0.0098014325
OrientationDeg,1676595040072,32096894852782,344.0,-4.0,-8.0
UncalGyro,1676595040077,32096899094063,0.32055154,0.7307475,-1.5711454,-0.00027828955,-0.0017051809,-0.000334872
UncalMag,1676595040079,32096901418608,-172.6788,787.571,387.4476,-177.00775,769.7961,430.15182
UncalAccel,1676595040081,32096903331765,0.7178468,1.753939,7.3513494,0.037048545,-0.031444572,0.0098014325
OrientationDeg,1676595040081,32096903331765,344.0,-3.0,-8.0
UncalGyro,1676595040085,32096907570443,0.7086037,1.1421653,-1.6555976,-0.00027828955,-0.0017051809,-0.000334872
UncalMag,1676595040089,32096911403919,-173.05699,786.5096,387.4476,-177.00775,769.7961,430.15182
UncalAccel,1676595040089,32096911810403,2.2127628,0.92183495,6.3009005,0.037048545,-0.031444572,0.0098014325
OrientationDeg,1676595040089,32096911810403,345.0,-2.0,-9.0
UncalGyro,1676595040094,32096916043822,1.0922271,1.3164146,-1.5754215,-0.00027828955,-0.0017051809,-0.000334872
UncalAccel,1676595040098,32096920295815,2.85045,1.2179468,6.498906,0.037048545,-0.031444572,0.0098014325
UncalMag,1676595040099,32096921411203,-172.73979,786.6682,386.6302,-177.00775,769.7961,430.15182
OrientationDeg,1676595040098,32096920295815,346.0,-2.0,-9.0
Status,0,32,0,3,15,1602000000,41.95,304.0,80.0,1,1,1,38.35083
Status,0,32,1,1,11,1176450050,40.95,108.0,77.0,1,1,1,37.34545
Status,0,32,2,1,11,1575420030,42.47,108.0,77.0,1,1,1,38.865498
Status,0,32,3,6,2,1176450050,38.98,115.0,74.0,1,1,1,35.38007
Status,0,32,4,6,2,1575420030,41.13,115.0,74.0,1,1,1,37.533432
Status,0,32,5,3,17,1604249980,44.28,332.0,71.0,1,1,1,40.678032
Status,0,32,6,1,12,1575420030,46.97,329.0,68.0,1,1,1,43.366295
Status,0,32,7,6,34,1176450050,30.11,209.0,62.0,1,1,1,26.51427
Status,0,32,8,6,34,1575420030,42.54,209.0,62.0,1,1,1,38.94106
Status,0,32,9,6,36,1575420030,41.33,48.0,60.0,1,1,1,37.731697
Status,0,32,10,6,36,1176450050,35.33,48.0,60.0,1,1,1,31.733877
Status,0,32,11,6,30,1575420030,43.98,316.0,48.0,1,1,1,40.3837
Status,0,32,12,6,30,1176450050,34.51,316.0,48.0,1,1,1,30.910624
Status,0,32,13,3,14,1598062460,36.75,155.0,42.0,1,1,1,33.15104
Status,0,32,14,1,6,1176450050,35.46,46.0,41.0,1,1,1,31.85559
Status,0,32,15,1,6,1575420030,43.53,46.0,41.0,1,1,1,39.932327
Status,0,32,16,3,18,1600312450,43.14,243.0,39.0,1,1,1,39.53549
Status,0,32,17,1,25,1575420030,46.66,313.0,38.0,1,1,1,43.062572
Status,0,32,18,1,25,1176450050,39.66,313.0,38.0,1,1,1,36.055267
Status,0,32,19,1,24,1575420030,41.87,216.0,35.0,1,1,1,38.267166
Status,0,32,20,1,24,1176450050,39.34,216.0,35.0,1,1,1,35.742233
Status,0,32,21,1,20,1575420030,37.97,140.0,29.0,1,1,1,34.369465
Status,0,32,22,3,24,1603124990,43.19,35.0,27.0,1,1,1,39.587173
Status,0,32,23,3,16,1601437440,50.20,328.0,25.0,1,1,1,46.603203
Status,0,32,24,1,19,1575420030,39.77,63.0,23.0,1,1,1,36.170376
Status,0,32,25,6,25,1575420030,36.91,128.0,23.0,1,1,1,33.312088
Status,0,32,26,6,25,1176450050,32.16,128.0,23.0,1,1,1,28.56322
Status,0,32,27,1,29,1575420030,45.92,267.0,17.0,1,1,1,42.322712
Status,0,32,28,1,2,1575420030,33.94,218.0,14.0,1,1,1,30.3405
Status,0,32,29,6,11,1575420030,36.36,41.0,12.0,1,1,1,32.759567
Status,0,32,30,6,15,1575420030,44.48,217.0,11.0,1,1,1,40.883877
Status,0,32,31,6,15,1176450050,43.35,217.0,11.0,1,1,1,39.7512
UncalGyro,1676595040102,32096924536935,1.416902,1.3387111,-1.415222,-0.00027828955,-0.0017051809,-0.000334872
Fix,GPS,37.4311470860,-122.1551493746,-8.916480110624464,0.09304725,3.178897,341.77618,1676595039999,0.09997896,180.0,32096834348000,3.0
Raw,1676595039999,277066000000,,,-1360629980933639662,0.0,7.424244691726526,183.0,1.0,60,2,0.0,16431,435057919182954,29,32.911468505859375,-575.244110181472,0.6339978621994451,16,-159809.51357718743,340282346638528860000000000000000000000,1575420030,,,,0,,1,,29.31146812438965,0.0,1.0,0.0,1.0,C,32096834348000
Raw,1676595039999,277066000000,,,-1360629980933639662,0.0,7.424244691726526,183.0,1.0,60,6,0.0,16431,435057926913708,20,37.16782760620117,547.6133945135166,0.15,16,149750.65185925222,340282346638528860000000000000000000000,1575420030,,,,0,,1,,33.56782913208008,0.320142130558394,1.0,0.320142130558394,1.0,C,32096834348000
Raw,1676595039999,277066000000,,,-1360629980933639662,0.0,7.424244691726526,183.0,1.0,60,11,0.0,16431,435057931698239,18,38.73355484008789,43.631760137205646,0.15,16,8528.776484940217,340282346638528860000000000000000000000,1575420030,,,,0,,1,,35.1335563659668,-0.20372681261465636,1.0,-0.20372681261465636,1.0,C,32096834348000
Raw,1676595039999,277066000000,,,-1360629980933639662,0.0,7.424244691726526,183.0,1.0,60,12,0.0,16431,435057931448431,11,46.620216369628906,-175.7846831945143,0.15,16,-50729.995442738546,340282346638528860000000000000000000000,1575420030,,,,0,,1,,43.02021789550781,-0.6984919076624261,1.0,-0.6984919076624261,1.0,C,32096834348000
Raw,1676595039999,277066000000,,,-1360629980933639662,0.0,7.424244691726526,183.0,1.0,60,19,0.0,16431,435057922473013,26,33.96189880371094,568.6229454352422,0.5837553953047783,16,157907.2947333472,340282346638528860000000000000000000000,1575420030,,,,0,,1,,30.361900329589844,0.0,1.0,0.0,1.0,C,32096834348000
Raw,1676595039999,277066000000,,,-1360629980933639662,0.0,7.424244691726526,183.0,1.0,60,20,0.0,16431,435057923457582,37,29.8957576751709,-463.6724962399869,0.7667824471393354,16,-129025.93763212871,340282346638528860000000000000000000000,1575420030,,,,0,,1,,26.295757293701172,0.0,1.0,0.0,1.0,C,32096834348000
Raw,1676595039999,277066000000,,,-1360629980933639662,0.0,7.424244691726526,183.0,1.0,60,24,0.0,16431,435057924219009,14,41.585594177246094,594.357483634551,0.15,16,163293.27049244175,340282346638528860000000000000000000000,1575420030,,,,0,,1,,37.985595703125,-0.20372681261465636,1.0,-0.20372681261465636,1.0,C,32096834348000
Raw,1676595039999,277066000000,,,-1360629980933639662,0.0,7.424244691726526,183.0,1.0,60,25,0.0,16431,435057927008866,13,45.11012268066406,-456.1080995094883,0.15,16,-127003.72314070174,340282346638528860000000000000000000000,1575420030,,,,0,,1,,41.51012420654297,-2.0372682255564105,1.0,-2.0372682255564105,1.0,C,32096834348000
Raw,1676595039999,277066000000,,,-1360629980933639662,0.0,7.424244691726526,183.0,1.0,60,29,0.0,16431,435057918894216,12,45.92271041870117,-431.6434054753063,0.15,16,-119257.48358085712,340282346638528860000000000000000000000,1575420030,,,,0,,1,,42.32271194458008,-0.6984919076624261,1.0,-0.6984919076624261,1.0,C,32096834348000
Raw,1676595039999,277066000000,,,-1360629980933639662,0.0,7.424244691726526,183.0,1.0,60,6,0.0,81921,435057926914222,13,31.489398956298828,547.4777463365558,0.6957398963729635,16,151419.28036763487,340282346638528860000000000000000000000,1176450050,,,,0,,1,,27.8893985748291,1.9208527336454408,1.5893258788454299,1.9208527336454408,1.0,Q,32096834348000
Raw,1676595039999,277066000000,,,-1360629980933639662,0.0,7.424244691726526,183.0,1.0,60,11,0.0,81921,435057931698758,6,40.94544982910156,43.558866283317485,0.15,16,8568.51330540226,340282346638528860000000000000000000000,1176450050,,,,0,,1,,37.34545135498047,0.0,1.5893258788454299,0.0,1.0,Q,32096834348000
Raw,1676595039999,277066000000,,,-1360629980933639662,0.0,7.424244691726526,183.0,1.0,60,24,0.0,81921,435057924219523,11,37.05187225341797,593.8057568283598,0.15,16,165068.14014251134,340282346638528860000000000000000000000,1176450050,,,,0,,1,,33.451873779296875,3.5215636101095664,1.5893258788454299,3.5215636101095664,1.0,Q,32096834348000
Raw,1676595039999,277066000000,,,-1360629980933639662,0.0,7.424244691726526,183.0,1.0,60,25,0.0,81921,435057927009370,6,39.351898193359375,-456.1358767115544,0.15,16,-127031.33644708381,340282346638528860000000000000000000000,1176450050,,,,0,,1,,35.75189971923828,1.0186341127782053,1.5893258788454299,1.0186341127782053,1.0,Q,32096834348000
Raw,1676595039999,277066000000,,,-1360629980933639662,0.0,7.424244691726526,183.0,1.0,60,14,0.0,32995,13839930221721,128,23.14373207092285,670.3750628279404,1.0716301836811013,16,183275.09003029045,340282346638528860000000000000000000000,1598062460,,,,0,,3,,19.543731689453125,52.1540641784668,2.0000000474974513,52.1540641784668,2.0000000474974513,C,32096834348000
Raw,1676595039999,277066000000,,,-1360629980933639662,0.0,7.424244691726526,183.0,1.0,60,18,0.0,32995,13839929641261,34,39.553466796875,-398.86289879166725,0.15,16,-112631.11497350279,340282346638528860000000000000000000000,1600312450,,,,0,,3,,35.953468322753906,52.1540641784668,2.0000000474974513,52.1540641784668,2.0000000474974513,C,32096834348000
Raw,1676595039999,277066000000,,,-1360629980933639662,0.0,7.424244691726526,183.0,1.0,60,16,0.0,32995,13839925708724,33,49.04316329956055,-661.750224545191,0.15,16,-183684.77124163663,340282346638528860000000000000000000000,1601437440,,,,0,,3,,45.44316482543945,52.1540641784668,2.0000000474974513,52.1540641784668,2.0000000474974513,C,32096834348000
Raw,1676595039999,277066000000,,,-1360629980933639662,0.0,7.424244691726526,183.0,1.0,60,15,0.0,32995,13839935611356,33,39.941566467285156,-49.999445133661226,0.15,16,-18602.27387673831,340282346638528860000000000000000000000,1602000000,,,,0,,3,,36.34156799316406,52.1540641784668,2.0000000474974513,52.1540641784668,2.0000000474974513,C,32096834348000
Raw,1676595039999,277066000000,,,-1360629980933639662,0.0,7.424244691726526,183.0,1.0,60,24,0.0,32867,13839926380318,42,36.82239532470703,703.1642264555362,0.15,16,195214.06937475962,340282346638528860000000000000000000000,1603124990,,,,0,,3,,33.22239685058594,52.1540641784668,2.0000000474974513,52.1540641784668,2.0000000474974513,C,32096834348000
Raw,1676595039999,277066000000,,,-1360629980933639662,0.0,7.424244691726526,183.0,1.0,60,17,0.0,32995,13839935448273,33,43.02729797363281,195.63139182336636,0.15,16,51099.1891434588,340282346638528860000000000000000000000,1604249980,,,,0,,3,,39.42729949951172,52.1540641784668,2.0000000474974513,52.1540641784668,2.0000000474974513,C,32096834348000
Raw,1676595039999,277066000000,,,-1360629980933639662,0.0,7.424244691726526,183.0,1.0,60,2,0.0,85026,435057921504317,18,38.34246826171875,173.33078040732846,0.15,16,46671.989644860725,340282346638528860000000000000000000000,1575420030,,,,0,,6,,34.742469787597656,-5.878973752260207,1.5000000237487257,-5.878973752260207,1.5000000237487257,C,32096834348000
Raw,1676595039999,277066000000,,,-1360629980933639662,0.0,7.424244691726526,183.0,1.0,60,11,0.0,85026,435057908286837,33,31.183395385742188,590.6718067861743,0.7090279938116879,16,162773.98766670036,340282346638528860000000000000000000000,1575420030,,,,1,,6,,27.58339500427246,-5.878973752260207,1.5000000237487257,-5.878973752260207,1.5000000237487257,C,32096834348000
Raw,1676595039999,277066000000,,,-1360629980933639662,0.0,7.424244691726526,183.0,1.0,60,15,0.0,85026,435057907360778,12,43.636863708496094,-497.2086450671932,0.15,16,-137296.72504876016,340282346638528860000000000000000000000,1575420030,,,,0,,6,,40.036865234375,-5.878973752260207,1.5000000237487257,-5.878973752260207,1.5000000237487257,C,32096834348000
Raw,1676595039999,277066000000,,,-1360629980933639662,0.0,7.424244691726526,183.0,1.0,60,25,0.0,85026,435057910669280,37,29.93073081970215,511.893787191633,0.7657874657376822,16,140653.8557090406,340282346638528860000000000000000000000,1575420030,,,,0,,6,,26.330730438232422,-5.878973752260207,1.5000000237487257,-5.878973752260207,1.5000000237487257,C,32096834348000
Raw,1676595039999,277066000000,,,-1360629980933639662,0.0,7.424244691726526,183.0,1.0,60,30,0.0,85026,435057916542180,13,42.56842803955078,-295.3501498599137,0.15,16,-82024.81479472655,340282346638528860000000000000000000000,1575420030,,,,0,,6,,38.96842956542969,-5.878973752260207,1.5000000237487257,-5.878973752260207,1.5000000237487257,C,32096834348000
Raw,1676595039999,277066000000,,,-1360629980933639662,0.0,7.424244691726526,183.0,1.0,60,34,0.0,85026,435057920162633,13,42.54105758666992,-222.88777987133176,0.15,16,-63640.28351191002,340282346638528860000000000000000000000,1575420030,,,,0,,6,,38.94105911254883,-5.878973752260207,1.5000000237487257,-5.878973752260207,1.5000000237487257,C,32096834348000
Raw,1676595039999,277066000000,,,-1360629980933639662,0.0,7.424244691726526,183.0,1.0,60,36,0.0,85026,435057919880561,17,39.572696685791016,306.75260610190253,0.15,16,83559.35460108434,340282346638528860000000000000000000000,1575420030,,,,0,,6,,35.97269821166992,-5.878973752260207,1.5000000237487257,-5.878973752260207,1.5000000237487257,C,32096834348000
Raw,1676595039999,277066000000,,,-1360629980933639662,0.0,7.424244691726526,183.0,1.0,60,2,0.0,84003,435057921504852,7,38.18511962890625,173.12582555502854,0.15,16,46751.41813579732,340282346638528860000000000000000000000,1176450050,,,,0,,6,,34.585121154785156,-4.216632805764675,2.0893259025941555,-4.216632805764675,1.5000000237487257,Q,32096834348000
Raw,1676595039999,277066000000,,,-1360629980933639662,0.0,7.424244691726526,183.0,1.0,60,11,0.0,16384,435057908287323,1000000000,10.600000381469727,590.6465857683474,299792458,16,163315.47566450157,340282346638528860000000000000000000000,1176450050,,,,0,,6,,7.0,5.203299224376676,2.0893259025941555,5.203299224376676,1.5000000237487257,Q,32096834348000
Raw,1676595039999,277066000000,,,-1360629980933639662,0.0,7.424244691726526,183.0,1.0,60,15,0.0,84003,435057907361247,8,43.351200103759766,-497.48801896331065,0.15,16,-136891.38787014128,340282346638528860000000000000000000000,1176450050,,,,0,,6,,39.75120162963867,-11.050701141357418,2.0893259025941555,-11.050701141357418,1.5000000237487257,Q,32096834348000
Raw,1676595039999,277066000000,,,-1360629980933639662,0.0,7.424244691726526,183.0,1.0,60,25,0.0,84003,435057910669722,25,27.93686866760254,511.59679266549324,0.8561687484850458,16,141069.4304714222,340282346638528860000000000000000000000,1176450050,,,,0,,6,,24.336868286132812,-8.649541996419428,2.0893259025941555,-8.649541996419428,1.5000000237487257,Q,32096834348000
Raw,1676595039999,277066000000,,,-1360629980933639662,0.0,7.424244691726526,183.0,1.0,60,30,0.0,84003,435057916542705,15,31.706104278564453,-295.44254739954704,0.6877268578887188,16,-83019.34646635581,340282346638528860000000000000000000000,1176450050,,,,0,,6,,28.106103897094727,-8.2801328971982,2.0893259025941555,-8.2801328971982,1.5000000237487257,Q,32096834348000
Raw,1676595039999,277066000000,,,-1360629980933639662,0.0,7.424244691726526,183.0,1.0,60,34,0.0,84003,435057920163136,28,29.063453674316406,-223.33339094913924,0.8072150910449456,16,-63980.27399190309,340282346638528860000000000000000000000,1176450050,,,,0,,6,,25.46345329284668,-9.942473843693731,2.0893259025941555,-9.942473843693731,1.5000000237487257,Q,32096834348000
Raw,1676595039999,277066000000,,,-1360629980933639662,0.0,7.424244691726526,183.0,1.0,60,36,0.0,84003,435057919881063,7,33.999366760253906,306.6437808182252,0.5852019026880608,16,83990.42064625326,340282346638528860000000000000000000000,1176450050,,,,0,,6,,30.399368286132812,-10.865996591746804,2.0893259025941555,-10.865996591746804,1.5000000237487257,Q,32096834348000
UncalAccel,1676595040106,32096928780181,3.6819558,1.2035898,6.6568327,0.037048545,-0.031444572,0.0098014325
UncalMag,1676595040109,32096931421783,-171.67839,785.19196,386.25198,-177.00775,769.7961,430.15182
OrientationDeg,1676595040106,32096928780181,346.0,-1.0,-10.0
UncalGyro,1676595040111,32096933017934,1.653765,1.2961034,-1.1690434,-0.00027828955,-0.0017051809,-0.000334872
Fix,FLP,37.4311569000,-122.1551407000,-16.200000762939453,0.20354815,4.203,19.644547,1676595039865,,,32096687060713,2.1109688
UncalAccel,1676595040116,32096937257445,4.156931,1.0666007,7.204789,0.037048545,-0.031444572,0.0098014325
OrientationDeg,1676595040115,32096937257445,347.0,0.0,-11.0
UncalMag,1676595040119,32096941421539,-171.0928,784.338,386.5204,-177.00775,769.7961,430.15182
UncalGyro,1676595040119,32096941496490,1.8477147,1.2741122,-0.8906415,-0.00027828955,-0.0017051809,-0.000334872
UncalAccel,1676595040123,32096945728139,4.371089,1.2203395,7.8592257,0.037048545,-0.031444572,0.0098014325
OrientationDeg,1676595040123,32096945728139,347.0,0.0,-12.0
UncalGyro,1676595040127,32096949980590,2.0349448,1.3466524,-0.63529986,-0.00027828955,-0.0017051809,-0.000334872
UncalMag,1676595040129,32096951421539,-171.36119,783.3742,386.30078,-177.00775,769.7961,430.15182
UncalAccel,1676595040132,32096954220163,3.6819558,1.8095721,8.13799,0.037048545,-0.031444572,0.0098014325
OrientationDeg,1676595040132,32096954220163,348.0,0.0,-13.0
UncalGyro,1676595040136,32096958464955,2.1442897,1.4220943,-0.4792238,-0.00027828955,-0.0017051809,-0.000334872
UncalMag,1676595040139,32096961418488,-170.739,783.362,385.55658,-177.00775,769.7961,430.15182
UncalAccel,1676595040140,32096962702046,2.4939194,2.361716,8.581261,0.037048545,-0.031444572,0.0098014325
OrientationDeg,1676595040140,32096962702046,348.0,1.0,-14.0
UncalGyro,1676595040144,32096966937307,2.0998492,1.237613,-0.47403142,-0.00027828955,-0.0017051809,-0.000334872
UncalAccel,1676595040149,32096971168142,0.8997013,3.219543,8.256434,0.037048545,-0.031444572,0.0098014325
UncalMag,1676595040149,32096971405955,-170.068,782.4104,385.4346,-177.00775,769.7961,430.15182
OrientationDeg,1676595040149,32096971168142,348.0,1.0,-15.0
UncalGyro,1676595040153,32096975424236,1.7255416,0.4653266,-0.63499445,-0.00027828955,-0.0017051809,-0.000334872
UncalAccel,1676595040157,32096979664103,-1.2071791,3.562913,9.582657,0.037048545,-0.031444572,0.0098014325
OrientationDeg,1676595040157,32096979664103,348.0,1.0,-16.0
UncalMag,1676595040159,32096981421621,-169.2994,781.227,385.9714,-177.00775,769.7961,430.15182
UncalGyro,1676595040161,32096983906708,0.93279123,-0.50961435,-0.9631818,-0.00027828955,-0.0017051809,-0.000334872
UncalAccel,1676595040166,32096988145274,-1.5337993,4.156931,11.233705,0.037048545,-0.031444572,0.0098014325
OrientationDeg,1676595040166,32096988145274,349.0,1.0,-16.0
UncalMag,1676595040169,32096991421784,-170.6536,781.3734,386.0446,-177.00775,769.7961,430.15182
UncalGyro,1676595040170,32096992387218,-0.021685716,-0.98715824,-1.3849843,-0.00027828955,-0.0017051809,-0.000334872
UncalAccel,1676595040174,32096996628479,-0.60598236,4.855037,12.663416,0.037048545,-0.031444572,0.0098014325
OrientationDeg,1676595040174,32096996628479,350.0,1.0,-16.0
UncalGyro,1676595040178,32097000868246,-0.72494435,-0.84329945,-1.7704402,-0.00027828955,-0.0017051809,-0.000334872
UncalMag,1676595040179,32097001411042,-170.5316,781.6418,385.98358,-177.00775,769.7961,430.15182
UncalAccel,1676595040183,32097005108136,0.8955139,4.619942,12.860226,0.037048545,-0.031444572,0.0098014325
OrientationDeg,1676595040183,32097005108136,351.0,1.0,-15.0
UncalGyro,1676595040187,32097009349529,-1.1728612,-0.46670106,-2.0448713,-0.00027828955,-0.0017051809,-0.000334872
UncalMag,1676595040189,32097011417350,-171.51979,782.4714,385.6054,-177.00775,769.7961,430.15182
UncalAccel,1676595040191,32097013591351,2.1421745,3.751946,12.476177,0.037048545,-0.031444572,0.0098014325
OrientationDeg,1676595040191,32097013591351,352.0,1.0,-14.0
UncalGyro,1676595040195,32097017838919,-1.5149459,-0.15042557,-2.2020166,-0.00027828955,-0.0017051809,-0.000334872
UncalMag,1676595040199,32097021421622,-171.9102,782.9106,385.9592,-177.00775,769.7961,430.15182
UncalAccel,1676595040200,32097022070456,2.6039891,2.7589245,12.183655,0.037048545,-0.031444572,0.0098014325
OrientationDeg,1676595040200,32097022070456,353.0,1.0,-13.0
UncalGyro,1676595040204,32097026312227,-1.8148806,0.082161374,-2.2576053,-0.00027828955,-0.0017051809,-0.000334872
UncalAccel,1676595040208,32097030550223,2.5399811,1.6522441,11.888141,0.037048545,-0.031444572,0.0098014325
UncalMag,1676595040209,32097031420321,-172.1908,783.6304,386.61798,-177.00775,769.7961,430.15182
OrientationDeg,1676595040208,32097030550223,354.0,2.0,-12.0
UncalGyro,1676595040212,32097034791374,-2.0438025,0.29993483,-2.2346978,-0.00027828955,-0.0017051809,-0.000334872
UncalAccel,1676595040217,32097039033316,2.3042881,0.90448695,11.350952,0.037048545,-0.031444572,0.0098014325
OrientationDeg,1676595040217,32097039033316,355.0,2.0,-11.0
UncalMag,1676595040219,32097041421786,-172.31279,785.0212,386.5936,-177.00775,769.7961,430.15182
UncalGyro,1676595040221,32097043274508,-2.1870503,0.50808716,-2.164601,-0.00027828955,-0.0017051809,-0.000334872
UncalAccel,1676595040225,32097047515026,2.0811574,0.50129634,10.76471,0.037048545,-0.031444572,0.0098014325
OrientationDeg,1676595040225,32097047515026,356.0,2.0,-10.0
UncalMag,1676595040229,32097051421542,-172.0322,786.2412,386.5204,-177.00775,769.7961,430.15182
UncalGyro,1676595040229,32097051753583,-2.2495112,0.68615437,-2.065488,-0.00027828955,-0.0017051809,-0.000334872
UncalAccel,1676595040233,32097055982536,1.8687944,0.04127619,10.097114,0.037048545,-0.031444572,0.0098014325
OrientationDeg,1676595040233,32097055982536,357.0,3.0,-9.0
UncalGyro,1676595040238,32097060227155,-2.223244,0.80649483,-1.9343048,-0.00027828955,-0.0017051809,-0.000334872
UncalMag,1676595040239,32097061411003,-172.4836,787.2904,387.0206,-177.00775,769.7961,430.15182
UncalAccel,1676595040242,32097064476108,1.5846468,-0.5341976,9.468399,0.037048545,-0.031444572,0.0098014325
OrientationDeg,1676595040242,32097064476108,358.0,3.0,-8.0
UncalGyro,1676595040246,32097068713534,-2.1109977,0.87369,-1.7687603,-0.00027828955,-0.0017051809,-0.000334872
UncalMag,1676595040249,32097071421583,-171.51979,787.74176,386.862,-177.00775,769.7961,430.15182
UncalAccel,1676595040250,32097072961124,1.3082758,-0.994816,9.005986,0.037048545,-0.031444572,0.0098014325
OrientationDeg,1676595040250,32097072961124,359.0,4.0,-7.0
UncalGyro,1676595040255,32097077199811,-1.9295706,0.9068295,-1.5838208,-0.00027828955,-0.0017051809,-0.000334872
UncalMag,1676595040259,32097081421624,-171.776,788.7422,388.1918,-177.00775,769.7961,430.15182
UncalAccel,1676595040259,32097081443982,1.0103694,-1.2598212,8.705089,0.037048545,-0.031444572,0.0098014325
OrientationDeg,1676595040259,32097081443982,359.0,4.0,-6.0
UncalGyro,1676595040263,32097085692060,-1.707063,0.9034697,-1.395827,-0.00027828955,-0.0017051809,-0.000334872
UncalAccel,1676595040267,32097089920250,0.6646065,-1.4099708,8.416754,0.037048545,-0.031444572,0.0098014325
OrientationDeg,1676595040267,32097089920250,0.0,5.0,-5.0
UncalMag,1676595040269,32097091411045,-171.8248,789.6816,387.8136,-177.00775,769.7961,430.15182
UncalGyro,1676595040272,32097094159071,-1.4840971,0.83092946,-1.2140946,-0.00027828955,-0.0017051809,-0.000334872
UncalAccel,1676595040277,32097098397709,0.20219351,-1.4554343,8.223534,0.037048545,-0.031444572,0.0098014325
OrientationDeg,1676595040276,32097098397709,0.0,5.0,-4.0
UncalMag,1676595040279,32097101421787,-171.8004,790.07196,388.875,-177.00775,769.7961,430.15182
UncalGyro,1676595040280,32097102644678,-1.2767084,0.6800457,-1.0592403,-0.00027828955,-0.0017051809,-0.000334872
UncalAccel,1676595040284,32097106884148,-0.32961133,-1.3393825,8.267202,0.037048545,-0.031444572,0.0098014325
OrientationDeg,1676595040284,32097106884148,1.0,6.0,-4.0
UncalGyro,1676595040289,32097111121819,-1.0888673,0.4831944,-0.95294976,-0.00027828955,-0.0017051809,-0.000334872
UncalMag,1676595040289,32097111411167,-171.5564,790.6698,388.4114,-177.00775,769.7961,430.15182
UncalAccel,1676595040293,32097115352909,-0.80997044,-1.146162,8.382656,0.037048545,-0.031444572,0.0098014325
OrientationDeg,1676595040293,32097115352909,1.0,6.0,-3.0
UncalGyro,1676595040297,32097119618066,-0.9082039,0.26557365,-0.90224797,-0.00027828955,-0.0017051809,-0.000334872
UncalMag,1676595040299,32097121421462,-171.6418,791.0114,388.4968,-177.00775,769.7961,430.15182
UncalAccel,1676595040301,32097123843358,-1.2239288,-0.9810573,8.656036,0.037048545,-0.031444572,0.0098014325
OrientationDeg,1676595040301,32097123843358,2.0,6.0,-3.0
UncalGyro,1676595040306,32097128091598,-0.7244862,0.05513059,-0.892016,-0.00027828955,-0.0017051809,-0.000334872
UncalMag,1676595040309,32097131421707,-171.49539,791.6336,388.52118,-177.00775,769.7961,430.15182
UncalAccel,1676595040310,32097132325820,-1.3938192,-0.9206385,8.940782,0.037048545,-0.031444572,0.0098014325
OrientationDeg,1676595040310,32097132325820,2.0,6.0,-2.0
UncalGyro,1676595040314,32097136571527,-0.5314528,-0.12889257,-0.89812464,-0.00027828955,-0.0017051809,-0.000334872
UncalAccel,1676595040318,32097140806198,-1.2813566,-1.0211371,9.309277,0.037048545,-0.031444572,0.0098014325
OrientationDeg,1676595040318,32097140806198,2.0,6.0,-2.0
UncalMag,1676595040319,32097141415237,-171.9102,791.7922,388.448,-177.00775,769.7961,430.15182
UncalGyro,1676595040323,32097145040603,-0.3436117,-0.26633725,-0.8944594,-0.00027828955,-0.0017051809,-0.000334872
UncalAccel,1676595040327,32097149294326,-0.99601245,-1.2592229,9.656236,0.037048545,-0.031444572,0.0098014325
OrientationDeg,1676595040327,32097149294326,3.0,6.0,-2.0
UncalMag,1676595040329,32097151421748,-171.99559,792.09717,389.973,-177.00775,769.7961,430.15182
UncalGyro,1676595040331,32097153531651,-0.17150041,-0.35934147,-0.8541423,-0.00027828955,-0.0017051809,-0.000334872
UncalAccel,1676595040335,32097157774073,-0.6095716,-1.5260227,9.989436,0.037048545,-0.031444572,0.0098014325
OrientationDeg,1676595040335,32097157774073,3.0,6.0,-2.0
UncalMag,1676595040339,32097161418696,-172.5202,792.0606,389.0092,-177.00775,769.7961,430.15182
UncalGyro,1676595040340,32097162011195,-0.024129177,-0.40485093,-0.77014834,-0.00027828955,-0.0017051809,-0.000334872
UncalAccel,1676595040344,32097166250565,-0.21954148,-1.6199409,10.331012,0.037048545,-0.031444572,0.0098014325
OrientationDeg,1676595040344,32097166250565,3.0,5.0,-2.0
UncalGyro,1676595040348,32097170494939,0.09987647,-0.40576723,-0.64675355,-0.00027828955,-0.0017051809,-0.000334872
UncalMag,1676595040349,32097171411250,-173.0326,792.2314,389.05798,-177.00775,769.7961,430.15182
UncalAccel,1676595040352,32097174733628,0.0035892338,-1.599602,10.590633,0.037048545,-0.031444572,0.0098014325
OrientationDeg,1676595040352,32097174733628,4.0,5.0,-2.0
UncalGyro,1676595040356,32097178976150,0.20051652,-0.3717115,-0.49953505,-0.00027828955,-0.0017051809,-0.000334872
UncalMag,1676595040359,32097181421626,-173.362,791.841,388.1308,-177.00775,769.7961,430.15182
UncalAccel,1676595040361,32097183214829,0.005383851,-1.4279169,10.818549,0.037048545,-0.031444572,0.0098014325
OrientationDeg,1676595040361,32097183214829,4.0,5.0,-2.0
UncalGyro,1676595040365,32097187456823,0.26939157,-0.31978795,-0.35918877,-0.00027828955,-0.0017051809,-0.000334872
UncalMag,1676595040369,32097191421789,-173.5694,791.9508,388.7652,-177.00775,769.7961,430.15182
UncalAccel,1676595040369,32097191694545,-0.14656039,-1.1222339,11.08834,0.037048545,-0.031444572,0.0098014325
OrientationDeg,1676595040369,32097191694545,4.0,5.0,-2.0
UncalGyro,1676595040373,32097195930660,0.29611692,-0.25152376,-0.25030205,-0.00027828955,-0.0017051809,-0.000334872
UncalAccel,1676595040378,32097200176051,-0.35114673,-0.8033902,11.352747,0.037048545,-0.031444572,0.0098014325
OrientationDeg,1676595040378,32097200176051,4.0,5.0,-2.0
UncalMag,1676595040379,32097201411373,-173.6792,791.7556,388.2406,-177.00775,769.7961,430.15182
UncalGyro,1676595040382,32097204410091,0.28496864,-0.17516561,-0.17852537,-0.00027828955,-0.0017051809,-0.000334872
UncalAccel,1676595040386,32097208664618,-0.4534399,-0.57906306,11.503495,0.037048545,-0.031444572,0.0098014325
OrientationDeg,1676595040386,32097208664618,4.0,5.0,-2.0
UncalMag,1676595040389,32097211411170,-173.26439,791.8532,388.3748,-177.00775,769.7961,430.15182
UncalGyro,1676595040390,32097212900407,0.25381452,-0.06963864,-0.13500121,-0.00027828955,-0.0017051809,-0.000334872
UncalAccel,1676595040395,32097217142971,-0.41994038,-0.43489552,11.374283,0.037048545,-0.031444572,0.0098014325
OrientationDeg,1676595040395,32097217142971,4.0,5.0,-2.0
UncalGyro,1676595040399,32097221380184,0.2182316,0.060628377,-0.10888673,-0.00027828955,-0.0017051809,-0.000334872
UncalMag,1676595040399,32097221408729,-173.5694,791.8532,388.74078,-177.00775,769.7961,430.15182
UncalAccel,1676595040403,32097225618252,-0.3074777,-0.32303107,10.992627,0.037048545,-0.031444572,0.0098014325
OrientationDeg,1676595040403,32097225618252,4.0,5.0,-2.0
UncalGyro,1676595040407,32097229863633,0.19120082,0.18371773,-0.0917825,-0.00027828955,-0.0017051809,-0.000334872
UncalMag,1676595040409,32097231421546,-173.484,791.65796,387.8502,-177.00775,769.7961,430.15182
UncalAccel,1676595040412,32097234104367,-0.22791636,-0.17347965,10.462019,0.037048545,-0.031444572,0.0098014325
OrientationDeg,1676595040412,32097234104367,5.0,5.0,-2.0
UncalGyro,1676595040416,32097238346533,0.17592919,0.2640465,-0.081855945,-0.00027828955,-0.0017051809,-0.000334872
UncalMag,1676595040419,32097241421506,-173.37419,791.6946,389.18,-177.00775,769.7961,430.15182
UncalAccel,1676595040420,32097242584246,-0.2973082,0.028115666,10.012168,0.037048545,-0.031444572,0.0098014325
OrientationDeg,1676595040420,32097242584246,5.0,5.0,-3.0
UncalGyro,1676595040424,32097246825568,0.16050485,0.29428434,-0.08323039,-0.00027828955,-0.0017051809,-0.000334872
UncalAccel,1676595040429,32097251065243,-0.42951167,0.119042926,9.734002,0.037048545,-0.031444572,0.0098014325
UncalMag,1676595040429,32097251426633,-174.155,790.7796,388.143,-177.00775,769.7961,430.15182
OrientationDeg,1676595040429,32097251065243,5.0,5.0,-3.0
UncalGyro,1676595040433,32097255305763,0.1337795,0.2883284,-0.1001819,-0.00027828955,-0.0017051809,-0.000334872
UncalAccel,1676595040437,32097259541837,-0.5479564,0.19501504,9.513265,0.037048545,-0.031444572,0.0098014325
UncalMag,1676595040439,32097261421750,-173.4962,791.4994,388.5334,-177.00775,769.7961,430.15182
OrientationDeg,1676595040437,32097259541837,5.0,5.0,-3.0
UncalGyro,1676595040441,32097263787218,0.10476339,0.27458394,-0.12935072,-0.00027828955,-0.0017051809,-0.000334872
UncalAccel,1676595040446,32097268022458,-0.5706882,0.22851457,9.326625,0.037048545,-0.031444572,0.0098014325
OrientationDeg,1676595040446,32097268022458,5.0,5.0,-3.0
UncalMag,1676595040449,32097271421710,-173.3132,790.987,388.6554,-177.00775,769.7961,430.15182
UncalGyro,1676595040450,32097272265307,0.09056077,0.26908615,-0.16310102,-0.00027828955,-0.0017051809,-0.000334872
UncalAccel,1676595040454,32097276511015,-0.49232325,0.20578274,9.09811,0.037048545,-0.031444572,0.0098014325
OrientationDeg,1676595040454,32097276511015,5.0,6.0,-3.0
UncalGyro,1676595040458,32097280757139,0.09590584,0.26221392,-0.18952094,-0.00027828955,-0.0017051809,-0.000334872
UncalMag,1676595040459,32097281411090,-173.2034,791.17,388.692,-177.00775,769.7961,430.15182
UncalAccel,1676595040462,32097284989083,-0.38524446,0.12023934,8.932407,0.037048545,-0.031444572,0.0098014325
OrientationDeg,1676595040463,32097284989083,5.0,6.0,-3.0
UncalGyro,1676595040467,32097289232389,0.107665,0.2576324,-0.20250183,-0.00027828955,-0.0017051809,-0.000334872
UncalMag,1676595040469,32097291421629,-173.5206,791.03577,387.5818,-177.00775,769.7961,430.15182
UncalAccel,1676595040471,32097293470548,-0.27876383,0.011365907,8.804989,0.037048545,-0.031444572,0.0098014325
OrientationDeg,1676595040471,32097293470548,5.0,6.0,-3.0
UncalGyro,1676595040475,32097297714790,0.12110403,0.25411993,-0.20097467,-0.00027828955,-0.0017051809,-0.000334872
UncalMag,1676595040479,32097301421711,-173.423,790.8894,388.387,-177.00775,769.7961,430.15182
UncalAccel,1676595040479,32097301954629,-0.22971097,-0.017347964,8.705089,0.037048545,-0.031444572,0.0098014325
OrientationDeg,1676595040479,32097301954629,5.0,6.0,-3.0
UncalGyro,1676595040484,32097306194935,0.12935072,0.24098633,-0.19257528,-0.00027828955,-0.0017051809,-0.000334872
UncalAccel,1676595040488,32097310430144,-0.28235307,0.030508488,8.685348,0.037048545,-0.031444572,0.0098014325
OrientationDeg,1676595040488,32097310430144,5.0,6.0,-3.0
UncalMag,1676595040489,32097311411335,-173.0936,791.0724,388.5456,-177.00775,769.7961,430.15182
UncalGyro,1676595040492,32097314674905,0.123242065,0.21700987,-0.1872302,-0.00027828955,-0.0017051809,-0.000334872
UncalAccel,1676595040496,32097318915445,-0.43130627,0.03888337,8.727222,0.037048545,-0.031444572,0.0098014325
OrientationDeg,1676595040496,32097318915445,5.0,6.0,-3.0
UncalMag,1676595040499,32097321410033,-173.0082,790.80396,388.2406,-177.00775,769.7961,430.15182
UncalGyro,1676595040501,32097323155812,0.10323623,0.19349156,-0.19272798,-0.00027828955,-0.0017051809,-0.000334872
UncalAccel,1676595040505,32097327386941,-0.5694918,0.023928227,8.702696,0.037048545,-0.031444572,0.0098014325
OrientationDeg,1676595040505,32097327386941,5.0,6.0,-3.0
UncalMag,1676595040509,32097331421834,-172.7764,791.23096,387.8502,-177.00775,769.7961,430.15182
UncalGyro,1676595040509,32097331640970,0.07925977,0.16539176,-0.20906863,-0.00027828955,-0.0017051809,-0.000334872
UncalAccel,1676595040513,32097335886881,-0.6454639,-0.010169496,8.58784,0.037048545,-0.031444572,0.0098014325
OrientationDeg,1676595040513,32097335886881,6.0,6.0,-3.0
UncalGyro,1676595040518,32097340122771,0.061086524,0.13087788,-0.22937989,-0.00027828955,-0.0017051809,-0.000334872
UncalMag,1676595040519,32097341421752,-173.0204,790.6454,388.67978,-177.00775,769.7961,430.15182
UncalAccel,1676595040522,32097344357350,-0.6299106,-0.02871387,8.4400835,0.037048545,-0.031444572,0.0098014325
