# 
# Header Description:
# 
# Version: v3.0.5.6 Platform: 13 Manufacturer: Google Model: Pixel 7
# 
# Raw,utcTimeMillis,TimeNanos,LeapSecond,TimeUncertaintyNanos,FullBiasNanos,BiasNanos,BiasUncertaintyNanos,DriftNanosPerSecond,DriftUncertaintyNanosPerSecond,HardwareClockDiscontinuityCount,Svid,TimeOffsetNanos,State,ReceivedSvTimeNanos,ReceivedSvTimeUncertaintyNanos,Cn0DbHz,PseudorangeRateMetersPerSecond,PseudorangeRateUncertaintyMetersPerSecond,AccumulatedDeltaRangeState,AccumulatedDeltaRangeMeters,AccumulatedDeltaRangeUncertaintyMeters,CarrierFrequencyHz,CarrierCycles,CarrierPhase,CarrierPhaseUncertainty,MultipathIndicator,SnrInDb,ConstellationType,AgcDb,BasebandCn0DbHz,FullInterSignalBiasNanos,FullInterSignalBiasUncertaintyNanos,SatelliteInterSignalBiasNanos,SatelliteInterSignalBiasUncertaintyNanos,CodeType,ChipsetElapsedRealtimeNanos
# 
# UncalAccel,utcTimeMillis,elapsedRealtimeNanos,UncalAccelXMps2,UncalAccelYMps2,UncalAccelZMps2,BiasXMps2,BiasYMps2,BiasZMps2
# 
# Accel,utcTimeMillis,elapsedRealtimeNanos,AccelXMps2,AccelYMps2,AccelZMps2
# 
# UncalGyro,utcTimeMillis,elapsedRealtimeNanos,UncalGyroXRadPerSec,UncalGyroYRadPerSec,UncalGyroZRadPerSec,DriftXRadPerSec,DriftYRadPerSec,DriftZRadPerSec
# 
# Gyro,utcTimeMillis,elapsedRealtimeNanos,GyroXRadPerSec,GyroYRadPerSec,GyroZRadPerSec
# 
# UncalMag,utcTimeMillis,elapsedRealtimeNanos,UncalMagXMicroT,UncalMagYMicroT,UncalMagZMicroT,BiasXMicroT,BiasYMicroT,BiasZMicroT
# 
# Mag,utcTimeMillis,elapsedRealtimeNanos,MagXMicroT,MagYMicroT,MagZMicroT
# 
# OrientationDeg,utcTimeMillis,elapsedRealtimeNanos,yawDeg,rollDeg,pitchDeg
# 
# Fix,Provider,LatitudeDegrees,LongitudeDegrees,AltitudeMeters,SpeedMps,AccuracyMeters,BearingDegrees,UnixTimeMillis,SpeedAccuracyMps,BearingAccuracyDegrees,elapsedRealtimeNanos,VerticalAccuracyMeters
# 
# Nav,Svid,Type,Status,MessageId,Sub-messageId,Data(Bytes)
# 
# Status,UnixTimeMillis,SignalCount,SignalIndex,ConstellationType,Svid,CarrierFrequencyHz,Cn0DbHz,AzimuthDegrees,ElevationDegrees,UsedInFix,HasAlmanacData,HasEphemerisData,BasebandCn0DbHz
# 
UncalAccel,1676597663751,34720573022447,-0.13399807,-0.011365907,9.774082,0.037048545,-0.031444572,0.0098014325
UncalAccel,1676597663758,34720580810086,-0.13459627,-0.020937199,9.812367,0.037048545,-0.031444572,0.0098014325
UncalMag,1676597663762,34720584663683,-195.566,750.3488,362.1814,550.38293,613.60535,598.6976
UncalAccel,1676597663767,34720589291531,-0.13878371,-0.016151553,9.778868,0.037048545,-0.031444572,0.0098014325
UncalGyro,1676597663771,34720593613250,-0.0013744468,-0.00290161,-0.0009162979,-0.0011417355,-0.0013689935,-0.0006108655
UncalMag,1676597663772,34720594662829,-195.66359,750.5318,362.3522,550.38293,613.60535,598.6976
UncalAccel,1676597663775,34720597767076,-0.13878371,-0.016151553,9.769297,0.037048545,-0.031444572,0.0098014325
UncalGyro,1676597663780,34720602007080,-0.0016798794,-0.003970624,-0.0009162979,-0.0011417355,-0.0013689935,-0.0006108655
UncalMag,1676597663782,34720604673042,-195.66359,750.544,362.9622,550.38293,613.60535,598.6976
UncalAccel,1676597663784,34720606245613,-0.12921242,-0.025722843,9.793225,0.037048545,-0.031444572,0.0098014325
UncalGyro,1676597663788,34720610485968,0.00030543262,-0.00030543262,-0.00015271631,-0.0011417355,-0.0013689935,-0.0006108655
UncalMag,1676597663792,34720614673165,-195.2244,750.8124,362.645,550.38293,613.60535,598.6976
UncalAccel,1676597663792,34720614721412,-0.12921242,-0.020937199,9.778868,0.037048545,-0.031444572,0.0098014325
UncalGyro,1676597663796,34720618951046,0.00061086525,0.00015271631,-0.00045814895,-0.0011417355,-0.0013689935,-0.0006108655
UncalAccel,1676597663801,34720623192625,-0.13399807,-0.016151553,9.774082,0.037048545,-0.031444572,0.0098014325
UncalMag,1676597663802,34720624662992,-195.7612,750.6416,363.21838,550.38293,613.60535,598.6976
UncalGyro,1676597663805,34720627443347,-0.0010690142,-0.0021380284,-0.00015271631,-0.0011417355,-0.0013689935,-0.0006108655
UncalAccel,1676597663809,34720631683154,-0.124426775,-0.020937199,9.778868,0.037048545,-0.031444572,0.0098014325
UncalMag,1676597663812,34720634673206,-195.34639,750.6538,363.4624,550.38293,613.60535,598.6976
UncalGyro,1676597663813,34720635923236,-0.0013744468,-0.0010690142,-0.00076358154,-0.0011417355,-0.0013689935,-0.0006108655
UncalAccel,1676597663818,34720640157753,-0.12921242,-0.020937199,9.788439,0.037048545,-0.031444572,0.0098014325
UncalGyro,1676597663822,34720644394488,-0.00030543262,-0.00061086525,-0.00061086525,-0.0011417355,-0.0013689935,-0.0006108655
UncalMag,1676597663822,34720644660918,-195.8954,750.26337,362.4132,550.38293,613.60535,598.6976
UncalAccel,1676597663826,34720648626788,-0.12921242,-0.016151553,9.769297,0.037048545,-0.031444572,0.0098014325
OrientationDeg,1676597663826,34720648626788,79.0,0.0,0.0
UncalGyro,1676597663830,34720652870879,-0.0012217305,-0.0012217305,-0.0009162979,-0.0011417355,-0.0013689935,-0.0006108655
UncalMag,1676597663832,34720654673125,-195.0658,750.1292,363.0842,550.38293,613.60535,598.6976
UncalAccel,1676597663835,34720657117756,-0.13399807,-0.016151553,9.783653,0.037048545,-0.031444572,0.0098014325
OrientationDeg,1676597663835,34720657117756,79.0,0.0,0.0
UncalGyro,1676597663839,34720661359018,-0.0013744468,-0.0013744468,0.00015271631,-0.0011417355,-0.0013689935,-0.0006108655
UncalMag,1676597663842,34720664673247,-195.7856,750.37317,362.79138,550.38293,613.60535,598.6976
UncalAccel,1676597663843,34720665595295,-0.13399807,-0.011365907,9.788439,0.037048545,-0.031444572,0.0098014325
OrientationDeg,1676597663843,34720665595295,79.0,0.0,0.0
UncalGyro,1676597663847,34720669833311,-0.0021380284,-0.00061086525,-0.00030543262,-0.0011417355,-0.0013689935,-0.0006108655
UncalAccel,1676597663852,34720674071176,-0.12921242,-0.016151553,9.783653,0.037048545,-0.031444572,0.0098014325
OrientationDeg,1676597663852,34720674071176,79.0,0.0,0.0
UncalMag,1676597663852,34720674670359,-195.8344,751.1418,362.4986,550.38293,613.60535,598.6976
UncalGyro,1676597663856,34720678311043,-0.0015271631,-0.0015271631,0.00015271631,-0.0011417355,-0.0013689935,-0.0006108655
UncalAccel,1676597663860,34720682539193,-0.13399807,-0.020937199,9.778868,0.037048545,-0.031444572,0.0098014325
UncalMag,1676597663862,34720684658559,-195.7856,750.26337,362.4132,550.38293,613.60535,598.6976
UncalGyro,1676597663864,34720686789479,-0.0013744468,-0.0016798794,-0.00045814895,-0.0011417355,-0.0013689935,-0.0006108655
OrientationDeg,1676597663860,34720682539193,79.0,0.0,0.0
UncalAccel,1676597663869,34720691026396,-0.12921242,-0.020937199,9.788439,0.037048545,-0.031444572,0.0098014325
OrientationDeg,1676597663869,34720691026396,79.0,0.0,0.0
UncalMag,1676597663872,34720694673126,-195.261,750.2878,362.645,550.38293,613.60535,598.6976
UncalGyro,1676597663873,34720695268900,-0.0013744468,-0.00061086525,-0.00015271631,-0.0011417355,-0.0013689935,-0.0006108655
UncalAccel,1676597663877,34720699504068,-0.13399807,-0.016151553,9.774082,0.037048545,-0.031444572,0.0098014325
OrientationDeg,1676597663877,34720699504068,79.0,0.0,0.0
UncalGyro,1676597663881,34720703746755,-0.0013744468,-0.0022907446,0.0,-0.0011417355,-0.0013689935,-0.0006108655
UncalMag,1676597663882,34720704663401,-195.566,750.4464,362.4498,550.38293,613.60535,598.6976
UncalAccel,1676597663885,34720707979227,-0.13399807,-0.011365907,9.783653,0.037048545,-0.031444572,0.0098014325
OrientationDeg,1676597663885,34720707979227,79.0,0.0,0.0
UncalGyro,1676597663890,34720712206146,-0.0013744468,-0.0018325958,-0.00045814895,-0.0011417355,-0.0013689935,-0.0006108655
UncalMag,1676597663892,34720714670522,-195.0658,750.03156,362.5718,550.38293,613.60535,598.6976
UncalAccel,1676597663894,34720716459686,-0.13399807,-0.016151553,9.783653,0.037048545,-0.031444572,0.0098014325
OrientationDeg,1676597663894,34720716459686,79.0,0.0,0.0
UncalGyro,1676597663898,34720720703766,-0.0010690142,-0.0016798794,-0.00061086525,-0.0011417355,-0.0013689935,-0.0006108655
UncalMag,1676597663902,34720724673371,-195.0658,750.117,362.47418,550.38293,613.60535,598.6976
UncalAccel,1676597663900,34720724945181,-0.13878371,-0.011365907,9.774082,0.037048545,-0.031444572,0.0098014325
OrientationDeg,1676597663902,34720724945181,79.0,0.0,0.0
UncalGyro,1676597663907,34720729178375,-0.0010690142,-0.0016798794,-0.00015271631,-0.0011417355,-0.0013689935,-0.0006108655
UncalAccel,1676597663911,34720733408030,-0.12921242,-0.016151553,9.774082,0.037048545,-0.031444572,0.0098014325
OrientationDeg,1676597663911,34720733408030,79.0,0.0,0.0
UncalMag,1676597663912,34720734662629,-194.834,750.37317,362.2912,550.38293,613.60535,598.6976
UncalGyro,1676597663915,34720737659110,-0.00030543262,-0.0016798794,-0.00076358154,-0.0011417355,-0.0013689935,-0.0006108655
UncalAccel,1676597663919,34720741897370,-0.13399807,-0.020937199,9.774082,0.037048545,-0.031444572,0.0098014325
OrientationDeg,1676597663919,34720741897370,79.0,0.0,0.0
UncalMag,1676597663922,34720744673249,-195.3708,750.2024,362.9866,550.38293,613.60535,598.6976
UncalGyro,1676597663924,34720746139934,-0.0012217305,-0.0016798794,-0.0010690142,-0.0011417355,-0.0013689935,-0.0006108655
UncalAccel,1676597663928,34720750375224,-0.12921242,-0.025722843,9.774082,0.037048545,-0.031444572,0.0098014325
OrientationDeg,1676597663928,34720750375224,79.0,0.0,0.0
UncalGyro,1676597663932,34720754615256,-0.0013744468,-0.0010690142,0.00015271631,-0.0011417355,-0.0013689935,-0.0006108655
UncalMag,1676597663932,34720754662670,-195.7856,750.178,362.3888,550.38293,613.60535,598.6976
Fix,NLP,37.4294269000,-122.1634988000,-10.300000190734863,,18.015,,1676596975902,,,34032724000000,3.9152591
UncalAccel,1676597663936,34720758853760,-0.12921242,-0.020937199,9.774082,0.037048545,-0.031444572,0.0098014325
OrientationDeg,1676597663936,34720758853760,79.0,0.0,0.0
UncalGyro,1676597663941,34720763094453,-0.0021380284,-0.0013744468,0.00045814895,-0.0011417355,-0.0013689935,-0.0006108655
UncalMag,1676597663942,34720764662630,-195.7856,750.178,362.3888,550.38293,613.60535,598.6976
Fix,FLP,37.4294269000,-122.1634988000,-10.300000190734863,,18.015,,1676596975902,,,34032724000000,10.795259
UncalAccel,1676597663946,34720767331483,-0.13399807,-0.016151553,9.783653,0.037048545,-0.031444572,0.0098014325
OrientationDeg,1676597663945,34720767331483,79.0,0.0,0.0
UncalGyro,1676597663950,34720771571138,-0.0012217305,-0.0009162979,-0.0021380284,-0.0011417355,-0.0013689935,-0.0006108655
UncalMag,1676597663952,34720774662955,-195.79779,750.0072,362.3522,550.38293,613.60535,598.6976
UncalAccel,1676597663953,34720775806500,-0.13878371,-0.025722843,9.778868,0.037048545,-0.031444572,0.0098014325
OrientationDeg,1676597663953,34720775806500,79.0,0.0,0.0
UncalGyro,1676597663958,34720780049989,-0.00061086525,-0.00045814895,-0.00045814895,-0.0011417355,-0.0013689935,-0.0006108655
UncalAccel,1676597663962,34720784288433,-0.13878371,-0.011365907,9.778868,0.037048545,-0.031444572,0.0098014325
UncalMag,1676597663962,34720784662874,-195.688,750.178,362.3888,550.38293,613.60535,598.6976
OrientationDeg,1676597663963,34720784288433,79.0,0.0,0.0
UncalGyro,1676597663966,34720788529867,-0.0009162979,-0.0012217305,0.00030543262,-0.0011417355,-0.0013689935,-0.0006108655
UncalAccel,1676597663970,34720792763968,-0.12921242,-0.020937199,9.778868,0.037048545,-0.031444572,0.0098014325
OrientationDeg,1676597663970,34720792763968,79.0,0.0,0.0
UncalMag,1676597663972,34720794673332,-195.078,749.8608,362.7792,550.38293,613.60535,598.6976
UncalGyro,1676597663974,34720796997042,-0.0013744468,-0.0009162979,0.0,-0.0011417355,-0.0013689935,-0.0006108655
UncalAccel,1676597663979,34720801244295,-0.13878371,-0.016151553,9.788439,0.037048545,-0.031444572,0.0098014325
OrientationDeg,1676597663979,34720801244295,79.0,0.0,0.0
UncalMag,1676597663982,34720804673129,-195.3708,750.2756,362.52298,550.38293,613.60535,598.6976
UncalGyro,1676597663983,34720805484489,-0.0013744468,-0.00076358154,0.00030543262,-0.0011417355,-0.0013689935,-0.0006108655
UncalAccel,1676597663987,34720809725008,-0.13878371,-0.025722843,9.783653,0.037048545,-0.031444572,0.0098014325
OrientationDeg,1676597663987,34720809725008,79.0,0.0,0.0
UncalGyro,1676597663991,34720813962924,-0.0013744468,-0.0015271631,0.0010690142,-0.0011417355,-0.0013689935,-0.0006108655
UncalMag,1676597663992,34720814662672,-195.2854,749.93396,362.5596,550.38293,613.60535,598.6976
UncalAccel,1676597663996,34720818198488,-0.13878371,-0.016151553,9.774082,0.037048545,-0.031444572,0.0098014325
OrientationDeg,1676597663996,34720818198488,79.0,0.0,0.0
UncalGyro,1676597664000,34720822430524,-0.0013744468,-0.0016798794,-0.00030543262,-0.0011417355,-0.0013689935,-0.0006108655
UncalMag,1676597664002,34720824673129,-195.7124,749.8486,362.79138,550.38293,613.60535,598.6976
UncalAccel,1676597664004,34720826679395,-0.13399807,-0.020937199,9.778868,0.037048545,-0.031444572,0.0098014325
OrientationDeg,1676597664004,34720826679395,79.0,0.0,0.0
UncalGyro,1676597664008,34720830918520,-0.0013744468,-0.0016798794,-0.00061086525,-0.0011417355,-0.0013689935,-0.0006108655
UncalMag,1676597664012,34720834673252,-195.05359,750.1902,362.2546,550.38293,613.60535,598.6976
UncalAccel,1676597664013,34720835150597,-0.13399807,-0.020937199,9.769297,0.037048545,-0.031444572,0.0098014325
OrientationDeg,1676597664013,34720835150597,79.0,0.0,0.0
UncalGyro,1676597664017,34720839386935,-0.0013744468,-0.0013744468,0.00015271631,-0.0011417355,-0.0013689935,-0.0006108655
UncalAccel,1676597664021,34720843634505,-0.13399807,-0.025722843,9.778868,0.037048545,-0.031444572,0.0098014325
OrientationDeg,1676597664021,34720843634505,79.0,0.0,0.0
UncalMag,1676597664022,34720844662917,-195.444,750.8002,362.645,550.38293,613.60535,598.6976
UncalGyro,1676597664025,34720847873833,-0.0010690142,-0.0016798794,-0.00045814895,-0.0011417355,-0.0013689935,-0.0006108655
UncalAccel,1676597664030,34720852115258,-0.13399807,-0.020937199,9.778868,0.037048545,-0.031444572,0.0098014325
OrientationDeg,1676597664030,34720852115258,79.0,0.0,0.0
UncalMag,1676597664032,34720854673293,-195.66359,750.544,362.5962,550.38293,613.60535,598.6976
UncalGyro,1676597664034,34720856350061,-0.00061086525,-0.0009162979,-0.0009162979,-0.0011417355,-0.0013689935,-0.0006108655
UncalAccel,1676597664038,34720860592960,-0.12921242,-0.020937199,9.774082,0.037048545,-0.031444572,0.0098014325
OrientationDeg,1676597664038,34720860592960,79.0,0.0,0.0
UncalMag,1676597664042,34720864673252,-195.45619,750.544,362.828,550.38293,613.60535,598.6976
UncalGyro,1676597664042,34720864834395,-0.0009162979,-0.00045814895,-0.00015271631,-0.0011417355,-0.0013689935,-0.0006108655
UncalAccel,1676597664047,34720869076806,-0.13878371,-0.016151553,9.778868,0.037048545,-0.031444572,0.0098014325
OrientationDeg,1676597664047,34720869076806,79.0,0.0,0.0
UncalGyro,1676597664051,34720873310317,-0.00030543262,-0.0015271631,-0.00076358154,-0.0011417355,-0.0013689935,-0.0006108655
UncalMag,1676597664052,34720874662714,-195.2732,750.2024,362.74258,550.38293,613.60535,598.6976
UncalAccel,1676597664055,34720877547947,-0.13399807,-0.016151553,9.783653,0.037048545,-0.031444572,0.0098014325
OrientationDeg,1676597664055,34720877547947,79.0,0.0,0.0
UncalGyro,1676597664060,34720881784316,-0.0009162979,-0.0013744468,0.00015271631,-0.0011417355,-0.0013689935,-0.0006108655
UncalMag,1676597664062,34720884673049,-195.16339,750.1048,362.3522,550.38293,613.60535,598.6976
UncalAccel,1676597664064,34720886013208,-0.12921242,-0.016151553,9.778868,0.037048545,-0.031444572,0.0098014325
OrientationDeg,1676597664064,34720886013208,79.0,0.0,0.0
UncalGyro,1676597664068,34720890256158,-0.0013744468,-0.0016798794,-0.00045814895,-0.0011417355,-0.0013689935,-0.0006108655
UncalAccel,1676597664072,34720894505029,-0.13399807,-0.016151553,9.769297,0.037048545,-0.031444572,0.0098014325
OrientationDeg,1676597664072,34720894505029,79.0,0.0,0.0
UncalMag,1676597664073,34720894662511,-195.8832,750.36096,362.5596,550.38293,613.60535,598.6976
UncalGyro,1676597664076,34720898748417,-0.00061086525,-0.0016798794,-0.0009162979,-0.0011417355,-0.0013689935,-0.0006108655
UncalAccel,1676597664080,34720902984827,-0.13878371,-0.025722843,9.788439,0.037048545,-0.031444572,0.0098014325
OrientationDeg,1676597664080,34720902984827,79.0,0.0,0.0
UncalMag,1676597664082,34720904674759,-195.98079,750.4464,362.5718,550.38293,613.60535,598.6976
UncalGyro,1676597664085,34720907219609,-0.0012217305,-0.0009162979,-0.0009162979,-0.0011417355,-0.0013689935,-0.0006108655
UncalAccel,1676597664089,34720911460637,-0.13399807,-0.016151553,9.788439,0.037048545,-0.031444572,0.0098014325
OrientationDeg,1676597664089,34720911460637,79.0,0.0,0.0
UncalMag,1676597664092,34720914673254,-195.45619,750.4342,361.7178,550.38293,613.60535,598.6976
UncalGyro,1676597664093,34720915701116,-0.0013744468,-0.0012217305,0.00015271631,-0.0011417355,-0.0013689935,-0.0006108655
OrientationDeg,1676597664097,34720919940618,79.0,0.0,0.0
UncalAccel,1676597664097,34720919940618,-0.13399807,-0.020937199,9.783653,0.037048545,-0.031444572,0.0098014325
UncalGyro,1676597664102,34720924180497,-0.0013744468,-0.001985312,0.00030543262,-0.0011417355,-0.0013689935,-0.0006108655
UncalMag,1676597664102,34720924682328,-195.871,750.605,362.0106,550.38293,613.60535,598.6976
UncalAccel,1676597664106,34720928417902,-0.13399807,-0.016151553,9.778868,0.037048545,-0.031444572,0.0098014325
OrientationDeg,1676597664106,34720928417902,79.0,0.0,0.0
UncalGyro,1676597664110,34720932658676,-0.00030543262,-0.0016798794,-0.00076358154,-0.0011417355,-0.0013689935,-0.0006108655
UncalMag,1676597664112,34720934673132,-195.8954,750.1902,362.7548,550.38293,613.60535,598.6976
UncalAccel,1676597664114,34720936895676,-0.12921242,-0.0065802624,9.778868,0.037048545,-0.031444572,0.0098014325
OrientationDeg,1676597664114,34720936895676,79.0,0.0,0.0
UncalGyro,1676597664119,34720941135900,-0.00045814895,-0.0013744468,-0.0009162979,-0.0011417355,-0.0013689935,-0.0006108655
UncalMag,1676597664122,34720944673092,-195.3342,750.88556,362.42538,550.38293,613.60535,598.6976
UncalAccel,1676597664123,34720945373226,-0.13399807,-0.016151553,9.783653,0.037048545,-0.031444572,0.0098014325
OrientationDeg,1676597664123,34720945373226,79.0,0.0,0.0
UncalGyro,1676597664127,34720949613134,-0.00045814895,-0.0016798794,-0.0013744468,-0.0011417355,-0.0013689935,-0.0006108655
UncalAccel,1676597664131,34720953848740,-0.13399807,-0.016151553,9.774082,0.037048545,-0.031444572,0.0098014325
OrientationDeg,1676597664131,34720953848740,79.0,0.0,0.0
UncalMag,1676597664132,34720954662553,-195.7856,750.2756,362.5352,550.38293,613.60535,598.6976
UncalGyro,1676597664136,34720958092444,-0.0015271631,-0.0016798794,-0.00030543262,-0.0011417355,-0.0013689935,-0.0006108655
UncalAccel,1676597664140,34720962329637,-0.13399807,-0.020937199,9.769297,0.037048545,-0.031444572,0.0098014325
OrientationDeg,1676597664140,34720962329637,79.0,0.0,0.0
UncalMag,1676597664142,34720964662513,-195.6514,750.7148,362.5108,550.38293,613.60535,598.6976
UncalGyro,1676597664144,34720966568986,-0.0013744468,-0.0009162979,-0.0010690142,-0.0011417355,-0.0013689935,-0.0006108655
UncalAccel,1676597664148,34720970808416,-0.12921242,-0.020937199,9.783653,0.037048545,-0.031444572,0.0098014325
OrientationDeg,1676597664148,34720970808416,79.0,0.0,0.0
UncalMag,1676597664152,34720974673092,-195.8832,750.4464,362.6938,550.38293,613.60535,598.6976
UncalGyro,1676597664153,34720975047278,-0.0013744468,-0.0015271631,-0.0009162979,-0.0011417355,-0.0013689935,-0.0006108655
UncalAccel,1676597664157,34720979282090,-0.13399807,-0.016151553,9.778868,0.037048545,-0.031444572,0.0098014325
OrientationDeg,1676597664157,34720979282090,79.0,0.0,0.0
UncalGyro,1676597664161,34720983524166,-0.0016798794,-0.0013744468,-0.00015271631,-0.0011417355,-0.0013689935,-0.0006108655
UncalMag,1676597664162,34720984662513,-196.0662,750.77576,362.04718,550.38293,613.60535,598.6976
OrientationDeg,1676597664165,34720987754757,79.0,0.0,0.0
UncalAccel,1676597664165,34720987754757,-0.13399807,-0.020937199,9.774082,0.037048545,-0.031444572,0.0098014325
UncalGyro,1676597664170,34720992007555,0.0,-0.00061086525,0.0,-0.0011417355,-0.0013689935,-0.0006108655
UncalMag,1676597664172,34720994673052,-195.566,750.422,361.7178,550.38293,613.60535,598.6976
UncalAccel,1676597664174,34720996246477,-0.12921242,-0.025722843,9.783653,0.037048545,-0.031444572,0.0098014325
OrientationDeg,1676597664174,34720996246477,79.0,0.0,0.0
UncalGyro,1676597664178,34721000498745,-0.0009162979,-0.0012217305,-0.00045814895,-0.0011417355,-0.0013689935,-0.0006108655
UncalMag,1676597664182,34721004673174,-195.93199,751.21497,362.15698,550.38293,613.60535,598.6976
UncalAccel,1676597664182,34721004718462,-0.13878371,-0.016151553,9.778868,0.037048545,-0.031444572,0.0098014325
OrientationDeg,1676597664182,34721004718462,79.0,0.0,0.0
UncalGyro,1676597664186,34721008950711,-0.00061086525,-0.0009162979,-0.0009162979,-0.0011417355,-0.0013689935,-0.0006108655
UncalAccel,1676597664191,34721013196347,-0.124426775,-0.011365907,9.788439,0.037048545,-0.031444572,0.0098014325
UncalMag,1676597664192,34721014660724,-195.66359,750.6172,362.1204,550.38293,613.60535,598.6976
OrientationDeg,1676597664191,34721013196347,79.0,0.0,0.0
UncalGyro,1676597664195,34721017439939,-0.00045814895,-0.0015271631,-0.00015271631,-0.0011417355,-0.0013689935,-0.0006108655
UncalAccel,1676597664199,34721021682095,-0.13399807,-0.011365907,9.783653,0.037048545,-0.031444572,0.0098014325
OrientationDeg,1676597664199,34721021682095,79.0,0.0,0.0
UncalMag,1676597664202,34721024673297,-195.8588,750.91,363.4136,550.38293,613.60535,598.6976
UncalGyro,1676597664203,34721025917712,-0.00045814895,-0.0009162979,-0.00076358154,-0.0011417355,-0.0013689935,-0.0006108655
OrientationDeg,1676597664208,34721030155402,79.0,0.0,0.0
UncalAccel,1676597664208,34721030155402,-0.13399807,-0.025722843,9.783653,0.037048545,-0.031444572,0.0098014325
UncalGyro,1676597664212,34721034392667,-0.00076358154,-0.00061086525,0.00015271631,-0.0011417355,-0.0013689935,-0.0006108655
UncalMag,1676597664212,34721034669676,-195.98079,750.5318,362.7182,550.38293,613.60535,598.6976
UncalAccel,1676597664216,34721038631141,-0.12921242,-0.016151553,9.778868,0.037048545,-0.031444572,0.0098014325
OrientationDeg,1676597664216,34721038631141,79.0,0.0,0.0
UncalGyro,1676597664220,34721042871457,-0.0012217305,-0.0012217305,0.00030543262,-0.0011417355,-0.0013689935,-0.0006108655
UncalMag,1676597664222,34721044673094,-195.98079,750.5318,362.47418,550.38293,613.60535,598.6976
UncalAccel,1676597664225,34721047103015,-0.13399807,-0.020937199,9.778868,0.037048545,-0.031444572,0.0098014325
OrientationDeg,1676597664225,34721047103015,79.0,0.0,0.0
UncalGyro,1676597664229,34721051356738,-0.00061086525,-0.0013744468,0.00030543262,-0.0011417355,-0.0013689935,-0.0006108655
UncalMag,1676597664233,34721054673338,-195.2366,750.6294,362.6084,550.38293,613.60535,598.6976
UncalAccel,1676597664233,34721055593301,-0.14356937,-0.016151553,9.769297,0.037048545,-0.031444572,0.0098014325
OrientationDeg,1676597664233,34721055593301,79.0,0.0,0.0
UncalGyro,1676597664237,34721059834634,-0.00045814895,-0.001985312,-0.00076358154,-0.0011417355,-0.0013689935,-0.0006108655
UncalAccel,1676597664242,34721064068409,-0.13399807,-0.016151553,9.783653,0.037048545,-0.031444572,0.0098014325
UncalMag,1676597664242,34721064668212,-196.2858,750.6172,362.6206,550.38293,613.60535,598.6976
OrientationDeg,1676597664242,34721064068409,79.0,0.0,0.0
UncalGyro,1676597664246,34721068309426,-0.0012217305,-0.0016798794,0.00015271631,-0.0011417355,-0.0013689935,-0.0006108655
UncalAccel,1676597664250,34721072546609,-0.12921242,-0.011365907,9.783653,0.037048545,-0.031444572,0.0098014325
OrientationDeg,1676597664250,34721072546609,79.0,0.0,0.0
UncalMag,1676597664252,34721074662719,-196.1882,750.5074,361.99838,550.38293,613.60535,598.6976
UncalGyro,1676597664255,34721076786976,-0.0013744468,-0.0016798794,-0.00076358154,-0.0011417355,-0.0013689935,-0.0006108655
UncalAccel,1676597664259,34721081025043,-0.13878371,-0.011365907,9.778868,0.037048545,-0.031444572,0.0098014325
OrientationDeg,1676597664259,34721081025043,79.0,0.0,0.0
UncalMag,1676597664262,34721084673014,-196.40779,750.4464,362.828,550.38293,613.60535,598.6976
UncalGyro,1676597664263,34721085262531,-0.0016798794,-0.0009162979,-0.00061086525,-0.0011417355,-0.0013689935,-0.0006108655
UncalAccel,1676597664267,34721089492777,-0.13878371,-0.020937199,9.783653,0.037048545,-0.031444572,0.0098014325
OrientationDeg,1676597664267,34721089492777,79.0,0.0,0.0
UncalGyro,1676597664271,34721093742553,-0.00061086525,-0.0012217305,-0.00061086525,-0.0011417355,-0.0013689935,-0.0006108655
UncalMag,1676597664272,34721094657674,-195.77339,750.5318,362.47418,550.38293,613.60535,598.6976
UncalAccel,1676597664275,34721097978616,-0.12921242,-0.020937199,9.788439,0.037048545,-0.031444572,0.0098014325
OrientationDeg,1676597664275,34721097978616,79.0,0.0,0.0
UncalGyro,1676597664280,34721102225391,-0.0012217305,-0.0016798794,-0.00061086525,-0.0011417355,-0.0013689935,-0.0006108655
UncalMag,1676597664282,34721104673136,-195.2366,750.8368,363.37698,550.38293,613.60535,598.6976
UncalAccel,1676597664284,34721106458903,-0.13399807,-0.016151553,9.774082,0.037048545,-0.031444572,0.0098014325
OrientationDeg,1676597664284,34721106458903,79.0,0.0,0.0
UncalGyro,1676597664288,34721110697896,-0.0013744468,-0.0013744468,-0.00015271631,-0.0011417355,-0.0013689935,-0.0006108655
UncalMag,1676597664292,34721114673096,-195.3708,750.2878,362.767,550.38293,613.60535,598.6976
UncalAccel,1676597664292,34721114938466,-0.12921242,-0.020937199,9.778868,0.037048545,-0.031444572,0.0098014325
OrientationDeg,1676597664292,34721114938466,79.0,0.0,0.0
UncalGyro,1676597664297,34721119180338,-0.0021380284,-0.0016798794,0.0,-0.0011417355,-0.0013689935,-0.0006108655
UncalAccel,1676597664301,34721123417246,-0.13878371,-0.020937199,9.778868,0.037048545,-0.031444572,0.0098014325
UncalMag,1676597664302,34721124662883,-195.871,750.6172,362.2546,550.38293,613.60535,598.6976
UncalGyro,1676597664305,34721127657156,-0.0018325958,-0.0013744468,-0.00076358154,-0.0011417355,-0.0013689935,-0.0006108655
OrientationDeg,1676597664301,34721123417246,79.0,0.0,0.0
UncalAccel,1676597664309,34721131894155,-0.13399807,-0.011365907,9.774082,0.037048545,-0.031444572,0.0098014325
OrientationDeg,1676597664309,34721131894155,79.0,0.0,0.0
UncalMag,1676597664313,34721134673340,-195.79779,750.0072,362.47418,550.38293,613.60535,598.6976
UncalGyro,1676597664314,34721136135489,-0.00076358154,-0.0013744468,-0.0009162979,-0.0011417355,-0.0013689935,-0.0006108655
UncalAccel,1676597664318,34721140369740,-0.13399807,-0.011365907,9.783653,0.037048545,-0.031444572,0.0098014325
OrientationDeg,1676597664318,34721140369740,79.0,0.0,0.0
UncalGyro,1676597664322,34721144601329,-0.0009162979,-0.00061086525,0.00015271631,-0.0011417355,-0.0013689935,-0.0006108655
UncalMag,1676597664322,34721144662558,-195.4684,750.3488,362.0594,550.38293,613.60535,598.6976
UncalAccel,1676597664326,34721148850668,-0.13399807,-0.016151553,9.774082,0.037048545,-0.031444572,0.0098014325
OrientationDeg,1676597664326,34721148850668,79.0,0.0,0.0
UncalGyro,1676597664331,34721153090973,-0.00030543262,-0.0015271631,-0.00076358154,-0.0011417355,-0.0013689935,-0.0006108655
UncalMag,1676597664332,34721154673219,-195.4684,750.2878,362.889,550.38293,613.60535,598.6976
UncalAccel,1676597664335,34721157331818,-0.12921242,-0.020937199,9.778868,0.037048545,-0.031444572,0.0098014325
OrientationDeg,1676597664335,34721157331818,79.0,0.0,0.0
UncalGyro,1676597664339,34721161570151,-0.00045814895,-0.0013744468,-0.00015271631,-0.0011417355,-0.0013689935,-0.0006108655
UncalMag,1676597664342,34721164673626,-195.5782,750.1902,362.5108,550.38293,613.60535,598.6976
UncalAccel,1676597664343,34721165811931,-0.13399807,-0.016151553,9.783653,0.037048545,-0.031444572,0.0098014325
OrientationDeg,1676597664343,34721165811931,79.0,0.0,0.0
UncalGyro,1676597664348,34721170048605,-0.00015271631,-0.0016798794,-0.00076358154,-0.0011417355,-0.0013689935,-0.0006108655
UncalAccel,1676597664352,34721174285646,-0.13399807,-0.011365907,9.783653,0.037048545,-0.031444572,0.0098014325
UncalMag,1676597664352,34721174659425,-195.7856,750.178,362.26678,550.38293,613.60535,598.6976
OrientationDeg,1676597664352,34721174285646,79.0,0.0,0.0
UncalGyro,1676597664356,34721178524558,-0.00045814895,-0.0016798794,-0.00061086525,-0.0011417355,-0.0013689935,-0.0006108655
UncalAccel,1676597664360,34721182763622,-0.12921242,-0.020937199,9.774082,0.037048545,-0.031444572,0.0098014325
OrientationDeg,1676597664360,34721182763622,79.0,0.0,0.0
UncalMag,1676597664362,34721184662762,-195.79779,750.0926,362.36438,550.38293,613.60535,598.6976
UncalGyro,1676597664365,34721187003888,-0.0018325958,-0.0013744468,-0.00061086525,-0.0011417355,-0.0013689935,-0.0006108655
UncalAccel,1676597664369,34721191242128,-0.13399807,-0.020937199,9.778868,0.037048545,-0.031444572,0.0098014325
OrientationDeg,1676597664369,34721191242128,79.0,0.0,0.0
UncalMag,1676597664372,34721194673342,-196.0784,750.69037,362.279,550.38293,613.60535,598.6976
UncalGyro,1676597664373,34721195482780,-0.00076358154,-0.001985312,-0.00015271631,-0.0011417355,-0.0013689935,-0.0006108655
UncalAccel,1676597664377,34721199720144,-0.14356937,-0.020937199,9.783653,0.037048545,-0.031444572,0.0098014325
OrientationDeg,1676597664377,34721199720144,79.0,0.0,0.0
UncalGyro,1676597664381,34721203961254,-0.0015271631,-0.0016798794,-0.00045814895,-0.0011417355,-0.0013689935,-0.0006108655
UncalMag,1676597664382,34721204662681,-195.1268,750.8002,362.15698,550.38293,613.60535,598.6976
UncalAccel,1676597664386,34721208197888,-0.13399807,-0.016151553,9.778868,0.037048545,-0.031444572,0.0098014325
OrientationDeg,1676597664386,34721208197888,79.0,0.0,0.0
UncalGyro,1676597664390,34721212438478,-0.00061086525,-0.0013744468,-0.00061086525,-0.0011417355,-0.0013689935,-0.0006108655
UncalMag,1676597664392,34721214673139,-195.749,750.89777,363.0476,550.38293,613.60535,598.6976
UncalAccel,1676597664394,34721216676028,-0.12921242,-0.020937199,9.778868,0.037048545,-0.031444572,0.0098014325
OrientationDeg,1676597664394,34721216676028,79.0,0.0,0.0
UncalGyro,1676597664398,34721220915997,-0.0009162979,-0.0009162979,-0.00061086525,-0.0011417355,-0.0013689935,-0.0006108655
UncalMag,1676597664402,34721224673261,-196.29799,750.5318,362.9744,550.38293,613.60535,598.6976
UncalAccel,1676597664403,34721225151594,-0.13399807,-0.016151553,9.788439,0.037048545,-0.031444572,0.0098014325
OrientationDeg,1676597664403,34721225151594,79.0,0.0,0.0
UncalGyro,1676597664407,34721229392204,-0.00061086525,-0.0015271631,-0.0009162979,-0.0011417355,-0.0013689935,-0.0006108655
UncalAccel,1676597664411,34721233622582,-0.124426775,-0.016151553,9.783653,0.037048545,-0.031444572,0.0098014325
OrientationDeg,1676597664411,34721233622582,79.0,0.0,0.0
UncalMag,1676597664412,34721234662926,-196.1882,750.5318,362.84018,550.38293,613.60535,598.6976
UncalGyro,1676597664415,34721237874799,-0.00015271631,-0.0016798794,-0.00015271631,-0.0011417355,-0.0013689935,-0.0006108655
UncalAccel,1676597664420,34721242111229,-0.13399807,-0.016151553,9.774082,0.037048545,-0.031444572,0.0098014325
OrientationDeg,1676597664420,34721242111229,79.0,0.0,0.0
UncalMag,1676597664422,34721244673221,-196.38339,750.7636,361.6934,550.38293,613.60535,598.6976
UncalGyro,1676597664424,34721246353691,-0.0009162979,-0.001985312,-0.00076358154,-0.0011417355,-0.0013689935,-0.0006108655
UncalAccel,1676597664429,34721250588544,-0.13399807,-0.016151553,9.783653,0.037048545,-0.031444572,0.0098014325
OrientationDeg,1676597664428,34721250588544,79.0,0.0,0.0
UncalMag,1676597664432,34721254673466,-195.9686,750.727,363.133,550.38293,613.60535,598.6976
UncalGyro,1676597664432,34721254827701,-0.00061086525,-0.0016798794,-0.0010690142,-0.0011417355,-0.0013689935,-0.0006108655
UncalAccel,1676597664437,34721259067640,-0.12921242,-0.016151553,9.774082,0.037048545,-0.031444572,0.0098014325
OrientationDeg,1676597664437,34721259067640,79.0,0.0,0.0
UncalGyro,1676597664441,34721263308496,-0.0009162979,-0.0016798794,-0.0009162979,-0.0011417355,-0.0013689935,-0.0006108655
UncalMag,1676597664442,34721264673140,-196.0662,750.78796,362.5352,550.38293,613.60535,598.6976
UncalAccel,1676597664445,34721267546360,-0.13399807,-0.011365907,9.774082,0.037048545,-0.031444572,0.0098014325
OrientationDeg,1676597664445,34721267546360,79.0,0.0,0.0
UncalGyro,1676597664449,34721271787011,-0.0013744468,-0.0009162979,0.00015271631,-0.0011417355,-0.0013689935,-0.0006108655
UncalMag,1676597664452,34721274673100,-195.9686,750.7026,362.279,550.38293,613.60535,598.6976
UncalAccel,1676597664454,34721276023859,-0.13399807,-0.016151553,9.788439,0.037048545,-0.031444572,0.0098014325
OrientationDeg,1676597664454,34721276023859,79.0,0.0,0.0
UncalGyro,1676597664459,34721280263472,-0.0013744468,-0.00076358154,-0.00076358154,-0.0011417355,-0.0013689935,-0.0006108655
UncalAccel,1676597664462,34721284496637,-0.13399807,-0.025722843,9.774082,0.037048545,-0.031444572,0.0098014325
OrientationDeg,1676597664462,34721284496637,79.0,0.0,0.0
UncalMag,1676597664462,34721284684615,-195.4318,750.971,362.4498,550.38293,613.60535,598.6976
UncalGyro,1676597664466,34721288734093,-0.0018325958,-0.0015271631,-0.00030543262,-0.0011417355,-0.0013689935,-0.0006108655
UncalAccel,1676597664470,34721292977940,-0.12921242,-0.016151553,9.774082,0.037048545,-0.031444572,0.0098014325
UncalMag,1676597664472,34721294670700,-196.1882,750.5318,362.84018,550.38293,613.60535,598.6976
OrientationDeg,1676597664470,34721292977940,79.0,0.0,0.0
UncalGyro,1676597664475,34721297211644,-0.0013744468,-0.0016798794,-0.00015271631,-0.0011417355,-0.0013689935,-0.0006108655
UncalAccel,1676597664479,34721301460881,-0.12921242,-0.011365907,9.783653,0.037048545,-0.031444572,0.0098014325
OrientationDeg,1676597664479,34721301460881,79.0,0.0,0.0
UncalMag,1676597664482,34721304673141,-196.09059,750.3244,361.7056,550.38293,613.60535,598.6976
UncalGyro,1676597664483,34721305699478,-0.00061086525,-0.0009162979,0.00030543262,-0.0011417355,-0.0013689935,-0.0006108655
UncalAccel,1676597664487,34721309939091,-0.13399807,-0.016151553,9.788439,0.037048545,-0.031444572,0.0098014325
OrientationDeg,1676597664487,34721309939091,79.0,0.0,0.0
UncalGyro,1676597664492,34721314176966,-0.0012217305,-0.0012217305,0.00030543262,-0.0011417355,-0.0013689935,-0.0006108655
UncalMag,1676597664492,34721314679774,-195.8466,750.971,362.706,550.38293,613.60535,598.6976
UncalAccel,1676597664496,34721318414799,-0.13878371,-0.020937199,9.783653,0.037048545,-0.031444572,0.0098014325
OrientationDeg,1676597664496,34721318414799,79.0,0.0,0.0
UncalGyro,1676597664500,34721322655075,-0.00061086525,-0.00061086525,-0.0015271631,-0.0011417355,-0.0013689935,-0.0006108655
UncalMag,1676597664502,34721324673182,-196.0662,750.88556,362.68158,550.38293,613.60535,598.6976
UncalAccel,1676597664504,34721326893255,-0.13399807,-0.011365907,9.774082,0.037048545,-0.031444572,0.0098014325
OrientationDeg,1676597664504,34721326893255,79.0,0.0,0.0
UncalGyro,1676597664509,34721331134201,-0.00045814895,-0.00076358154,-0.00030543262,-0.0011417355,-0.0013689935,-0.0006108655
UncalMag,1676597664512,34721334673183,-195.871,750.6172,362.4986,550.38293,613.60535,598.6976
UncalAccel,1676597664513,34721335371526,-0.13399807,-0.016151553,9.788439,0.037048545,-0.031444572,0.0098014325
UncalGyro,1676597664517,34721339611852,-0.0009162979,-0.00045814895,0.0,-0.0011417355,-0.0013689935,-0.0006108655
OrientationDeg,1676597664513,34721335371526,79.0,0.0,0.0
UncalAccel,1676597664522,34721343845953,-0.13399807,-0.020937199,9.783653,0.037048545,-0.031444572,0.0098014325
OrientationDeg,1676597664521,34721343845953,79.0,0.0,0.0
UncalMag,1676597664522,34721344662644,-195.8588,750.67816,361.5348,550.38293,613.60535,598.6976
UncalGyro,1676597664526,34721348089961,-0.00061086525,-0.0015271631,-0.00076358154,-0.0011417355,-0.0013689935,-0.0006108655
UncalAccel,1676597664530,34721352326462,-0.13399807,-0.011365907,9.783653,0.037048545,-0.031444572,0.0098014325
OrientationDeg,1676597664530,34721352326462,79.0,0.0,0.0
UncalMag,1676597664532,34721354673671,-195.2244,750.88556,362.3034,550.38293,613.60535,598.6976
UncalGyro,1676597664534,34721356565486,-0.00045814895,-0.0016798794,-0.0009162979,-0.0011417355,-0.0013689935,-0.0006108655
UncalAccel,1676597664538,34721360805700,-0.12921242,-0.011365907,9.783653,0.037048545,-0.031444572,0.0098014325
OrientationDeg,1676597664538,34721360805700,79.0,0.0,0.0
UncalMag,1676597664542,34721364680793,-195.8466,750.8734,362.0716,550.38293,613.60535,598.6976
UncalGyro,1676597664543,34721365043362,-0.0012217305,-0.0016798794,-0.00061086525,-0.0011417355,-0.0013689935,-0.0006108655
UncalAccel,1676597664547,34721369274481,-0.13399807,-0.016151553,9.788439,0.037048545,-0.031444572,0.0098014325
OrientationDeg,1676597664547,34721369274481,79.0,0.0,0.0
UncalGyro,1676597664551,34721373524085,-0.0010690142,-0.0016798794,-0.00015271631,-0.0011417355,-0.0013689935,-0.0006108655
UncalMag,1676597664552,34721374654466,-195.7612,750.605,362.0106,550.38293,613.60535,598.6976
UncalAccel,1676597664555,34721377757829,-0.12921242,-0.020937199,9.778868,0.037048545,-0.031444572,0.0098014325
OrientationDeg,1676597664555,34721377757829,79.0,0.0,0.0
UncalGyro,1676597664560,34721382005458,-0.0013744468,-0.0013744468,-0.00076358154,-0.0011417355,-0.0013689935,-0.0006108655
UncalMag,1676597664562,34721384662686,-195.749,750.78796,362.1692,550.38293,613.60535,598.6976
UncalAccel,1676597664564,34721386240495,-0.12921242,-0.011365907,9.783653,0.037048545,-0.031444572,0.0098014325
OrientationDeg,1676597664564,34721386240495,79.0,0.0,0.0
UncalGyro,1676597664568,34721390481828,-0.00030543262,-0.0016798794,-0.00061086525,-0.0011417355,-0.0013689935,-0.0006108655
UncalMag,1676597664572,34721394666592,-195.7856,750.37317,362.79138,550.38293,613.60535,598.6976
OrientationDeg,1676597664572,34721394716407,79.0,0.0,0.0
UncalAccel,1676597664572,34721394716407,-0.13878371,-0.011365907,9.783653,0.037048545,-0.031444572,0.0098014325
UncalGyro,1676597664576,34721398949256,-0.0012217305,-0.0009162979,-0.00015271631,-0.0011417355,-0.0013689935,-0.0006108655
UncalAccel,1676597664581,34721403197527,-0.13399807,-0.020937199,9.778868,0.037048545,-0.031444572,0.0098014325
UncalMag,1676597664582,34721404662605,-194.9316,750.4464,362.0716,550.38293,613.60535,598.6976
OrientationDeg,1676597664581,34721403197527,79.0,0.0,0.0
Fix,NLP,37.4242162000,-122.1566930000,-13.5,,14.164,,1676597664495,,,34721317000000,1.1022557
UncalGyro,1676597664585,34721407438199,-0.0010690142,-0.00045814895,-0.00076358154,-0.0011417355,-0.0013689935,-0.0006108655
UncalAccel,1676597664589,34721411676846,-0.12921242,-0.016151553,9.774082,0.037048545,-0.031444572,0.0098014325
OrientationDeg,1676597664589,34721411676846,79.0,0.0,0.0
UncalMag,1676597664592,34721414670174,-195.566,750.3488,362.1814,550.38293,613.60535,598.6976
UncalGyro,1676597664593,34721415911934,-0.0010690142,-0.00076358154,-0.0009162979,-0.0011417355,-0.0013689935,-0.0006108655
OrientationDeg,1676597664598,34721420153225,79.0,0.0,0.0
UncalAccel,1676597664598,34721420153225,-0.124426775,-0.016151553,9.788439,0.037048545,-0.031444572,0.0098014325
UncalGyro,1676597664602,34721424393379,-0.0010690142,-0.0012217305,-0.00061086525,-0.0011417355,-0.0013689935,-0.0006108655
UncalMag,1676597664602,34721424678475,-196.2126,750.1658,362.035,550.38293,613.60535,598.6976
UncalAccel,1676597664606,34721428630500,-0.124426775,-0.016151553,9.774082,0.037048545,-0.031444572,0.0098014325
OrientationDeg,1676597664606,34721428630500,79.0,0.0,0.0
Fix,FLP,37.4242162000,-122.1566930000,-13.5,,14.164,,1676597664495,,,34721317000000,1.098143
UncalGyro,1676597664610,34721432863472,-0.0010690142,-0.00061086525,-0.0009162979,-0.0011417355,-0.0013689935,-0.0006108655
UncalMag,1676597664612,34721434673104,-195.8588,750.78796,362.4132,550.38293,613.60535,598.6976
UncalAccel,1676597664615,34721437110360,-0.13399807,-0.016151553,9.778868,0.037048545,-0.031444572,0.0098014325
OrientationDeg,1676597664615,34721437110360,79.0,0.0,0.0
UncalGyro,1676597664619,34721441351163,-0.0013744468,-0.001985312,0.00015271631,-0.0011417355,-0.0013689935,-0.0006108655
UncalMag,1676597664622,34721444673104,-195.0414,750.47076,362.9256,550.38293,613.60535,598.6976
UncalAccel,1676597664623,34721445590014,-0.13878371,-0.020937199,9.774082,0.037048545,-0.031444572,0.0098014325
OrientationDeg,1676597664623,34721445590014,79.0,0.0,0.0
UncalGyro,1676597664628,34721449828081,-0.002443461,-0.0038179078,-0.00076358154,-0.0011417355,-0.0013689935,-0.0006108655
UncalAccel,1676597664632,34721454065865,-0.12502499,-0.011365907,9.802796,0.037048545,-0.031444572,0.0098014325
UncalMag,1676597664632,34721454664559,-196.0784,750.5318,362.47418,550.38293,613.60535,598.6976
OrientationDeg,1676597664633,34721454065865,79.0,0.0,0.0
UncalGyro,1676597664636,34721458306353,0.0,-0.00045814895,0.00015271631,-0.0011417355,-0.0013689935,-0.0006108655
UncalAccel,1676597664640,34721462544554,-0.12921242,-0.011365907,9.778868,0.037048545,-0.031444572,0.0098014325
UncalMag,1676597664642,34721464673267,-195.5538,750.605,361.8764,550.38293,613.60535,598.6976
OrientationDeg,1676597664640,34721462544554,79.0,0.0,0.0
UncalGyro,1676597664644,34721466785653,-0.0016798794,-0.00015271631,0.00030543262,-0.0011417355,-0.0013689935,-0.0006108655
UncalAccel,1676597664649,34721471022937,-0.13878371,-0.016151553,9.764511,0.037048545,-0.031444572,0.0098014325
OrientationDeg,1676597664649,34721471022937,79.0,0.0,0.0
UncalMag,1676597664652,34721474673390,-195.444,750.8002,362.401,550.38293,613.60535,598.6976
UncalGyro,1676597664653,34721475264779,-0.0016798794,-0.0015271631,-0.00045814895,-0.0011417355,-0.0013689935,-0.0006108655
UncalAccel,1676597664657,34721479504931,-0.12502499,-0.020937199,9.793225,0.037048545,-0.031444572,0.0098014325
OrientationDeg,1676597664657,34721479504931,79.0,0.0,0.0
UncalGyro,1676597664661,34721483738178,-0.00045814895,0.00045814895,-0.00061086525,-0.0011417355,-0.0013689935,-0.0006108655
UncalMag,1676597664662,34721484664642,-195.2488,750.544,362.34,550.38293,613.60535,598.6976
UncalAccel,1676597664665,34721487968158,-0.13399807,-0.011365907,9.774082,0.037048545,-0.031444572,0.0098014325
OrientationDeg,1676597664665,34721487968158,79.0,0.0,0.0
UncalGyro,1676597664670,34721492218006,-0.0009162979,-0.0015271631,-0.00061086525,-0.0011417355,-0.0013689935,-0.0006108655
UncalMag,1676597664672,34721494662526,-196.2004,750.3366,361.9496,550.38293,613.60535,598.6976
UncalAccel,1676597664674,34721496457357,-0.13399807,-0.011365907,9.764511,0.037048545,-0.031444572,0.0098014325
OrientationDeg,1676597664674,34721496457357,79.0,0.0,0.0
UncalGyro,1676597664678,34721500700215,-0.0022907446,-0.0027488936,0.00015271631,-0.0011417355,-0.0013689935,-0.0006108655
UncalMag,1676597664682,34721504673106,-195.98079,750.5318,362.7182,550.38293,613.60535,598.6976
UncalAccel,1676597664682,34721504936665,-0.12921242,-0.020937199,9.783653,0.037048545,-0.031444572,0.0098014325
OrientationDeg,1676597664682,34721504936665,79.0,0.0,0.0
UncalGyro,1676597664687,34721509179931,-0.00045814895,-0.0010690142,-0.00076358154,-0.0011417355,-0.0013689935,-0.0006108655
UncalAccel,1676597664691,34721513413726,-0.13399807,-0.020937199,9.783653,0.037048545,-0.031444572,0.0098014325
OrientationDeg,1676597664691,34721513413726,79.0,0.0,0.0
UncalMag,1676597664692,34721514657359,-195.95639,750.77576,361.9252,550.38293,613.60535,598.6976
UncalGyro,1676597664695,34721517652975,-0.00015271631,-0.0015271631,-0.00061086525,-0.0011417355,-0.0013689935,-0.0006108655
UncalAccel,1676597664699,34721521888091,-0.14356937,-0.016151553,9.778868,0.037048545,-0.031444572,0.0098014325
OrientationDeg,1676597664699,34721521888091,79.0,0.0,0.0
UncalMag,1676597664702,34721524673472,-196.09059,750.4342,362.218,550.38293,613.60535,598.6976
UncalGyro,1676597664704,34721526131775,-0.0022907446,-0.0027488936,-0.0009162979,-0.0011417355,-0.0013689935,-0.0006108655
UncalAccel,1676597664708,34721530370330,-0.13399807,-0.020937199,9.783653,0.037048545,-0.031444572,0.0098014325
OrientationDeg,1676597664708,34721530370330,79.0,0.0,0.0
UncalGyro,1676597664712,34721534611887,-0.00076358154,-0.0018325958,-0.0009162979,-0.0011417355,-0.0013689935,-0.0006108655
UncalMag,1676597664712,34721534665253,-195.5538,750.6294,362.6084,550.38293,613.60535,598.6976
UncalAccel,1676597664716,34721538848755,-0.13399807,-0.025722843,9.778868,0.037048545,-0.031444572,0.0098014325
OrientationDeg,1676597664716,34721538848755,79.0,0.0,0.0
UncalGyro,1676597664721,34721543088705,-0.00030543262,-0.0016798794,-0.00015271631,-0.0011417355,-0.0013689935,-0.0006108655
UncalMag,1676597664722,34721544673269,-195.8832,750.4464,362.6938,550.38293,613.60535,598.6976
UncalAccel,1676597664725,34721547323171,-0.12921242,-0.011365907,9.774082,0.037048545,-0.031444572,0.0098014325
OrientationDeg,1676597664725,34721547323171,79.0,0.0,0.0
UncalGyro,1676597664729,34721551566396,-0.0012217305,-0.001985312,-0.00076358154,-0.0011417355,-0.0013689935,-0.0006108655
UncalMag,1676597664732,34721554673148,-195.77339,750.45856,362.8158,550.38293,613.60535,598.6976
UncalAccel,1676597664733,34721555804536,-0.12921242,-0.016151553,9.793225,0.037048545,-0.031444572,0.0098014325
OrientationDeg,1676597664733,34721555804536,79.0,0.0,0.0
UncalGyro,1676597664738,34721560045797,-0.00061086525,-0.0009162979,0.00015271631,-0.0011417355,-0.0013689935,-0.0006108655
UncalAccel,1676597664742,34721564282980,-0.124426775,-0.016151553,9.793225,0.037048545,-0.031444572,0.0098014325
OrientationDeg,1676597664742,34721564282980,79.0,0.0,0.0
UncalMag,1676597664742,34721564669160,-195.871,750.544,363.0842,550.38293,613.60535,598.6976
UncalGyro,1676597664746,34721568522858,-0.0009162979,-0.00061086525,-0.00045814895,-0.0011417355,-0.0013689935,-0.0006108655
UncalAccel,1676597664750,34721572761374,-0.13399807,-0.020937199,9.778868,0.037048545,-0.031444572,0.0098014325
UncalMag,1676597664752,34721574673229,-195.8588,750.8002,362.6572,550.38293,613.60535,598.6976
UncalGyro,1676597664755,34721577002138,-0.0010690142,-0.0015271631,-0.0009162979,-0.0011417355,-0.0013689935,-0.0006108655
OrientationDeg,1676597664750,34721572761374,79.0,0.0,0.0
UncalAccel,1676597664759,34721581239585,-0.12921242,-0.011365907,9.778868,0.037048545,-0.031444572,0.0098014325
OrientationDeg,1676597664759,34721581239585,79.0,0.0,0.0
UncalMag,1676597664762,34721584673189,-196.29799,750.422,361.974,550.38293,613.60535,598.6976
UncalGyro,1676597664763,34721585479321,-0.0010690142,-0.0016798794,-0.00061086525,-0.0011417355,-0.0013689935,-0.0006108655
UncalAccel,1676597664767,34721589717266,-0.124426775,-0.020937199,9.783653,0.037048545,-0.031444572,0.0098014325
OrientationDeg,1676597664767,34721589717266,79.0,0.0,0.0
UncalGyro,1676597664771,34721593957450,-0.0013744468,-0.00030543262,0.0009162979,-0.0011417355,-0.0013689935,-0.0006108655
UncalMag,1676597664772,34721594662813,-195.8588,750.8002,362.6572,550.38293,613.60535,598.6976
OrientationDeg,1676597664776,34721598195934,79.0,0.0,0.0
UncalAccel,1676597664776,34721598195934,-0.13878371,-0.016151553,9.783653,0.037048545,-0.031444572,0.0098014325
UncalGyro,1676597664780,34721602434368,-0.0010690142,-0.00045814895,0.00015271631,-0.0011417355,-0.0013689935,-0.0006108655
UncalMag,1676597664782,34721604673352,-196.0784,750.6294,362.8646,550.38293,613.60535,598.6976
UncalAccel,1676597664784,34721606661033,-0.12921242,-0.011365907,9.778868,0.037048545,-0.031444572,0.0098014325
OrientationDeg,1676597664784,34721606661033,79.0,0.0,0.0
UncalGyro,1676597664788,34721610905417,-0.0010690142,-0.00076358154,0.00030543262,-0.0011417355,-0.0013689935,-0.0006108655
UncalMag,1676597664792,34721614673190,-195.8466,750.8734,362.0716,550.38293,613.60535,598.6976
UncalAccel,1676597664793,34721615150830,-0.12921242,-0.011365907,9.774082,0.037048545,-0.031444572,0.0098014325
OrientationDeg,1676597664793,34721615150830,79.0,0.0,0.0
UncalGyro,1676597664797,34721619384768,-0.0016798794,-0.00045814895,0.00030543262,-0.0011417355,-0.0013689935,-0.0006108655
OrientationDeg,1676597664801,34721623632602,79.0,0.0,0.0
UncalAccel,1676597664801,34721623632602,-0.13399807,-0.016151553,9.783653,0.037048545,-0.031444572,0.0098014325
UncalMag,1676597664802,34721624662855,-196.1638,750.8734,362.4376,550.38293,613.60535,598.6976
UncalGyro,1676597664805,34721627869997,-0.00061086525,-0.00045814895,0.00030543262,-0.0011417355,-0.0013689935,-0.0006108655
UncalAccel,1676597664810,34721632110903,-0.124426775,-0.020937199,9.788439,0.037048545,-0.031444572,0.0098014325
OrientationDeg,1676597664810,34721632110903,79.0,0.0,0.0
UncalMag,1676597664812,34721634673353,-195.8954,750.2756,362.6572,550.38293,613.60535,598.6976
UncalGyro,1676597664814,34721636348656,-0.00030543262,0.00030543262,0.0,-0.0011417355,-0.0013689935,-0.0006108655
OrientationDeg,1676597664818,34721640587231,79.0,0.0,0.0
UncalAccel,1676597664818,34721640587231,-0.13399807,-0.016151553,9.783653,0.037048545,-0.031444572,0.0098014325
UncalMag,1676597664822,34721644673353,-196.176,750.7148,362.889,550.38293,613.60535,598.6976
UncalGyro,1676597664822,34721644828026,-0.00061086525,-0.00030543262,-0.00030543262,-0.0011417355,-0.0013689935,-0.0006108655
OrientationDeg,1676597664827,34721649064781,79.0,0.0,0.0
UncalAccel,1676597664827,34721649064781,-0.12921242,-0.020937199,9.793225,0.037048545,-0.031444572,0.0098014325
UncalGyro,1676597664831,34721653304925,-0.0012217305,-0.0015271631,-0.00076358154,-0.0011417355,-0.0013689935,-0.0006108655
UncalMag,1676597664832,34721654673109,-196.0662,750.8002,362.7792,550.38293,613.60535,598.6976
UncalAccel,1676597664835,34721657542911,-0.12921242,-0.016151553,9.783653,0.037048545,-0.031444572,0.0098014325
OrientationDeg,1676597664835,34721657542911,79.0,0.0,0.0
UncalGyro,1676597664839,34721661783725,-0.0013744468,-0.00061086525,-0.0016798794,-0.0011417355,-0.0013689935,-0.0006108655
UncalMag,1676597664842,34721664673313,-195.749,750.89777,363.1696,550.38293,613.60535,598.6976
UncalAccel,1676597664844,34721666023888,-0.12921242,-0.020937199,9.783653,0.037048545,-0.031444572,0.0098014325
OrientationDeg,1676597664844,34721666023888,79.0,0.0,0.0
UncalGyro,1676597664848,34721670261997,-0.00061086525,-0.0012217305,-0.0010690142,-0.0011417355,-0.0013689935,-0.0006108655
UncalAccel,1676597664852,34721674494317,-0.13878371,-0.011365907,9.769297,0.037048545,-0.031444572,0.0098014325
UncalMag,1676597664852,34721674673151,-195.9686,750.6172,362.6206,550.38293,613.60535,598.6976
OrientationDeg,1676597664852,34721674494317,79.0,0.0,0.0
UncalGyro,1676597664857,34721678727298,-0.0012217305,-0.0018325958,-0.0009162979,-0.0011417355,-0.0013689935,-0.0006108655
UncalAccel,1676597664860,34721682964573,-0.13878371,-0.016151553,9.783653,0.037048545,-0.031444572,0.0098014325
UncalMag,1676597664862,34721684673191,-195.8466,750.971,362.462,550.38293,613.60535,598.6976
OrientationDeg,1676597664860,34721682964573,79.0,0.0,0.0
UncalGyro,1676597664865,34721687208165,-0.0013744468,-0.0009162979,-0.0009162979,-0.0011417355,-0.0013689935,-0.0006108655
UncalAccel,1676597664869,34721691458317,-0.124426775,-0.025722843,9.778868,0.037048545,-0.031444572,0.0098014325
OrientationDeg,1676597664869,34721691458317,79.0,0.0,0.0
UncalMag,1676597664872,34721694675104,-196.29799,750.4098,361.608,550.38293,613.60535,598.6976
UncalGyro,1676597664873,34721695695429,-0.0013744468,-0.0015271631,-0.0009162979,-0.0011417355,-0.0013689935,-0.0006108655
UncalAccel,1676597664877,34721699923811,-0.12921242,-0.025722843,9.788439,0.037048545,-0.031444572,0.0098014325
OrientationDeg,1676597664877,34721699923811,79.0,0.0,0.0
UncalGyro,1676597664882,34721704174239,-0.0013744468,-0.001985312,-0.0009162979,-0.0011417355,-0.0013689935,-0.0006108655
UncalMag,1676597664882,34721704676529,-196.29799,750.3366,362.1936,550.38293,613.60535,598.6976
UncalAccel,1676597664886,34721708412632,-0.13399807,-0.016151553,9.783653,0.037048545,-0.031444572,0.0098014325
OrientationDeg,1676597664886,34721708412632,79.0,0.0,0.0
UncalGyro,1676597664890,34721712654006,-0.0013744468,-0.0016798794,-0.0009162979,-0.0011417355,-0.0013689935,-0.0006108655
UncalMag,1676597664892,34721714663060,-195.95639,750.88556,362.5596,550.38293,613.60535,598.6976
UncalAccel,1676597664894,34721716884394,-0.13399807,-0.016151553,9.778868,0.037048545,-0.031444572,0.0098014325
OrientationDeg,1676597664894,34721716884394,79.0,0.0,0.0
UncalGyro,1676597664899,34721721124465,-0.0013744468,-0.0009162979,0.00015271631,-0.0011417355,-0.0013689935,-0.0006108655
UncalMag,1676597664902,34721724662857,-196.0052,749.995,362.2302,550.38293,613.60535,598.6976
UncalAccel,1676597664903,34721725359289,-0.13399807,-0.020937199,9.774082,0.037048545,-0.031444572,0.0098014325
OrientationDeg,1676597664903,34721725359289,79.0,0.0,0.0
UncalGyro,1676597664907,34721729599939,-0.0010690142,-0.0012217305,0.0,-0.0011417355,-0.0013689935,-0.0006108655
UncalAccel,1676597664911,34721733842158,-0.13878371,-0.020937199,9.778868,0.037048545,-0.031444572,0.0098014325
OrientationDeg,1676597664911,34721733842158,79.0,0.0,0.0
UncalMag,1676597664912,34721734663549,-195.2488,750.4342,361.8276,550.38293,613.60535,598.6976
UncalGyro,1676597664916,34721738087050,-0.00061086525,-0.0016798794,-0.00045814895,-0.0011417355,-0.0013689935,-0.0006108655
UncalAccel,1676597664920,34721742315129,-0.13399807,-0.011365907,9.778868,0.037048545,-0.031444572,0.0098014325
UncalMag,1676597664922,34721744673478,-195.8832,750.4342,362.0838,550.38293,613.60535,598.6976
OrientationDeg,1676597664920,34721742315129,79.0,0.0,0.0
UncalGyro,1676597664924,34721746558559,-0.0012217305,-0.0013744468,-0.00061086525,-0.0011417355,-0.0013689935,-0.0006108655
UncalAccel,1676597664928,34721750800847,-0.13399807,-0.016151553,9.778868,0.037048545,-0.031444572,0.0098014325
OrientationDeg,1676597664928,34721750800847,79.0,0.0,0.0
UncalMag,1676597664932,34721754673397,-195.6514,750.8124,362.90118,550.38293,613.60535,598.6976
UncalGyro,1676597664933,34721755033341,-0.0013744468,-0.0016798794,-0.00015271631,-0.0011417355,-0.0013689935,-0.0006108655
UncalAccel,1676597664937,34721759273646,-0.13878371,-0.020937199,9.778868,0.037048545,-0.031444572,0.0098014325
OrientationDeg,1676597664937,34721759273646,79.0,0.0,0.0
UncalGyro,1676597664941,34721763521938,-0.00061086525,-0.0009162979,-0.00045814895,-0.0011417355,-0.0013689935,-0.0006108655
UncalMag,1676597664942,34721764654354,-195.34639,750.544,362.706,550.38293,613.60535,598.6976
OrientationDeg,1676597664945,34721767762620,79.0,0.0,0.0
UncalAccel,1676597664945,34721767762620,-0.13399807,-0.020937199,9.783653,0.037048545,-0.031444572,0.0098014325
UncalGyro,1676597664949,34721771999762,-0.00045814895,-0.00076358154,-0.0009162979,-0.0011417355,-0.0013689935,-0.0006108655
UncalMag,1676597664952,34721774673356,-195.8588,750.8734,362.4376,550.38293,613.60535,598.6976
OrientationDeg,1676597664954,34721776227738,79.0,0.0,0.0
UncalAccel,1676597664954,34721776227738,-0.13399807,-0.016151553,9.778868,0.037048545,-0.031444572,0.0098014325
UncalGyro,1676597664958,34721780479467,-0.0012217305,-0.0012217305,-0.0009162979,-0.0011417355,-0.0013689935,-0.0006108655
UncalMag,1676597664962,34721784673194,-196.29799,750.422,362.218,550.38293,613.60535,598.6976
UncalAccel,1676597664962,34721784713823,-0.13399807,-0.016151553,9.783653,0.037048545,-0.031444572,0.0098014325
OrientationDeg,1676597664962,34721784713823,79.0,0.0,0.0
UncalGyro,1676597664966,34721788948441,-0.00061086525,-0.00061086525,-0.00015271631,-0.0011417355,-0.0013689935,-0.0006108655
UncalAccel,1676597664971,34721793194302,-0.148355,-0.016151553,9.783653,0.037048545,-0.031444572,0.0098014325
OrientationDeg,1676597664971,34721793194302,79.0,0.0,0.0
UncalMag,1676597664972,34721794662533,-195.95639,750.9588,362.218,550.38293,613.60535,598.6976
UncalGyro,1676597664975,34721797434516,-0.00076358154,-0.00076358154,-0.00045814895,-0.0011417355,-0.0013689935,-0.0006108655
UncalAccel,1676597664979,34721801675015,-0.13878371,-0.016151553,9.778868,0.037048545,-0.031444572,0.0098014325
UncalMag,1676597664982,34721804673520,-195.566,750.544,362.58398,550.38293,613.60535,598.6976
UncalGyro,1676597664983,34721805909502,-0.0010690142,-0.0012217305,-0.00015271631,-0.0011417355,-0.0013689935,-0.0006108655
OrientationDeg,1676597664979,34721801675015,79.0,0.0,0.0
UncalAccel,1676597664989,34721810146532,-0.13399807,-0.016151553,9.778868,0.037048545,-0.031444572,0.0098014325
OrientationDeg,1676597664988,34721810146532,79.0,0.0,0.0
UncalGyro,1676597664992,34721814392138,-0.0010690142,-0.0016798794,-0.00076358154,-0.0011417355,-0.0013689935,-0.0006108655
UncalMag,1676597664992,34721814676287,-195.95639,750.88556,362.68158,550.38293,613.60535,598.6976
UncalAccel,1676597664996,34721818629798,-0.13399807,-0.016151553,9.783653,0.037048545,-0.031444572,0.0098014325
OrientationDeg,1676597664996,34721818629798,79.0,0.0,0.0
UncalGyro,1676597665000,34721822870654,-0.0013744468,-0.0009162979,-0.00061086525,-0.0011417355,-0.0013689935,-0.0006108655
UncalMag,1676597665002,34721824673276,-195.6514,750.8002,362.7792,550.38293,613.60535,598.6976
UncalAccel,1676597665005,34721827107164,-0.13399807,-0.025722843,9.778868,0.037048545,-0.031444572,0.0098014325
OrientationDeg,1676597665005,34721827107164,79.0,0.0,0.0
UncalGyro,1676597665009,34721831347429,-0.0010690142,-0.00045814895,-0.00015271631,-0.0011417355,-0.0013689935,-0.0006108655
UncalMag,1676597665012,34721834673195,-195.63919,750.8734,362.0594,550.38293,613.60535,598.6976
UncalAccel,1676597665013,34721835585599,-0.12921242,-0.016151553,9.793225,0.037048545,-0.031444572,0.0098014325
OrientationDeg,1676597665013,34721835585599,79.0,0.0,0.0
UncalGyro,1676597665017,34721839825925,-0.00061086525,-0.00045814895,-0.00076358154,-0.0011417355,-0.0013689935,-0.0006108655
UncalAccel,1676597665022,34721844064380,-0.12921242,-0.025722843,9.783653,0.037048545,-0.031444572,0.0098014325
UncalMag,1676597665022,34721844662697,-196.27359,750.8002,363.0354,550.38293,613.60535,598.6976
OrientationDeg,1676597665023,34721844064380,79.0,0.0,0.0
UncalGyro,1676597665026,34721848305112,-0.0009162979,-0.0012217305,0.00015271631,-0.0011417355,-0.0013689935,-0.0006108655
UncalAccel,1676597665030,34721852542112,-0.13399807,-0.020937199,9.774082,0.037048545,-0.031444572,0.0098014325
OrientationDeg,1676597665030,34721852542112,79.0,0.0,0.0
UncalMag,1676597665032,34721854673358,-195.871,750.6172,362.3766,550.38293,613.60535,598.6976
UncalGyro,1676597665034,34721856782153,-0.00061086525,-0.0016798794,-0.00076358154,-0.0011417355,-0.0013689935,-0.0006108655
UncalAccel,1676597665039,34721861019133,-0.13399807,-0.016151553,9.769297,0.037048545,-0.031444572,0.0098014325
OrientationDeg,1676597665039,34721861019133,79.0,0.0,0.0
UncalMag,1676597665043,34721864673440,-196.2858,750.7026,362.645,550.38293,613.60535,598.6976
UncalGyro,1676597665043,34721865253864,-0.0012217305,-0.0009162979,-0.0009162979,-0.0011417355,-0.0013689935,-0.0006108655
UncalAccel,1676597665047,34721869488747,-0.13399807,-0.025722843,9.774082,0.037048545,-0.031444572,0.0098014325
OrientationDeg,1676597665047,34721869488747,79.0,0.0,0.0
UncalGyro,1676597665051,34721873739510,-0.0013744468,-0.00076358154,-0.00061086525,-0.0011417355,-0.0013689935,-0.0006108655
UncalMag,1676597665052,34721874662861,-195.9686,750.7148,362.889,550.38293,613.60535,598.6976
UncalAccel,1676597665055,34721877978066,-0.13878371,-0.016151553,9.778868,0.037048545,-0.031444572,0.0098014325
UncalGyro,1676597665060,34721882217873,-0.0013744468,-0.0015271631,-0.00061086525,-0.0011417355,-0.0013689935,-0.0006108655
UncalMag,1676597665062,34721884661844,-196.1882,750.4952,361.5104,550.38293,613.60535,598.6976
OrientationDeg,1676597665055,34721877978066,79.0,0.0,0.0
UncalAccel,1676597665064,34721886444060,-0.13399807,-0.016151553,9.783653,0.037048545,-0.031444572,0.0098014325
UncalGyro,1676597665068,34721890695240,-0.00061086525,-0.0013744468,-0.0009162979,-0.0011417355,-0.0013689935,-0.0006108655
OrientationDeg,1676597665064,34721886444060,79.0,0.0,0.0
UncalMag,1676597665072,34721894668965,-196.2858,750.5928,362.0106,550.38293,613.60535,598.6976
UncalAccel,1676597665072,34721894930267,-0.13878371,-0.020937199,9.783653,0.037048545,-0.031444572,0.0098014325
