# 
# Header Description:
# 
# Version: v3.0.5.6 Platform: 13 Manufacturer: Google Model: Pixel 7
# 
# Raw,utcTimeMillis,TimeNanos,LeapSecond,TimeUncertaintyNanos,FullBiasNanos,BiasNanos,BiasUncertaintyNanos,DriftNanosPerSecond,DriftUncertaintyNanosPerSecond,HardwareClockDiscontinuityCount,Svid,TimeOffsetNanos,State,ReceivedSvTimeNanos,ReceivedSvTimeUncertaintyNanos,Cn0DbHz,PseudorangeRateMetersPerSecond,PseudorangeRateUncertaintyMetersPerSecond,AccumulatedDeltaRangeState,AccumulatedDeltaRangeMeters,AccumulatedDeltaRangeUncertaintyMeters,CarrierFrequencyHz,CarrierCycles,CarrierPhase,CarrierPhaseUncertainty,MultipathIndicator,SnrInDb,ConstellationType,AgcDb,BasebandCn0DbHz,FullInterSignalBiasNanos,FullInterSignalBiasUncertaintyNanos,SatelliteInterSignalBiasNanos,SatelliteInterSignalBiasUncertaintyNanos,CodeType,ChipsetElapsedRealtimeNanos
# 
# UncalAccel,utcTimeMillis,elapsedRealtimeNanos,UncalAccelXMps2,UncalAccelYMps2,UncalAccelZMps2,BiasXMps2,BiasYMps2,BiasZMps2
# 
# Accel,utcTimeMillis,elapsedRealtimeNanos,AccelXMps2,AccelYMps2,AccelZMps2
# 
# UncalGyro,utcTimeMillis,elapsedRealtimeNanos,UncalGyroXRadPerSec,UncalGyroYRadPerSec,UncalGyroZRadPerSec,DriftXRadPerSec,DriftYRadPerSec,DriftZRadPerSec
# 
# Gyro,utcTimeMillis,elapsedRealtimeNanos,GyroXRadPerSec,GyroYRadPerSec,GyroZRadPerSec
# 
# UncalMag,utcTimeMillis,elapsedRealtimeNanos,UncalMagXMicroT,UncalMagYMicroT,UncalMagZMicroT,BiasXMicroT,BiasYMicroT,BiasZMicroT
# 
# Mag,utcTimeMillis,elapsedRealtimeNanos,MagXMicroT,MagYMicroT,MagZMicroT
# 
# OrientationDeg,utcTimeMillis,elapsedRealtimeNanos,yawDeg,rollDeg,pitchDeg
# 
# Fix,Provider,LatitudeDegrees,LongitudeDegrees,AltitudeMeters,SpeedMps,AccuracyMeters,BearingDegrees,UnixTimeMillis,SpeedAccuracyMps,BearingAccuracyDegrees,elapsedRealtimeNanos,VerticalAccuracyMeters
# 
# Nav,Svid,Type,Status,MessageId,Sub-messageId,Data(Bytes)
# 
# Status,UnixTimeMillis,SignalCount,SignalIndex,ConstellationType,Svid,CarrierFrequencyHz,Cn0DbHz,AzimuthDegrees,ElevationDegrees,UsedInFix,HasAlmanacData,HasEphemerisData,BasebandCn0DbHz
# 
UncalAccel,1676592727036,29783858244793,-1.0115658,1.8335004,10.012168,0.037048545,-0.031444572,0.0098014325
UncalAccel,1676592727043,29783865447410,-0.8578269,1.7336,10.013365,0.037048545,-0.031444572,0.0098014325
UncalAccel,1676592727051,29783873927104,-0.6759724,1.7252251,9.990633,0.037048545,-0.031444572,0.0098014325
UncalMag,1676592727056,29783878019054,-191.662,776.164,388.9604,-174.57417,771.0116,430.86337
UncalAccel,1676592727060,29783882397318,-0.5419743,1.7258233,9.991829,0.037048545,-0.031444572,0.0098014325
UncalGyro,1676592727064,29783886597710,-0.04795292,-0.12904528,-0.15607607,0.0014934414,-0.0016597759,-0.0003370381
UncalMag,1676592727066,29783888069052,-191.32039,775.04156,388.9238,-174.57417,771.0116,430.86337
UncalAccel,1676592727068,29783890893086,-0.44685963,1.6881363,10.025927,0.037048545,-0.031444572,0.0098014325
UncalGyro,1676592727074,29783895132574,0.011911872,-0.06490443,-0.13698652,0.0014934414,-0.0016597759,-0.0003370381
UncalMag,1676592727077,29783898119050,-191.1984,775.34656,390.1926,-174.57417,771.0116,430.86337
UncalAccel,1676592727077,29783899371814,-0.4319045,1.6833507,9.987641,0.037048545,-0.031444572,0.0098014325
UncalGyro,1676592727081,29783903612028,0.073303826,-0.001985312,-0.1001819,0.0014934414,-0.0016597759,-0.0003370381
UncalAccel,1676592727085,29783907849241,-0.5174479,1.6881363,9.934999,0.037048545,-0.031444572,0.0098014325
UncalMag,1676592727086,29783908124530,-191.0642,775.7492,389.0824,-174.57417,771.0116,430.86337
UncalGyro,1676592727090,29783912088335,0.113162786,0.028099801,-0.061850104,0.0014934414,-0.0016597759,-0.0003370381
UncalAccel,1676592727094,29783916316892,-0.6562316,1.6773686,9.905089,0.037048545,-0.031444572,0.0098014325
UncalMag,1676592727096,29783918124773,-190.84459,775.9322,389.363,-174.57417,771.0116,430.86337
UncalGyro,1676592727098,29783920559201,0.13545936,0.024281893,-0.03848451,0.0014934414,-0.0016597759,-0.0003370381
UncalAccel,1676592727102,29783924804237,-0.7040881,1.6677973,9.938589,0.037048545,-0.031444572,0.0098014325
UncalMag,1676592727106,29783928124447,-191.3936,775.57837,389.6558,-174.57417,771.0116,430.86337
UncalGyro,1676592727107,29783929047736,0.14950927,0.0050396384,-0.036193766,0.0014934414,-0.0016597759,-0.0003370381
UncalAccel,1676592727111,29783933281165,-0.75673014,1.6336997,9.933804,0.037048545,-0.031444572,0.0098014325
UncalGyro,1676592727115,29783937520594,0.1479821,-0.021685716,-0.05222898,0.0014934414,-0.0016597759,-0.0003370381
UncalMag,1676592727116,29783938124121,-191.9426,775.2124,389.3386,-174.57417,771.0116,430.86337
UncalAccel,1676592727119,29783941762884,-0.7902297,1.6002002,10.009775,0.037048545,-0.031444572,0.0098014325
OrientationDeg,1676592727119,29783941762884,59.0,3.0,-9.0
UncalGyro,1676592727124,29783946014959,0.1337795,-0.047494773,-0.07513642,0.0014934414,-0.0016597759,-0.0003370381
UncalMag,1676592727126,29783948124486,-191.2838,775.6516,388.8262,-174.57417,771.0116,430.86337
UncalAccel,1676592727128,29783950243515,-0.84406817,1.5613167,10.157532,0.037048545,-0.031444572,0.0098014325
OrientationDeg,1676592727128,29783950243515,60.0,3.0,-9.0
UncalGyro,1676592727132,29783954484369,0.1253801,-0.071013086,-0.100334615,0.0014934414,-0.0016597759,-0.0003370381
UncalMag,1676592727136,29783958125666,-190.79579,775.0782,389.6436,-174.57417,771.0116,430.86337
UncalAccel,1676592727136,29783958725366,-0.8488538,1.5176477,10.200603,0.037048545,-0.031444572,0.0098014325
UncalGyro,1676592727140,29783962968377,0.13973543,-0.09773844,-0.12507465,0.0014934414,-0.0016597759,-0.0003370381
OrientationDeg,1676592727136,29783958725366,60.0,3.0,-9.0
UncalAccel,1676592727145,29783967209262,-0.8967103,1.4452649,10.2347,0.037048545,-0.031444572,0.0098014325
UncalMag,1676592727146,29783968124566,-191.5278,775.04156,389.2898,-174.57417,771.0116,430.86337
OrientationDeg,1676592727145,29783967209262,60.0,3.0,-9.0
UncalGyro,1676592727149,29783971455193,0.17256944,-0.120493166,-0.14126259,0.0014934414,-0.0016597759,-0.0003370381
OrientationDeg,1676592727153,29783975686923,60.0,3.0,-9.0
UncalAccel,1676592727153,29783975686923,-0.9732806,1.4303098,10.253245,0.037048545,-0.031444572,0.0098014325
UncalMag,1676592727156,29783978127577,-191.845,775.04156,389.2898,-174.57417,771.0116,430.86337
Fix,NLP,37.4313370000,-122.1537449000,-16.100000381469727,,110.0,,1676592685929,,,29742751000000,11.239699
UncalGyro,1676592727157,29783979931145,0.2087632,-0.13408493,-0.15057829,0.0014934414,-0.0016597759,-0.0003370381
UncalAccel,1676592727162,29783984168439,-1.0450653,1.439881,10.290932,0.037048545,-0.031444572,0.0098014325
OrientationDeg,1676592727162,29783984168439,60.0,3.0,-10.0
UncalMag,1676592727166,29783988126925,-191.4424,774.7976,389.5948,-174.57417,771.0116,430.86337
UncalGyro,1676592727166,29783988413647,0.23701571,-0.13530666,-0.15485434,0.0014934414,-0.0016597759,-0.0003370381
UncalAccel,1676592727170,29783992658957,-1.1515459,1.4530416,10.390234,0.037048545,-0.031444572,0.0098014325
OrientationDeg,1676592727170,29783992658957,60.0,3.0,-10.0
UncalGyro,1676592727174,29783996895286,0.25809056,-0.12415836,-0.15745051,0.0014934414,-0.0016597759,-0.0003370381
UncalMag,1676592727176,29783998124889,-191.9548,774.9806,390.2536,-174.57417,771.0116,430.86337
UncalAccel,1676592727179,29784001133455,-1.2520444,1.4380864,10.41835,0.037048545,-0.031444572,0.0098014325
OrientationDeg,1676592727179,29784001133455,60.0,3.0,-10.0
UncalGyro,1676592727183,29784005374055,0.2780964,-0.1226312,-0.15806139,0.0014934414,-0.0016597759,-0.0003370381
UncalMag,1676592727186,29784008124726,-191.9548,774.944,389.15558,-174.57417,771.0116,430.86337
UncalAccel,1676592727187,29784009611257,-1.3615161,1.3752748,10.41835,0.037048545,-0.031444572,0.0098014325
OrientationDeg,1676592727187,29784009611257,60.0,3.0,-10.0
UncalGyro,1676592727191,29784013851938,0.28817567,-0.14905111,-0.15454891,0.0014934414,-0.0016597759,-0.0003370381
UncalAccel,1676592727196,29784018091420,-1.4422739,1.2981063,10.432109,0.037048545,-0.031444572,0.0098014325
OrientationDeg,1676592727196,29784018091420,60.0,3.0,-10.0
UncalMag,1676592727196,29784018124481,-191.6376,774.944,388.89938,-174.57417,771.0116,430.86337
UncalGyro,1676592727200,29784022332814,0.2773328,-0.19226983,-0.14920384,0.0014934414,-0.0016597759,-0.0003370381
UncalAccel,1676592727204,29784026573160,-1.4859428,1.2400804,10.546964,0.037048545,-0.031444572,0.0098014325
OrientationDeg,1676592727204,29784026573160,60.0,3.0,-10.0
UncalMag,1676592727206,29784028125050,-191.6376,774.944,388.89938,-174.57417,771.0116,430.86337
UncalGyro,1676592727208,29784030812927,0.24556783,-0.23060162,-0.14813483,0.0014934414,-0.0016597759,-0.0003370381
UncalAccel,1676592727213,29784035057534,-1.4961123,1.1826526,10.666007,0.037048545,-0.031444572,0.0098014325
OrientationDeg,1676592727213,29784035057534,60.0,3.0,-10.0
UncalMag,1676592727216,29784038124439,-192.38179,774.6634,388.8628,-174.57417,771.0116,430.86337
UncalGyro,1676592727217,29784039299986,0.20998493,-0.25977045,-0.15317446,0.0014934414,-0.0016597759,-0.0003370381
UncalAccel,1676592727222,29784043535815,-1.4859428,1.082154,10.666605,0.037048545,-0.031444572,0.0098014325
OrientationDeg,1676592727221,29784043535815,60.0,2.0,-10.0
OrientationDeg,1676592727230,29784052012409,61.0,2.0,-11.0
UncalGyro,1676592727225,29784047775662,0.1863139,-0.2845105,-0.1656972,0.0014934414,-0.0016597759,-0.0003370381
UncalMag,1676592727226,29784048124520,-192.1866,774.51697,389.668,-174.57417,771.0116,430.86337
UncalAccel,1676592727230,29784052012409,-1.4141582,0.9385847,10.725229,0.037048545,-0.031444572,0.0098014325
UncalGyro,1676592727234,29784056255724,0.17654006,-0.29092458,-0.17898351,0.0014934414,-0.0016597759,-0.0003370381
UncalMag,1676592727237,29784058124926,-192.1866,774.51697,389.668,-174.57417,771.0116,430.86337
UncalAccel,1676592727238,29784060497190,-1.3238292,0.8045866,10.89811,0.037048545,-0.031444572,0.0098014325
OrientationDeg,1676592727238,29784060497190,61.0,2.0,-11.0
UncalGyro,1676592727242,29784064736304,0.16905695,-0.2677117,-0.1956296,0.0014934414,-0.0016597759,-0.0003370381
UncalMag,1676592727247,29784068125495,-192.7356,774.1632,389.47278,-174.57417,771.0116,430.86337
UncalAccel,1676592727246,29784068975439,-1.2329018,0.71425754,10.99502,0.037048545,-0.031444572,0.0098014325
OrientationDeg,1676592727246,29784068975439,61.0,2.0,-11.0
UncalGyro,1676592727251,29784073217646,0.15897769,-0.2396119,-0.2237294,0.0014934414,-0.0016597759,-0.0003370381
UncalAccel,1676592727255,29784077458837,-1.1515459,0.62871414,10.995618,0.037048545,-0.031444572,0.0098014325
UncalMag,1676592727256,29784078124314,-192.821,774.50476,389.5582,-174.57417,771.0116,430.86337
OrientationDeg,1676592727255,29784077458837,61.0,2.0,-11.0
UncalGyro,1676592727259,29784081699276,0.14737125,-0.22495113,-0.2660318,0.0014934414,-0.0016597759,-0.0003370381
UncalAccel,1676592727263,29784085929235,-1.0935199,0.5377869,11.006386,0.037048545,-0.031444572,0.0098014325
OrientationDeg,1676592727263,29784085929235,61.0,2.0,-11.0
UncalMag,1676592727267,29784088121383,-192.8698,773.7362,389.85098,-174.57417,771.0116,430.86337
UncalGyro,1676592727268,29784090178471,0.13408493,-0.23136522,-0.32375857,0.0014934414,-0.0016597759,-0.0003370381
UncalAccel,1676592727272,29784094419661,-1.102493,0.4325027,11.006386,0.037048545,-0.031444572,0.0098014325
OrientationDeg,1676592727272,29784094419661,61.0,2.0,-11.0
UncalMag,1676592727276,29784098126550,-192.76,773.8094,389.5094,-174.57417,771.0116,430.86337
UncalGyro,1676592727276,29784098663100,0.116980694,-0.26206118,-0.40042216,0.0014934414,-0.0016597759,-0.0003370381
UncalAccel,1676592727281,29784102901880,-1.096511,0.3080759,10.940583,0.037048545,-0.031444572,0.0098014325
OrientationDeg,1676592727280,29784102901880,61.0,2.0,-11.0
UncalGyro,1676592727285,29784107146579,0.09773844,-0.32330042,-0.50442195,0.0014934414,-0.0016597759,-0.0003370381
UncalMag,1676592727286,29784108124474,-193.3944,773.6264,389.729,-174.57417,771.0116,430.86337
UncalAccel,1676592727289,29784111382907,-1.0773684,0.16869399,11.003395,0.037048545,-0.031444572,0.0098014325
OrientationDeg,1676592727289,29784111382907,62.0,2.0,-11.0
UncalGyro,1676592727293,29784115623456,0.072540246,-0.3819435,-0.63789606,0.0014934414,-0.0016597759,-0.0003370381
UncalMag,1676592727296,29784118127810,-193.28459,773.7484,390.8392,-174.57417,771.0116,430.86337
UncalAccel,1676592727297,29784119859937,-0.9870393,0.025722843,11.214561,0.037048545,-0.031444572,0.0098014325
OrientationDeg,1676592727297,29784119859937,62.0,2.0,-11.0
UncalGyro,1676592727302,29784124104758,0.04046982,-0.4259258,-0.7861836,0.0014934414,-0.0016597759,-0.0003370381
UncalMag,1676592727306,29784128124310,-193.28459,773.66296,390.8148,-174.57417,771.0116,430.86337
UncalAccel,1676592727306,29784128341982,-0.8488538,-0.08853444,11.311471,0.037048545,-0.031444572,0.0098014325
OrientationDeg,1676592727306,29784128341982,62.0,1.0,-11.0
UncalGyro,1676592727310,29784132578045,0.0025961774,-0.49312097,-0.93508196,0.0014934414,-0.0016597759,-0.0003370381
UncalAccel,1676592727314,29784136823803,-0.75673014,-0.26081768,11.270195,0.037048545,-0.031444572,0.0098014325
OrientationDeg,1676592727314,29784136823803,63.0,1.0,-11.0
UncalMag,1676592727316,29784138124472,-193.5042,773.4678,390.16818,-174.57417,771.0116,430.86337
UncalGyro,1676592727319,29784141065095,-0.04810564,-0.59483004,-1.069625,0.0014934414,-0.0016597759,-0.0003370381
UncalAccel,1676592727323,29784145307293,-0.64606214,-0.4660022,11.319846,0.037048545,-0.031444572,0.0098014325
OrientationDeg,1676592727323,29784145307293,64.0,1.0,-11.0
UncalMag,1676592727326,29784148124553,-194.68759,772.91876,390.0706,-174.57417,771.0116,430.86337
UncalGyro,1676592727327,29784149548086,-0.111635625,-0.69989884,-1.1931726,0.0014934414,-0.0016597759,-0.0003370381
UncalAccel,1676592727331,29784153784851,-0.5557331,-0.5712864,11.468799,0.037048545,-0.031444572,0.0098014325
OrientationDeg,1676592727331,29784153784851,64.0,1.0,-11.0
UncalGyro,1676592727336,29784158029672,-0.1740966,-0.782213,-1.3214543,0.0014934414,-0.0016597759,-0.0003370381
UncalMag,1676592727336,29784158124471,-193.62619,773.3092,390.6196,-174.57417,771.0116,430.86337
UncalAccel,1676592727340,29784162266763,-0.48394838,-0.61854464,11.526825,0.037048545,-0.031444572,0.0098014325
OrientationDeg,1676592727340,29784162266763,65.0,1.0,-11.0
UncalGyro,1676592727344,29784166508941,-0.21181752,-0.8425359,-1.4668401,0.0014934414,-0.0016597759,-0.0003370381
UncalMag,1676592727346,29784168124388,-194.5168,772.3454,391.2662,-174.57417,771.0116,430.86337
UncalAccel,1676592727348,29784170751606,-0.3930211,-0.70947194,11.594422,0.037048545,-0.031444572,0.0098014325
OrientationDeg,1676592727348,29784170751606,66.0,0.0,-11.0
UncalGyro,1676592727353,29784175001382,-0.21700987,-0.87689704,-1.6259706,0.0014934414,-0.0016597759,-0.0003370381
UncalMag,1676592727356,29784178127195,-194.71199,772.60156,391.32718,-174.57417,771.0116,430.86337
UncalAccel,1676592727357,29784179232277,-0.32063824,-0.80937225,11.600404,0.037048545,-0.031444572,0.0098014325
OrientationDeg,1676592727357,29784179232277,66.0,0.0,-10.0
UncalGyro,1676592727361,29784183475726,-0.18768835,-0.9053023,-1.7971655,0.0014934414,-0.0016597759,-0.0003370381
UncalAccel,1676592727365,29784187705705,-0.26679972,-0.89491564,11.481959,0.037048545,-0.031444572,0.0098014325
UncalMag,1676592727366,29784188124306,-194.7486,772.06476,390.8392,-174.57417,771.0116,430.86337
OrientationDeg,1676592727365,29784187705705,67.0,0.0,-10.0
UncalGyro,1676592727369,29784191950264,-0.13805555,-0.95264435,-1.9761491,0.0014934414,-0.0016597759,-0.0003370381
UncalAccel,1676592727374,29784196186918,-0.18065812,-0.93738824,11.516057,0.037048545,-0.031444572,0.0098014325
UncalMag,1676592727376,29784198125119,-195.5416,771.12537,391.96158,-174.57417,771.0116,430.86337
OrientationDeg,1676592727374,29784196186918,68.0,0.0,-10.0
UncalGyro,1676592727378,29784200432278,-0.08200866,-1.0033462,-2.1499403,0.0014934414,-0.0016597759,-0.0003370381
UncalAccel,1676592727382,29784204671830,-0.09032906,-0.994816,11.559726,0.037048545,-0.031444572,0.0098014325
OrientationDeg,1676592727382,29784204671830,70.0,0.0,-10.0
UncalMag,1676592727386,29784208124589,-196.2126,770.2958,390.9368,-174.57417,771.0116,430.86337
UncalGyro,1676592727386,29784208912004,-0.030543262,-1.066418,-2.3112087,0.0014934414,-0.0016597759,-0.0003370381
UncalAccel,1676592727391,29784213149796,-0.01794617,-1.0277174,11.522039,0.037048545,-0.031444572,0.0098014325
OrientationDeg,1676592727391,29784213149796,71.0,0.0,-10.0
UncalGyro,1676592727395,29784217396500,0.014049901,-1.1362094,-2.456289,0.0014934414,-0.0016597759,-0.0003370381
UncalMag,1676592727396,29784218124100,-196.3468,769.7956,391.6688,-174.57417,771.0116,430.86337
UncalAccel,1676592727399,29784221650711,0.07298109,-1.07019,11.575279,0.037048545,-0.031444572,0.0098014325
OrientationDeg,1676592727399,29784221650711,72.0,-1.0,-10.0
UncalGyro,1676592727403,29784225871109,0.044745877,-1.2009611,-2.5804474,0.0014934414,-0.0016597759,-0.0003370381
UncalMag,1676592727406,29784228126012,-197.2862,769.9786,392.4618,-174.57417,771.0116,430.86337
UncalAccel,1676592727408,29784230105737,0.1698904,-1.0600204,11.394622,0.037048545,-0.031444572,0.0098014325
OrientationDeg,1676592727408,29784230105737,73.0,-1.0,-10.0
UncalGyro,1676592727412,29784234351423,0.072540246,-1.2799155,-2.6855164,0.0014934414,-0.0016597759,-0.0003370381
UncalMag,1676592727416,29784238135166,-198.1646,769.2588,392.54718,-174.57417,771.0116,430.86337
UncalAccel,1676592727416,29784238603905,0.24825534,-1.0540384,11.089537,0.037048545,-0.031444572,0.0098014325
OrientationDeg,1676592727416,29784238603905,75.0,-1.0,-10.0
UncalGyro,1676592727420,29784242840467,0.09483683,-1.374905,-2.7690523,0.0014934414,-0.0016597759,-0.0003370381
UncalAccel,1676592727425,29784247086724,0.3068795,-1.0917253,10.951949,0.037048545,-0.031444572,0.0098014325
UncalMag,1676592727426,29784248124708,-198.2744,769.1246,393.60858,-174.57417,771.0116,430.86337
UncalGyro,1676592727429,29784251324700,0.106901415,-1.455081,-2.8350255,0.0014934414,-0.0016597759,-0.0003370381
OrientationDeg,1676592727425,29784247086724,76.0,-2.0,-10.0
UncalAccel,1676592727433,29784255564090,0.40378883,-1.0815558,10.808978,0.037048545,-0.031444572,0.0098014325
UncalMag,1676592727436,29784258134961,-198.94539,768.417,393.81598,-174.57417,771.0116,430.86337
OrientationDeg,1676592727433,29784255564090,77.0,-2.0,-11.0
UncalGyro,1676592727437,29784259806419,0.111177474,-1.5190692,-2.8884764,0.0014934414,-0.0016597759,-0.0003370381
UncalAccel,1676592727442,29784264044771,0.5347959,-1.0516455,10.576276,0.037048545,-0.031444572,0.0098014325
OrientationDeg,1676592727442,29784264044771,79.0,-3.0,-11.0
UncalMag,1676592727446,29784268134838,-199.653,767.1848,393.7794,-174.57417,771.0116,430.86337
UncalGyro,1676592727446,29784268287914,0.105832405,-1.581072,-2.937193,0.0014934414,-0.0016597759,-0.0003370381
UncalAccel,1676592727450,29784272526856,0.61734825,-0.9738788,10.36152,0.037048545,-0.031444572,0.0098014325
OrientationDeg,1676592727450,29784272526856,80.0,-3.0,-11.0
UncalGyro,1676592727454,29784276769726,0.0954477,-1.6249015,-2.9975157,0.0014934414,-0.0016597759,-0.0003370381
UncalMag,1676592727456,29784278134797,-199.897,766.56256,393.8892,-174.57417,771.0116,430.86337
Fix,FLP,37.4308430000,-122.1550406000,-16.100000381469727,0.15116054,5.539,312.42944,1676592727073,,,29783895321323,5.4647
UncalAccel,1676592727459,29784281004893,0.7369894,-0.87218386,10.2520485,0.037048545,-0.031444572,0.0098014325
OrientationDeg,1676592727459,29784281004893,82.0,-4.0,-11.0
UncalGyro,1676592727463,29784285238515,0.08689558,-1.6302466,-3.061351,0.0014934414,-0.0016597759,-0.0003370381
UncalMag,1676592727466,29784288143341,-199.53099,765.733,395.0116,-174.57417,771.0116,430.86337
UncalAccel,1676592727467,29784289485707,0.85184485,-0.6987042,10.079765,0.037048545,-0.031444572,0.0098014325
OrientationDeg,1676592727467,29784289485707,83.0,-4.0,-11.0
UncalGyro,1676592727471,29784293716714,0.08597928,-1.6223054,-3.123354,0.0014934414,-0.0016597759,-0.0003370381
UncalAccel,1676592727475,29784297961333,0.8249256,-0.6556334,9.83151,0.037048545,-0.031444572,0.0098014325
UncalMag,1676592727476,29784298125030,-200.45819,764.32996,395.0604,-174.57417,771.0116,430.86337
OrientationDeg,1676592727475,29784297961333,85.0,-5.0,-11.0
UncalGyro,1676592727480,29784302210569,0.086437434,-1.623527,-3.1694744,0.0014934414,-0.0016597759,-0.0003370381
UncalAccel,1676592727484,29784306453510,0.7890333,-0.6939186,9.57787,0.037048545,-0.031444572,0.0098014325
UncalMag,1676592727486,29784308124378,-201.6172,764.12256,394.792,-174.57417,771.0116,430.86337
OrientationDeg,1676592727484,29784306453510,87.0,-5.0,-12.0
UncalGyro,1676592727489,29784310695829,0.0804815,-1.6426166,-3.198185,0.0014934414,-0.0016597759,-0.0003370381
UncalAccel,1676592727492,29784314924457,0.73818576,-0.6693921,9.3104725,0.037048545,-0.031444572,0.0098014325
OrientationDeg,1676592727492,29784314924457,88.0,-6.0,-12.0
UncalMag,1676592727496,29784318135038,-201.75139,763.72,395.9144,-174.57417,771.0116,430.86337
UncalGyro,1676592727497,29784319157641,0.074830994,-1.6650659,-3.211166,0.0014934414,-0.0016597759,-0.0003370381
UncalAccel,1676592727501,29784323411384,0.6197411,-0.5838487,9.132806,0.037048545,-0.031444572,0.0098014325
OrientationDeg,1676592727501,29784323411384,90.0,-6.0,-12.0
UncalGyro,1676592727505,29784327651364,0.07819075,-1.6656768,-3.2149837,0.0014934414,-0.0016597759,-0.0003370381
UncalMag,1676592727506,29784328131538,-202.1418,762.42676,396.8294,-174.57417,771.0116,430.86337
UncalAccel,1676592727509,29784331885862,0.5300102,-0.47377887,8.912068,0.037048545,-0.031444572,0.0098014325
OrientationDeg,1676592727509,29784331885862,91.0,-6.0,-12.0
UncalGyro,1676592727514,29784336134397,0.08399397,-1.6500998,-3.2131512,0.0014934414,-0.0016597759,-0.0003370381
UncalMag,1676592727516,29784338124701,-203.008,761.8778,396.4756,-174.57417,771.0116,430.86337
UncalAccel,1676592727518,29784340373847,0.5306084,-0.33918262,8.691928,0.037048545,-0.031444572,0.0098014325
OrientationDeg,1676592727518,29784340373847,93.0,-7.0,-12.0
UncalGyro,1676592727522,29784344618719,0.075594574,-1.6268868,-3.207959,0.0014934414,-0.0016597759,-0.0003370381
UncalMag,1676592727526,29784348137640,-202.97139,760.7676,397.171,-174.57417,771.0116,430.86337
UncalAccel,1676592727526,29784348851944,0.55453664,-0.15194423,8.533403,0.037048545,-0.031444572,0.0098014325
OrientationDeg,1676592727526,29784348851944,94.0,-7.0,-13.0
UncalGyro,1676592727531,29784353085607,0.042913284,-1.6110044,-3.2027664,0.0014934414,-0.0016597759,-0.0003370381
UncalAccel,1676592727535,29784357335392,0.5838487,0.030508488,8.375478,0.037048545,-0.031444572,0.0098014325
OrientationDeg,1676592727535,29784357335392,96.0,-8.0,-13.0
UncalMag,1676592727536,29784358124171,-202.825,759.8404,398.0372,-174.57417,771.0116,430.86337
UncalGyro,1676592727539,29784361576472,-0.021685716,-1.6184875,-3.1952834,0.0014934414,-0.0016597759,-0.0003370381
UncalAccel,1676592727543,29784365816340,0.54436713,0.20279172,8.374281,0.037048545,-0.031444572,0.0098014325
OrientationDeg,1676592727543,29784365816340,98.0,-8.0,-13.0
UncalMag,1676592727546,29784368124536,-203.0934,758.9132,399.2816,-174.57417,771.0116,430.86337
UncalGyro,1676592727548,29784370057743,-0.11484267,-1.6401732,-3.1795535,0.0014934414,-0.0016597759,-0.0003370381
UncalAccel,1676592727552,29784374297418,0.49651068,0.37507495,8.263015,0.037048545,-0.031444572,0.0098014325
OrientationDeg,1676592727553,29784374297418,99.0,-9.0,-13.0
UncalMag,1676592727556,29784378135033,-202.7518,757.62,399.4402,-174.57417,771.0116,430.86337
UncalGyro,1676592727556,29784378538944,-0.21655174,-1.6708691,-3.1479414,0.0014934414,-0.0016597759,-0.0003370381
UncalAccel,1676592727560,29784382766605,0.42951167,0.5521438,8.123632,0.037048545,-0.031444572,0.0098014325
OrientationDeg,1676592727560,29784382766605,101.0,-9.0,-13.0
UncalGyro,1676592727565,29784387016503,-0.31337386,-1.6974418,-3.094796,0.0014934414,-0.0016597759,-0.0003370381
UncalMag,1676592727566,29784388130109,-203.6546,756.461,399.306,-174.57417,771.0116,430.86337
UncalAccel,1676592727570,29784391258456,0.35174492,0.72382885,8.160124,0.037048545,-0.031444572,0.0098014325
OrientationDeg,1676592727569,29784391258456,102.0,-10.0,-13.0
UncalGyro,1676592727573,29784395503247,-0.3911065,-1.6946929,-3.008053,0.0014934414,-0.0016597759,-0.0003370381
UncalMag,1676592727576,29784398134869,-204.19139,756.29016,399.64758,-174.57417,771.0116,430.86337
UncalAccel,1676592727577,29784399740368,0.2428715,0.8769695,7.944171,0.037048545,-0.031444572,0.0098014325
OrientationDeg,1676592727577,29784399740368,104.0,-10.0,-13.0
UncalGyro,1676592727581,29784403978700,-0.4457789,-1.7087429,-2.878397,0.0014934414,-0.0016597759,-0.0003370381
UncalMag,1676592727586,29784408134787,-204.4354,755.6924,400.3552,-174.57417,771.0116,430.86337
UncalAccel,1676592727586,29784408208161,0.15314065,0.95832545,7.728219,0.037048545,-0.031444572,0.0098014325
OrientationDeg,1676592727586,29784408208161,105.0,-10.0,-13.0
UncalGyro,1676592727590,29784412452566,-0.4801401,-1.7475327,-2.707813,0.0014934414,-0.0016597759,-0.0003370381
UncalAccel,1676592727594,29784416701661,0.10767702,0.9391829,7.4129643,0.037048545,-0.031444572,0.0098014325
UncalMag,1676592727596,29784418124492,-204.4964,754.8262,400.75778,-174.57417,771.0116,430.86337
OrientationDeg,1676592727594,29784416701661,106.0,-11.0,-13.0
UncalGyro,1676592727598,29784420945588,-0.50518554,-1.8241963,-2.514016,0.0014934414,-0.0016597759,-0.0003370381
UncalAccel,1676592727603,29784425183532,0.15194423,0.9445667,7.222735,0.037048545,-0.031444572,0.0098014325
OrientationDeg,1676592727603,29784425183532,108.0,-12.0,-13.0
UncalMag,1676592727606,29784428134826,-204.39879,754.57,400.69678,-174.57417,771.0116,430.86337
UncalGyro,1676592727607,29784429418334,-0.5328272,-1.9101756,-2.320677,0.0014934414,-0.0016597759,-0.0003370381
UncalAccel,1676592727611,29784433663410,0.15732808,1.0115658,7.0983086,0.037048545,-0.031444572,0.0098014325
OrientationDeg,1676592727611,29784433663410,109.0,-12.0,-13.0
UncalGyro,1676592727615,29784437904530,-0.57436603,-1.9847012,-2.147802,0.0014934414,-0.0016597759,-0.0003370381
UncalMag,1676592727616,29784438125508,-204.24019,753.8136,401.4776,-174.57417,771.0116,430.86337
UncalAccel,1676592727620,29784442145272,0.11365908,1.1216356,7.140183,0.037048545,-0.031444572,0.0098014325
OrientationDeg,1676592727620,29784442145272,110.0,-13.0,-13.0
UncalGyro,1676592727624,29784446384561,-0.6363689,-2.0124955,-2.0024164,0.0014934414,-0.0016597759,-0.0003370381
UncalMag,1676592727626,29784448124286,-204.7038,753.1304,402.173,-174.57417,771.0116,430.86337
UncalAccel,1676592727628,29784450622537,0.0735793,1.250848,7.268199,0.037048545,-0.031444572,0.0098014325
OrientationDeg,1676592727628,29784450622537,111.0,-14.0,-13.0
UncalGyro,1676592727632,29784454855935,-0.70173144,-1.9504927,-1.8738291,0.0014934414,-0.0016597759,-0.0003370381
UncalMag,1676592727636,29784458138161,-205.1308,752.9718,403.2344,-174.57417,771.0116,430.86337
UncalAccel,1676592727637,29784459103716,-0.0424726,1.4703895,7.347162,0.037048545,-0.031444572,0.0098014325
OrientationDeg,1676592727637,29784459103716,112.0,-14.0,-13.0
UncalGyro,1676592727641,29784463336952,-0.75609845,-1.7954856,-1.7507398,0.0014934414,-0.0016597759,-0.0003370381
UncalAccel,1676592727645,29784467589393,-0.18305093,1.698904,7.3836527,0.037048545,-0.031444572,0.0098014325
OrientationDeg,1676592727645,29784467589393,113.0,-15.0,-13.0
UncalMag,1676592727646,29784468124203,-205.0698,752.3008,403.7956,-174.57417,771.0116,430.86337
UncalGyro,1676592727649,29784471827948,-0.7984009,-1.5725199,-1.6216946,0.0014934414,-0.0016597759,-0.0003370381
UncalAccel,1676592727655,29784476070624,-0.2943172,1.8945173,7.443473,0.037048545,-0.031444572,0.0098014325
OrientationDeg,1676592727654,29784476070624,114.0,-16.0,-13.0
UncalMag,1676592727656,29784478134985,-205.7896,752.6546,404.3812,-174.57417,771.0116,430.86337
UncalGyro,1676592727658,29784480309475,-0.82695884,-1.274723,-1.4760032,0.0014934414,-0.0016597759,-0.0003370381
UncalAccel,1676592727662,29784484544602,-0.42532423,2.1044874,7.5326056,0.037048545,-0.031444572,0.0098014325
OrientationDeg,1676592727662,29784484544602,114.0,-16.0,-13.0
UncalMag,1676592727666,29784488134903,-205.8506,751.4956,403.7468,-174.57417,771.0116,430.86337
UncalGyro,1676592727666,29784488787369,-0.84635377,-0.9059132,-1.314582,0.0014934414,-0.0016597759,-0.0003370381
UncalAccel,1676592727671,29784493018518,-0.5808577,2.4484558,7.6588273,0.037048545,-0.031444572,0.0098014325
OrientationDeg,1676592727671,29784493018518,115.0,-16.0,-12.0
UncalGyro,1676592727675,29784497271824,-0.8743009,-0.4906775,-1.1501065,0.0014934414,-0.0016597759,-0.0003370381
UncalMag,1676592727676,29784498124445,-206.1312,752.0202,403.759,-174.57417,771.0116,430.86337
UncalAccel,1676592727679,29784501510015,-1.16351,2.5441687,11.253445,0.037048545,-0.031444572,0.0098014325
OrientationDeg,1676592727679,29784501510015,116.0,-16.0,-12.0
UncalGyro,1676592727683,29784505754287,-0.43967026,1.2302825,-0.8558222,0.0014934414,-0.0016597759,-0.0003370381
UncalMag,1676592727686,29784508125502,-205.61879,752.05676,404.9668,-174.57417,771.0116,430.86337
UncalAccel,1676592727687,29784509990595,-0.73340017,3.0023942,16.713865,0.037048545,-0.031444572,0.0098014325
OrientationDeg,1676592727687,29784509990595,116.0,-15.0,-12.0
UncalGyro,1676592727692,29784514231632,0.09560041,1.9456058,-0.5882632,0.0014934414,-0.0016597759,-0.0003370381
UncalMag,1676592727696,29784518135349,-204.80139,751.6908,403.5272,-174.57417,771.0116,430.86337
UncalAccel,1676592727696,29784518469292,-0.6358926,5.011767,4.1898327,0.037048545,-0.031444572,0.0098014325
OrientationDeg,1676592727696,29784518469292,116.0,-14.0,-12.0
UncalGyro,1676592727700,29784522702812,0.3352123,1.6006197,-0.52641314,0.0014934414,-0.0016597759,-0.0003370381
UncalAccel,1676592727704,29784526953199,-1.4315062,3.958925,9.005986,0.037048545,-0.031444572,0.0098014325
OrientationDeg,1676592727704,29784526953199,117.0,-13.0,-13.0
UncalMag,1676592727706,29784528124321,-203.9718,751.53217,403.83218,-174.57417,771.0116,430.86337
UncalGyro,1676592727709,29784531194328,0.3724751,1.6346754,-0.41034874,0.0014934414,-0.0016597759,-0.0003370381
UncalAccel,1676592727713,29784535436098,-1.0295119,3.7477584,7.8687973,0.037048545,-0.031444572,0.0098014325
OrientationDeg,1676592727713,29784535436098,117.0,-12.0,-13.0
UncalMag,1676592727716,29784538135144,-203.55699,751.3492,403.29538,-174.57417,771.0116,430.86337
UncalGyro,1676592727717,29784539674907,0.08460484,1.4228579,-0.31337386,0.0014934414,-0.0016597759,-0.0003370381
UncalAccel,1676592727721,29784543914898,-2.0691934,2.8725836,11.899507,0.037048545,-0.031444572,0.0098014325
OrientationDeg,1676592727721,29784543914898,117.0,-11.0,-13.0
UncalMag,1676592727726,29784548124685,-202.76399,750.7392,402.7586,-174.57417,771.0116,430.86337
UncalGyro,1676592727726,29784548157420,-0.084146686,2.165059,0.0056505036,0.0014934414,-0.0016597759,-0.0003370381
UncalAccel,1676592727730,29784552395020,-4.267001,0.8895318,9.194421,0.037048545,-0.031444572,0.0098014325
OrientationDeg,1676592727730,29784552395020,117.0,-10.0,-13.0
UncalGyro,1676592727734,29784556636821,0.5045747,0.9833403,1.1914927,0.0014934414,-0.0016597759,-0.0003370381
UncalMag,1676592727736,29784558117483,-202.4468,750.7392,402.2706,-174.57417,771.0116,430.86337
UncalAccel,1676592727738,29784560875956,-6.8339014,0.20398813,8.809176,0.037048545,-0.031444572,0.0098014325
OrientationDeg,1676592727738,29784560875956,115.0,-11.0,-13.0
UncalGyro,1676592727743,29784565117757,1.1472049,0.28237244,2.4132233,0.0014934414,-0.0016597759,-0.0003370381
UncalMag,1676592727746,29784568124358,-201.88559,751.41016,401.2092,-174.57417,771.0116,430.86337
UncalAccel,1676592727747,29784569354522,-0.52522457,4.0677986,10.576875,0.037048545,-0.031444572,0.0098014325
OrientationDeg,1676592727747,29784569354522,114.0,-11.0,-13.0
UncalGyro,1676592727751,29784573587095,0.8052731,0.19394971,2.4339926,0.0014934414,-0.0016597759,-0.0003370381
UncalAccel,1676592727755,29784577835458,-0.424726,5.133801,9.116056,0.037048545,-0.031444572,0.0098014325
UncalMag,1676592727756,29784578134815,-203.89859,752.6058,401.7826,-174.57417,771.0116,430.86337
OrientationDeg,1676592727755,29784577835458,113.0,-11.0,-13.0
UncalGyro,1676592727760,29784582081673,0.06612616,0.21502456,2.122146,0.0014934414,-0.0016597759,-0.0003370381
UncalAccel,1676592727764,29784586321562,-1.3998013,5.156533,9.076574,0.037048545,-0.031444572,0.0098014325
OrientationDeg,1676592727764,29784586321562,112.0,-11.0,-13.0
UncalMag,1676592727766,29784588124682,-203.76439,753.2402,402.29498,-174.57417,771.0116,430.86337
UncalGyro,1676592727768,29784590560972,-0.7162395,0.25885415,1.7427986,0.0014934414,-0.0016597759,-0.0003370381
UncalAccel,1676592727772,29784594799354,-0.86560357,4.3890347,9.122038,0.037048545,-0.031444572,0.0098014325
OrientationDeg,1676592727772,29784594799354,111.0,-11.0,-12.0
UncalMag,1676592727776,29784598134976,-203.12999,753.22797,401.55078,-174.57417,771.0116,430.86337
UncalGyro,1676592727777,29784599041074,-1.3614659,0.30008754,1.4071281,0.0014934414,-0.0016597759,-0.0003370381
UncalAccel,1676592727781,29784603279802,0.0011964113,2.5489542,9.609575,0.037048545,-0.031444572,0.0098014325
OrientationDeg,1676592727781,29784603279802,111.0,-11.0,-11.0
UncalGyro,1676592727785,29784607518836,-1.7632625,0.4082107,1.1919508,0.0014934414,-0.0016597759,-0.0003370381
UncalMag,1676592727786,29784608124600,-203.7766,754.49677,400.9042,-174.57417,771.0116,430.86337
UncalAccel,1676592727789,29784611761969,1.4111671,2.4616163,9.799805,0.037048545,-0.031444572,0.0098014325
OrientationDeg,1676592727789,29784611761969,111.0,-11.0,-10.0
UncalGyro,1676592727794,29784616004176,-2.0422752,0.5535966,0.95356065,0.0014934414,-0.0016597759,-0.0003370381
UncalMag,1676592727796,29784618134771,-203.3374,754.9604,401.3678,-174.57417,771.0116,430.86337
UncalAccel,1676592727798,29784620243211,2.2899313,2.585445,10.578071,0.037048545,-0.031444572,0.0098014325
OrientationDeg,1676592727798,29784620243211,110.0,-11.0,-9.0
UncalGyro,1676592727802,29784624487320,-2.265852,0.91339624,0.7696902,0.0014934414,-0.0016597759,-0.0003370381
UncalMag,1676592727806,29784628135137,-202.7152,756.522,400.75778,-174.57417,771.0116,430.86337
UncalAccel,1676592727806,29784628734543,2.672783,2.4586253,10.614561,0.037048545,-0.031444572,0.0098014325
OrientationDeg,1676592727806,29784628734543,110.0,-10.0,-8.0
UncalGyro,1676592727810,29784632954157,-2.3588562,1.2470814,0.70325863,0.0014934414,-0.0016597759,-0.0003370381
UncalAccel,1676592727815,29784637200739,2.6871397,3.3469608,9.38824,0.037048545,-0.031444572,0.0098014325
UncalMag,1676592727816,29784638124557,-202.8738,757.24176,398.757,-174.57417,771.0116,430.86337
UncalGyro,1676592727819,29784641441991,-2.262034,1.3548992,0.62949663,0.0014934414,-0.0016597759,-0.0003370381
OrientationDeg,1676592727815,29784637200739,110.0,-9.0,-7.0
UncalAccel,1676592727823,29784645686934,2.4017956,3.7052858,8.878569,0.037048545,-0.031444572,0.0098014325
UncalMag,1676592727826,29784648124190,-202.5932,758.4496,398.3056,-174.57417,771.0116,430.86337
OrientationDeg,1676592727823,29784645686934,110.0,-9.0,-6.0
UncalGyro,1676592727827,29784649921298,-2.1412354,1.3701707,0.5366451,0.0014934414,-0.0016597759,-0.0003370381
UncalAccel,1676592727832,29784654150780,1.6007984,3.6664026,9.227323,0.037048545,-0.031444572,0.0098014325
OrientationDeg,1676592727832,29784654150780,110.0,-8.0,-5.0
UncalMag,1676592727836,29784658118126,-202.459,758.9864,398.3056,-174.57417,771.0116,430.86337
UncalGyro,1676592727836,29784658406720,-2.0793853,1.3932309,0.4034765,0.0014934414,-0.0016597759,-0.0003370381
UncalAccel,1676592727840,29784662645022,0.59342,3.7076788,9.54497,0.037048545,-0.031444572,0.0098014325
OrientationDeg,1676592727840,29784662645022,110.0,-7.0,-4.0
UncalGyro,1676592727844,29784666892061,-2.067168,1.3860532,0.21197024,0.0014934414,-0.0016597759,-0.0003370381
UncalMag,1676592727846,29784668124310,-201.483,759.5598,396.73178,-174.57417,771.0116,430.86337
UncalAccel,1676592727849,29784671127698,-0.40079778,3.6005998,9.5964155,0.037048545,-0.031444572,0.0098014325
OrientationDeg,1676592727849,29784671127698,110.0,-7.0,-3.0
UncalGyro,1676592727853,29784675369691,-2.0905335,1.2686144,-0.013744468,0.0014934414,-0.0016597759,-0.0003370381
UncalMag,1676592727856,29784678135011,-200.90959,760.2552,396.4024,-174.57417,771.0116,430.86337
UncalAccel,1676592727857,29784679608806,-0.8991031,3.229114,9.337392,0.037048545,-0.031444572,0.0098014325
OrientationDeg,1676592727857,29784679608806,110.0,-6.0,-2.0
UncalGyro,1676592727861,29784683850993,-2.1128302,1.0005972,-0.23671028,0.0014934414,-0.0016597759,-0.0003370381
UncalAccel,1676592727866,29784688091594,-0.9056834,2.5591238,8.768498,0.037048545,-0.031444572,0.0098014325
OrientationDeg,1676592727866,29784688091594,111.0,-6.0,-1.0
UncalMag,1676592727866,29784688130005,-201.0316,761.7192,395.5362,-174.57417,771.0116,430.86337
UncalGyro,1676592727870,29784692336791,-2.054798,0.63117653,-0.44929138,0.0014934414,-0.0016597759,-0.0003370381
UncalAccel,1676592727874,29784696559326,-0.17527425,1.7312071,8.252247,0.037048545,-0.031444572,0.0098014325
OrientationDeg,1676592727874,29784696559326,111.0,-6.0,0.0
UncalMag,1676592727876,29784698126668,-200.8852,762.4146,395.585,-174.57417,771.0116,430.86337
UncalGyro,1676592727878,29784700810943,-1.8269452,0.3016147,-0.59391373,0.0014934414,-0.0016597759,-0.0003370381
UncalAccel,1676592727883,29784705045704,2.2085752,1.3339987,8.264212,0.037048545,-0.031444572,0.0098014325
OrientationDeg,1676592727883,29784705045704,111.0,-5.0,0.0
UncalMag,1676592727886,29784708135131,-200.9828,762.5732,394.8896,-174.57417,771.0116,430.86337
UncalGyro,1676592727887,29784709295205,-1.3868169,0.22937989,-0.5154176,0.0014934414,-0.0016597759,-0.0003370381
UncalAccel,1676592727891,29784713532652,4.6989055,0.9846465,8.687741,0.037048545,-0.031444572,0.0098014325
OrientationDeg,1676592727891,29784713532652,112.0,-5.0,0.0
UncalGyro,1676592727895,29784717776040,-0.7996226,0.28206703,-0.2667954,0.0014934414,-0.0016597759,-0.0003370381
UncalMag,1676592727896,29784718132973,-200.2264,762.927,394.8408,-174.57417,771.0116,430.86337
UncalAccel,1676592727900,29784722012938,4.8675995,0.5054838,9.478569,0.037048545,-0.031444572,0.0098014325
OrientationDeg,1676592727900,29784722012938,112.0,-5.0,1.0
UncalGyro,1676592727904,29784726254321,-0.23350324,0.4353942,-0.09483683,0.0014934414,-0.0016597759,-0.0003370381
UncalMag,1676592727906,29784728134844,-200.7632,762.6708,395.158,-174.57417,771.0116,430.86337
UncalAccel,1676592727908,29784730493252,5.3072805,0.29491538,10.981261,0.037048545,-0.031444572,0.0098014325
OrientationDeg,1676592727908,29784730493252,112.0,-5.0,1.0
UncalGyro,1676592727912,29784734735216,0.2518292,0.65393126,0.08170322,0.0014934414,-0.0016597759,-0.0003370381
UncalMag,1676592727916,29784738135088,-200.5314,762.988,394.13318,-174.57417,771.0116,430.86337
UncalAccel,1676592727916,29784738974596,4.633701,0.83748794,10.468599,0.037048545,-0.031444572,0.0098014325
OrientationDeg,1676592727916,29784738974596,112.0,-5.0,0.0
UncalGyro,1676592727921,29784743216132,0.711658,0.7979427,0.20723604,0.0014934414,-0.0016597759,-0.0003370381
UncalAccel,1676592727925,29784747452205,3.3601213,1.6857436,11.35813,0.037048545,-0.031444572,0.0098014325
UncalMag,1676592727926,29784748124752,-199.7262,762.5,394.5968,-174.57417,771.0116,430.86337
OrientationDeg,1676592727925,29784747452205,111.0,-4.0,0.0
UncalGyro,1676592727929,29784751683539,1.0699304,0.93783087,0.25167647,0.0014934414,-0.0016597759,-0.0003370381
UncalAccel,1676592727933,29784755936265,2.7355945,2.6799614,10.380065,0.037048545,-0.031444572,0.0098014325
UncalMag,1676592727936,29784758124710,-199.71399,762.65857,394.03558,-174.57417,771.0116,430.86337
OrientationDeg,1676592727933,29784755936265,111.0,-4.0,0.0
UncalGyro,1676592727938,29784760176793,1.3671165,0.9660834,0.25121832,0.0014934414,-0.0016597759,-0.0003370381
UncalAccel,1676592727942,29784764417292,1.9968106,3.05384,10.383056,0.037048545,-0.031444572,0.0098014325
OrientationDeg,1676592727942,29784764417292,111.0,-3.0,0.0
UncalMag,1676592727946,29784768124425,-199.5676,761.6338,394.9994,-174.57417,771.0116,430.86337
UncalGyro,1676592727946,29784768656173,1.5549575,1.0096076,0.19868392,0.0014934414,-0.0016597759,-0.0003370381
OrientationDeg,1676592727950,29784772887232,111.0,-3.0,-1.0
UncalAccel,1676592727950,29784772887232,1.4189439,3.2889347,10.769497,0.037048545,-0.031444572,0.0098014325
UncalGyro,1676592727955,29784777140354,1.6055065,0.99067074,0.099571034,0.0014934414,-0.0016597759,-0.0003370381
UncalMag,1676592727956,29784778124261,-198.8478,761.4508,393.9624,-174.57417,771.0116,430.86337
UncalAccel,1676592727959,29784781379439,1.0295119,3.6460636,10.789237,0.037048545,-0.031444572,0.0098014325
OrientationDeg,1676592727959,29784781379439,111.0,-2.0,-2.0
UncalGyro,1676592727963,29784785624404,1.5459472,0.8341365,-0.030695979,0.0014934414,-0.0016597759,-0.0003370381
UncalMag,1676592727966,29784788123569,-198.78679,760.6822,394.3894,-174.57417,771.0116,430.86337
UncalAccel,1676592727967,29784789859113,0.6197411,3.9541395,10.99502,0.037048545,-0.031444572,0.0098014325
OrientationDeg,1676592727967,29784789859113,111.0,-2.0,-3.0
UncalGyro,1676592727972,29784794110975,1.3997977,0.5795584,-0.18478674,0.0014934414,-0.0016597759,-0.0003370381
UncalMag,1676592727976,29784798135328,-198.60379,760.2552,394.5236,-174.57417,771.0116,430.86337
UncalAccel,1676592727976,29784798337821,0.18484555,4.0570307,10.89153,0.037048545,-0.031444572,0.0098014325
OrientationDeg,1676592727976,29784798337821,111.0,-2.0,-3.0
UncalGyro,1676592727981,29784802572755,1.1908818,0.28787026,-0.33750305,0.0014934414,-0.0016597759,-0.0003370381
UncalAccel,1676592727984,29784806815370,-0.17766708,3.958925,10.851451,0.037048545,-0.031444572,0.0098014325
OrientationDeg,1676592727984,29784806815370,111.0,-2.0,-4.0
UncalMag,1676592727986,29784808124340,-198.2134,759.8038,394.0478,-174.57417,771.0116,430.86337
UncalGyro,1676592727989,29784811062939,0.9728029,0.034055736,-0.46273044,0.0014934414,-0.0016597759,-0.0003370381
UncalAccel,1676592727993,29784815302420,-0.4109673,3.69392,10.889736,0.037048545,-0.031444572,0.0098014325
OrientationDeg,1676592727993,29784815302420,111.0,-2.0,-4.0
UncalMag,1676592727996,29784818134960,-198.44519,759.47437,394.6944,-174.57417,771.0116,430.86337
UncalGyro,1676592727997,29784819535676,0.7985536,-0.13087788,-0.53038377,0.0014934414,-0.0016597759,-0.0003370381
UncalAccel,1676592728001,29784823783284,-0.48215377,3.3487554,11.029118,0.037048545,-0.031444572,0.0098014325
OrientationDeg,1676592728001,29784823783284,112.0,-2.0,-5.0
UncalGyro,1676592728006,29784828024576,0.6948592,-0.183565,-0.5325218,0.0014934414,-0.0016597759,-0.0003370381
UncalMag,1676592728006,29784828130198,-198.067,758.8644,394.4138,-174.57417,771.0116,430.86337
OrientationDeg,1676592728010,29784832265634,112.0,-2.0,-5.0
UncalAccel,1676592728010,29784832265634,-0.4671986,2.9413772,11.241481,0.037048545,-0.031444572,0.0098014325
UncalGyro,1676592728014,29784836499623,0.6750061,-0.13775012,-0.46777007,0.0014934414,-0.0016597759,-0.0003370381
UncalMag,1676592728017,29784838134877,-198.189,758.4984,393.97458,-174.57417,771.0116,430.86337
UncalAccel,1676592728018,29784840734476,-0.3900301,2.4670002,11.473584,0.037048545,-0.031444572,0.0098014325
OrientationDeg,1676592728018,29784840734476,112.0,-2.0,-5.0
UncalGyro,1676592728022,29784844986266,0.7304421,-0.02611449,-0.3481932,0.0014934414,-0.0016597759,-0.0003370381
UncalMag,1676592728026,29784848124175,-198.10359,758.1812,394.98718,-174.57417,771.0116,430.86337
UncalAccel,1676592728027,29784849224659,-0.3068795,2.036292,11.581262,0.037048545,-0.031444572,0.0098014325
OrientationDeg,1676592728027,29784849224659,112.0,-2.0,-6.0
UncalGyro,1676592728031,29784853461750,0.84620106,0.1142318,-0.19074267,0.0014934414,-0.0016597759,-0.0003370381
UncalAccel,1676592728035,29784857703387,-0.33559337,1.762912,11.706286,0.037048545,-0.031444572,0.0098014325
OrientationDeg,1676592728035,29784857703387,112.0,-2.0,-6.0
UncalMag,1676592728036,29784858131213,-197.81079,757.9372,395.158,-174.57417,771.0116,430.86337
UncalGyro,1676592728039,29784861933510,1.0045679,0.26725355,-0.027641652,0.0014934414,-0.0016597759,-0.0003370381
UncalAccel,1676592728044,29784866189776,-0.465404,1.689931,11.863615,0.037048545,-0.031444572,0.0098014325
OrientationDeg,1676592728044,29784866189776,112.0,-1.0,-7.0
UncalMag,1676592728046,29784868134875,-197.5668,756.7782,394.3894,-174.57417,771.0116,430.86337
UncalGyro,1676592728048,29784870429074,1.2006557,0.41584653,0.11636983,0.0014934414,-0.0016597759,-0.0003370381
OrientationDeg,1676592728052,29784874672116,112.0,-1.0,-7.0
UncalAccel,1676592728052,29784874672116,-0.73519474,1.4524434,12.297314,0.037048545,-0.031444572,0.0098014325
UncalMag,1676592728056,29784878135037,-197.81079,756.19257,395.35318,-174.57417,771.0116,430.86337
UncalGyro,1676592728056,29784878909745,1.4876096,0.6252206,0.28038713,0.0014934414,-0.0016597759,-0.0003370381
UncalAccel,1676592728061,29784883149623,-0.90388876,1.3124632,12.554543,0.037048545,-0.031444572,0.0098014325
OrientationDeg,1676592728061,29784883149623,112.0,-1.0,-8.0
UncalGyro,1676592728065,29784887392075,1.7857119,0.8206975,0.42363504,0.0014934414,-0.0016597759,-0.0003370381
UncalMag,1676592728066,29784888124416,-197.17639,756.38776,395.3776,-174.57417,771.0116,430.86337
UncalAccel,1676592728069,29784891627641,-1.2472588,1.905285,12.005389,0.037048545,-0.031444572,0.0098014325
OrientationDeg,1676592728069,29784891627641,112.0,0.0,-9.0
UncalGyro,1676592728073,29784895861842,1.9889772,0.8738427,0.50656,0.0014934414,-0.0016597759,-0.0003370381
UncalMag,1676592728076,29784898134954,-197.3228,755.6802,395.2068,-174.57417,771.0116,430.86337
UncalAccel,1676592728078,29784900110895,-1.9190438,2.3078775,12.037094,0.037048545,-0.031444572,0.0098014325
OrientationDeg,1676592728078,29784900110895,111.0,0.0,-10.0
UncalGyro,1676592728082,29784904352513,2.1351268,0.8578075,0.5535966,0.0014934414,-0.0016597759,-0.0003370381
UncalMag,1676592728086,29784908134912,-196.54199,754.8262,395.4752,-174.57417,771.0116,430.86337
UncalAccel,1676592728086,29784908591618,-2.466402,2.6063821,12.147164,0.037048545,-0.031444572,0.0098014325
OrientationDeg,1676592728086,29784908591618,111.0,0.0,-11.0
UncalGyro,1676592728090,29784912820215,2.1971295,0.8381071,0.5514586,0.0014934414,-0.0016597759,-0.0003370381
UncalAccel,1676592728095,29784917062819,-2.9072795,2.9246275,11.999408,0.037048545,-0.031444572,0.0098014325
UncalMag,1676592728097,29784918124332,-196.90799,753.95996,395.6338,-174.57417,771.0116,430.86337
OrientationDeg,1676592728095,29784917062819,111.0,0.0,-12.0
UncalGyro,1676592728099,29784921316664,2.1789563,0.7678576,0.49953505,0.0014934414,-0.0016597759,-0.0003370381
UncalAccel,1676592728103,29784925556471,-3.1848469,3.301497,11.742777,0.037048545,-0.031444572,0.0098014325
OrientationDeg,1676592728103,29784925556471,111.0,0.0,-13.0
UncalMag,1676592728106,29784928134829,-196.3224,753.0816,395.2922,-174.57417,771.0116,430.86337
UncalGyro,1676592728107,29784929797935,2.1174116,0.6731735,0.43233988,0.0014934414,-0.0016597759,-0.0003370381
UncalAccel,1676592728112,29784934034101,-3.0448668,3.4420755,11.48495,0.037048545,-0.031444572,0.0098014325
OrientationDeg,1676592728112,29784934034101,110.0,0.0,-14.0
UncalMag,1676592728116,29784938134951,-196.6762,752.58136,396.14618,-174.57417,771.0116,430.86337
UncalGyro,1676592728116,29784938276074,2.0522017,0.6200282,0.39599338,0.0014934414,-0.0016597759,-0.0003370381
UncalAccel,1676592728120,29784942512584,-2.649453,3.315854,11.135,0.037048545,-0.031444572,0.0098014325
OrientationDeg,1676592728120,29784942512584,110.0,0.0,-15.0
UncalGyro,1676592728124,29784946742739,1.9996674,0.6026186,0.40866885,0.0014934414,-0.0016597759,-0.0003370381
UncalMag,1676592728126,29784948124249,-196.0784,751.9836,396.3536,-174.57417,771.0116,430.86337
OrientationDeg,1676592728128,29784950980063,110.0,1.0,-16.0
UncalAccel,1676592728128,29784950980063,-2.254039,3.1316066,10.832907,0.037048545,-0.031444572,0.0098014325
UncalGyro,1676592728133,29784955228669,1.9704986,0.6062838,0.4633413,0.0014934414,-0.0016597759,-0.0003370381
UncalMag,1676592728136,29784958136984,-196.2248,751.3736,396.4512,-174.57417,771.0116,430.86337
UncalAccel,1676592728137,29784959477713,-1.98365,3.057429,10.5487585,0.037048545,-0.031444572,0.0098014325
OrientationDeg,1676592728137,29784959477713,110.0,1.0,-17.0
UncalGyro,1676592728141,29784963712128,1.9643899,0.6214027,0.5468771,0.0014934414,-0.0016597759,-0.0003370381
UncalAccel,1676592728145,29784967960571,-1.8915263,3.1154552,10.386645,0.037048545,-0.031444572,0.0098014325
UncalMag,1676592728146,29784968124166,-195.95639,750.69037,396.6464,-174.57417,771.0116,430.86337
OrientationDeg,1676592728145,29784967960571,109.0,1.0,-18.0
UncalGyro,1676592728150,29784972199401,1.986381,0.6582073,0.6420194,0.0014934414,-0.0016597759,-0.0003370381
UncalAccel,1676592728154,29784976438781,-1.8293129,3.3080773,10.247861,0.037048545,-0.031444572,0.0098014325
OrientationDeg,1676592728154,29784976438781,109.0,1.0,-19.0
UncalMag,1676592728156,29784978124490,-195.81,749.5802,397.2198,-174.57417,771.0116,430.86337
UncalGyro,1676592728158,29784980670185,2.0340285,0.7125743,0.72219545,0.0014934414,-0.0016597759,-0.0003370381
UncalAccel,1676592728162,29784984923216,-1.7425731,3.5006995,10.008579,0.037048545,-0.031444572,0.0098014325
OrientationDeg,1676592728162,29784984923216,109.0,2.0,-20.0
UncalMag,1676592728166,29784988134947,-195.5172,749.40936,397.293,-174.57417,771.0116,430.86337
UncalGyro,1676592728167,29784989163644,2.1019874,0.7698429,0.78786343,0.0014934414,-0.0016597759,-0.0003370381
UncalAccel,1676592728171,29784993403674,-1.7168503,3.6448672,9.635897,0.037048545,-0.031444572,0.0098014325
OrientationDeg,1676592728171,29784993403674,108.0,2.0,-21.0
UncalGyro,1676592728175,29784997641558,2.1873558,0.8072584,0.84131414,0.0014934414,-0.0016597759,-0.0003370381
UncalMag,1676592728176,29784998144671,-196.054,749.1532,397.8542,-174.57417,771.0116,430.86337
UncalAccel,1676592728179,29785001876910,-1.7198412,3.8321054,9.296116,0.037048545,-0.031444572,0.0098014325
UncalGyro,1676592728184,29785006101438,2.2922719,0.8219192,0.87598073,0.0014934414,-0.0016597759,-0.0003370381
OrientationDeg,1676592728179,29785001876910,108.0,2.0,-22.0
UncalMag,1676592728186,29785008144996,-195.4684,748.47,397.9152,-174.57417,771.0116,430.86337
UncalAccel,1676592728188,29785010338701,-1.8197416,4.1629133,9.007183,0.037048545,-0.031444572,0.0098014325
OrientationDeg,1676592728188,29785010338701,108.0,2.0,-23.0
UncalGyro,1676592728192,29785014595171,2.4002423,0.83199847,0.88514376,0.0014934414,-0.0016597759,-0.0003370381
UncalMag,1676592728196,29785018126441,-194.9926,747.6404,398.9156,-174.57417,771.0116,430.86337
UncalAccel,1676592728196,29785018830827,-2.0165513,4.4542394,8.822935,0.037048545,-0.031444572,0.0098014325
OrientationDeg,1676592728196,29785018830827,107.0,3.0,-25.0
UncalGyro,1676592728201,29785023066249,2.4859161,0.8481864,0.86834496,0.0014934414,-0.0016597759,-0.0003370381
UncalAccel,1676592728205,29785027312180,-2.2067807,4.625326,8.630313,0.037048545,-0.031444572,0.0098014325
UncalMag,1676592728206,29785028124161,-195.3342,747.18896,398.574,-174.57417,771.0116,430.86337
OrientationDeg,1676592728205,29785027312180,107.0,3.0,-26.0
UncalGyro,1676592728209,29785031557114,2.5335636,0.8700248,0.8400924,0.0014934414,-0.0016597759,-0.0003370381
UncalAccel,1676592728213,29785035796850,-2.283351,4.76411,8.486146,0.037048545,-0.031444572,0.0098014325
OrientationDeg,1676592728213,29785035796850,106.0,3.0,-27.0
UncalMag,1676592728216,29785038126358,-195.2854,746.23737,398.7082,-174.57417,771.0116,430.86337
UncalGyro,1676592728218,29785040040217,2.537076,0.8932377,0.8017606,0.0014934414,-0.0016597759,-0.0003370381
UncalAccel,1676592728222,29785044277684,-2.3581266,4.87418,8.198408,0.037048545,-0.031444572,0.0098014325
OrientationDeg,1676592728222,29785044277684,106.0,3.0,-28.0
UncalMag,1676592728226,29785048124404,-195.00479,745.847,400.06238,-174.57417,771.0116,430.86337
UncalGyro,1676592728226,29785048525446,2.5092816,0.9149234,0.7706065,0.0014934414,-0.0016597759,-0.0003370381
UncalAccel,1676592728230,29785052750858,-2.4281168,4.9513483,7.8873415,0.037048545,-0.031444572,0.0098014325
OrientationDeg,1676592728230,29785052750858,106.0,4.0,-30.0
UncalGyro,1676592728235,29785057012994,2.457969,0.91721416,0.75900006,0.0014934414,-0.0016597759,-0.0003370381
UncalMag,1676592728236,29785058134738,-195.0658,744.7856,399.69638,-174.57417,771.0116,430.86337
UncalAccel,1676592728239,29785061247796,-2.5842485,4.9842496,7.618747,0.037048545,-0.031444572,0.0098014325
OrientationDeg,1676592728239,29785061247796,105.0,4.0,-31.0
UncalGyro,1676592728243,29785065493584,2.3948972,0.89675015,0.75625116,0.0014934414,-0.0016597759,-0.0003370381
UncalMag,1676592728246,29785068134738,-195.0658,744.7856,399.69638,-174.57417,771.0116,430.86337
UncalAccel,1676592728247,29785069728935,-2.7493532,4.8825545,7.4416785,0.037048545,-0.031444572,0.0098014325
OrientationDeg,1676592728247,29785069728935,105.0,4.0,-32.0
UncalGyro,1676592728251,29785073973400,2.316401,0.86116725,0.75961095,0.0014934414,-0.0016597759,-0.0003370381
UncalMag,1676592728256,29785078134981,-194.834,743.4314,400.8188,-174.57417,771.0116,430.86337
UncalAccel,1676592728256,29785078206778,-2.7714868,4.738985,7.304091,0.037048545,-0.031444572,0.0098014325
OrientationDeg,1676592728256,29785078206778,105.0,4.0,-33.0
UncalGyro,1676592728260,29785082439474,2.2311852,0.8197812,0.7673995,0.0014934414,-0.0016597759,-0.0003370381
UncalAccel,1676592728264,29785086686535,-2.7601209,4.663013,7.1186476,0.037048545,-0.031444572,0.0098014325
OrientationDeg,1676592728264,29785086686535,104.0,5.0,-34.0
UncalMag,1676592728266,29785088117158,-195.017,742.3334,402.0022,-174.57417,771.0116,430.86337
UncalGyro,1676592728268,29785090934887,2.1612413,0.76923203,0.7716755,0.0014934414,-0.0016597759,-0.0003370381
UncalAccel,1676592728273,29785095182973,-2.7296124,4.658826,6.851249,0.037048545,-0.031444572,0.0098014325
OrientationDeg,1676592728273,29785095182973,104.0,5.0,-35.0
UncalMag,1676592728276,29785098134898,-194.5412,741.4916,402.6366,-174.57417,771.0116,430.86337
UncalGyro,1676592728277,29785099413299,2.129171,0.6969972,0.7637343,0.0014934414,-0.0016597759,-0.0003370381
UncalAccel,1676592728281,29785103651804,-2.6757739,4.6785665,6.6652074,0.037048545,-0.031444572,0.0098014325
OrientationDeg,1676592728281,29785103651804,104.0,5.0,-36.0
UncalGyro,1676592728285,29785107891174,2.1464279,0.62690043,0.7463246,0.0014934414,-0.0016597759,-0.0003370381
UncalMag,1676592728286,29785108135508,-194.5412,741.516,403.3686,-174.57417,771.0116,430.86337
UncalAccel,1676592728290,29785112133056,-2.5788646,4.516453,6.5904317,0.037048545,-0.031444572,0.0098014325
OrientationDeg,1676592728290,29785112133056,103.0,5.0,-37.0
UncalGyro,1676592728294,29785116374389,2.1945333,0.5885687,0.7481572,0.0014934414,-0.0016597759,-0.0003370381
UncalMag,1676592728296,29785118135222,-194.71199,740.5522,403.637,-174.57417,771.0116,430.86337
UncalAccel,1676592728298,29785120610981,-2.400001,4.2251267,6.573682,0.037048545,-0.031444572,0.0098014325
OrientationDeg,1676592728298,29785120610981,103.0,5.0,-39.0
UncalGyro,1676592728302,29785124844674,2.2510383,0.5839872,0.7851145,0.0014934414,-0.0016597759,-0.0003370381
UncalMag,1676592728306,29785128127002,-193.797,740.174,404.6008,-174.57417,771.0116,430.86337
UncalAccel,1676592728307,29785129096769,-2.164308,3.9583268,6.586244,0.037048545,-0.031444572,0.0098014325
OrientationDeg,1676592728307,29785129096769,103.0,5.0,-40.0
UncalGyro,1676592728311,29785133336006,2.2954788,0.6105598,0.8498663,0.0014934414,-0.0016597759,-0.0003370381
UncalAccel,1676592728315,29785137578407,-1.8669999,3.8691943,6.5742803,0.037048545,-0.031444572,0.0098014325
OrientationDeg,1676592728315,29785137578407,102.0,5.0,-41.0
UncalMag,1676592728316,29785138124153,-194.834,740.2716,405.62558,-174.57417,771.0116,430.86337
UncalGyro,1676592728319,29785141816749,2.3380868,0.6617198,0.91782504,0.0014934414,-0.0016597759,-0.0003370381
UncalAccel,1676592728324,29785146055946,-1.5565311,4.0390844,6.513263,0.037048545,-0.031444572,0.0098014325
UncalMag,1676592728326,29785148124315,-195.2854,739.747,405.8696,-174.57417,771.0116,430.86337
OrientationDeg,1676592728324,29785146055946,102.0,5.0,-42.0
UncalGyro,1676592728328,29785150294847,2.3930645,0.74036866,0.9660834,0.0014934414,-0.0016597759,-0.0003370381
UncalAccel,1676592728332,29785154534745,-1.3800604,4.313661,6.364908,0.037048545,-0.031444572,0.0098014325
OrientationDeg,1676592728332,29785154534745,101.0,5.0,-43.0
UncalMag,1676592728336,29785158124477,-195.2,739.4054,406.3942,-174.57417,771.0116,430.86337
UncalGyro,1676592728336,29785158778031,2.448806,0.84559023,0.9931142,0.0014934414,-0.0016597759,-0.0003370381
UncalAccel,1676592728341,29785163009140,-1.2610176,4.659424,6.1734824,0.037048545,-0.031444572,0.0098014325
OrientationDeg,1676592728341,29785163009140,101.0,5.0,-44.0
UncalGyro,1676592728345,29785167260248,2.477975,0.9592112,1.0071641,0.0014934414,-0.0016597759,-0.0003370381
UncalMag,1676592728346,29785168125249,-195.8588,738.8808,406.4064,-174.57417,771.0116,430.86337
UncalAccel,1676592728349,29785171498551,-1.2747762,4.975875,5.861219,0.037048545,-0.031444572,0.0098014325
OrientationDeg,1676592728349,29785171498551,100.0,6.0,-46.0
UncalGyro,1676592728353,29785175742691,2.4598017,1.0473285,1.0064005,0.0014934414,-0.0016597759,-0.0003370381
UncalMag,1676592728356,29785178134973,-194.6754,737.6974,406.8212,-174.57417,771.0116,430.86337
UncalAccel,1676592728357,29785179979955,-1.4171492,5.186443,5.615955,0.037048545,-0.031444572,0.0098014325
OrientationDeg,1676592728357,29785179979955,100.0,6.0,-47.0
UncalGyro,1676592728362,29785184221185,2.389705,1.1120802,1.0065532,0.0014934414,-0.0016597759,-0.0003370381
UncalMag,1676592728366,29785188135298,-195.1146,737.53876,407.63858,-174.57417,771.0116,430.86337
UncalAccel,1676592728366,29785188458804,-1.5170496,5.334798,5.3856454,0.037048545,-0.031444572,0.0098014325
OrientationDeg,1676592728366,29785188458804,99.0,6.0,-48.0
UncalGyro,1676592728370,29785192693616,2.278833,1.1646146,1.007775,0.0014934414,-0.0016597759,-0.0003370381
OrientationDeg,1676592728374,29785196941623,99.0,6.0,-49.0
UncalAccel,1676592728374,29785196941623,-1.588236,5.5022955,5.2169514,0.037048545,-0.031444572,0.0098014325
UncalMag,1676592728376,29785198124515,-194.6266,736.9532,408.33398,-174.57417,771.0116,430.86337
UncalGyro,1676592728379,29785201182926,2.1471913,1.2223413,1.0012082,0.0014934414,-0.0016597759,-0.0003370381
UncalAccel,1676592728383,29785205424675,-1.6414764,5.7224355,5.1439705,0.037048545,-0.031444572,0.0098014325
OrientationDeg,1676592728383,29785205424675,98.0,6.0,-50.0
UncalMag,1676592728386,29785208127484,-194.9438,736.9532,408.4682,-174.57417,771.0116,430.86337
UncalGyro,1676592728387,29785209662986,1.9859229,1.2913691,0.98654735,0.0014934414,-0.0016597759,-0.0003370381
UncalAccel,1676592728391,29785213897584,-1.6558332,5.875576,5.0141597,0.037048545,-0.031444572,0.0098014325
OrientationDeg,1676592728391,29785213897584,98.0,6.0,-51.0
UncalGyro,1676592728396,29785218131948,1.8041905,1.3414601,0.9631818,0.0014934414,-0.0016597759,-0.0003370381
UncalMag,1676592728396,29785218144370,-195.77339,736.9654,409.4564,-174.57417,771.0116,430.86337
UncalAccel,1676592728400,29785222372711,-1.6977077,6.072386,4.7168517,0.037048545,-0.031444572,0.0098014325
OrientationDeg,1676592728400,29785222372711,97.0,7.0,-52.0
UncalGyro,1676592728404,29785226627676,1.6274977,1.3455834,0.92149025,0.0014934414,-0.0016597759,-0.0003370381
UncalMag,1676592728406,29785228134888,-195.2854,736.514,408.6146,-174.57417,771.0116,430.86337
