# 
# Header Description:
# 
# Version: v3.0.5.6 Platform: 13 Manufacturer: Google Model: Pixel 7
# 
# Raw,utcTimeMillis,TimeNanos,LeapSecond,TimeUncertaintyNanos,FullBiasNanos,BiasNanos,BiasUncertaintyNanos,DriftNanosPerSecond,DriftUncertaintyNanosPerSecond,HardwareClockDiscontinuityCount,Svid,TimeOffsetNanos,State,ReceivedSvTimeNanos,ReceivedSvTimeUncertaintyNanos,Cn0DbHz,PseudorangeRateMetersPerSecond,PseudorangeRateUncertaintyMetersPerSecond,AccumulatedDeltaRangeState,AccumulatedDeltaRangeMeters,AccumulatedDeltaRangeUncertaintyMeters,CarrierFrequencyHz,CarrierCycles,CarrierPhase,CarrierPhaseUncertainty,MultipathIndicator,SnrInDb,ConstellationType,AgcDb,BasebandCn0DbHz,FullInterSignalBiasNanos,FullInterSignalBiasUncertaintyNanos,SatelliteInterSignalBiasNanos,SatelliteInterSignalBiasUncertaintyNanos,CodeType,ChipsetElapsedRealtimeNanos
# 
# UncalAccel,utcTimeMillis,elapsedRealtimeNanos,UncalAccelXMps2,UncalAccelYMps2,UncalAccelZMps2,BiasXMps2,BiasYMps2,BiasZMps2
# 
# Accel,utcTimeMillis,elapsedRealtimeNanos,AccelXMps2,AccelYMps2,AccelZMps2
# 
# UncalGyro,utcTimeMillis,elapsedRealtimeNanos,UncalGyroXRadPerSec,UncalGyroYRadPerSec,UncalGyroZRadPerSec,DriftXRadPerSec,DriftYRadPerSec,DriftZRadPerSec
# 
# Gyro,utcTimeMillis,elapsedRealtimeNanos,GyroXRadPerSec,GyroYRadPerSec,GyroZRadPerSec
# 
# UncalMag,utcTimeMillis,elapsedRealtimeNanos,UncalMagXMicroT,UncalMagYMicroT,UncalMagZMicroT,BiasXMicroT,BiasYMicroT,BiasZMicroT
# 
# Mag,utcTimeMillis,elapsedRealtimeNanos,MagXMicroT,MagYMicroT,MagZMicroT
# 
# OrientationDeg,utcTimeMillis,elapsedRealtimeNanos,yawDeg,rollDeg,pitchDeg
# 
# Fix,Provider,LatitudeDegrees,LongitudeDegrees,AltitudeMeters,SpeedMps,AccuracyMeters,BearingDegrees,UnixTimeMillis,SpeedAccuracyMps,BearingAccuracyDegrees,elapsedRealtimeNanos,VerticalAccuracyMeters
# 
# Nav,Svid,Type,Status,MessageId,Sub-messageId,Data(Bytes)
# 
# Status,UnixTimeMillis,SignalCount,SignalIndex,ConstellationType,Svid,CarrierFrequencyHz,Cn0DbHz,AzimuthDegrees,ElevationDegrees,UsedInFix,HasAlmanacData,HasEphemerisData,BasebandCn0DbHz
# 
UncalAccel,1676592873442,29930264690092,-2.9455647,3.8470607,14.956338,0.037048545,-0.031444572,0.0098014325
UncalAccel,1676592873450,29930272208564,-2.7242286,3.6628132,14.2953205,0.037048545,-0.031444572,0.0098014325
UncalMag,1676592873455,29930277517239,-151.3654,746.6034,399.6354,-174.57417,771.0116,430.86337
UncalAccel,1676592873458,29930280701525,-2.260021,3.441477,13.740784,0.037048545,-0.031444572,0.0098014325
UncalGyro,1676592873462,29930284935648,-0.020005837,-0.5714644,0.25961772,0.0015562352,-0.0016511098,-0.00033751
UncalMag,1676592873465,29930287527248,-152.1218,746.2008,398.3422,-174.57417,771.0116,430.86337
UncalAccel,1676592873468,29930289179754,-1.6857436,3.2877383,13.18206,0.037048545,-0.031444572,0.0098014325
UncalGyro,1676592873471,29930293421412,-0.01282817,-0.6606508,0.22418754,0.0015562352,-0.0016511099,-0.00033751
UncalMag,1676592873475,29930297527166,-151.92659,746.0422,398.5496,-174.57417,771.0116,430.86337
UncalAccel,1676592873475,29930297661229,-1.16351,3.1052856,12.5754795,0.037048545,-0.031444572,0.0098014325
UncalGyro,1676592873479,29930301902207,0.00045814895,-0.7160868,0.18081611,0.0015562352,-0.0016511099,-0.00033751
UncalAccel,1676592873484,29930306136723,-0.7465607,2.7876384,12.044871,0.037048545,-0.031444572,0.0098014325
UncalMag,1676592873485,29930307516870,-152.1706,745.48096,397.57358,-174.57417,771.0116,430.86337
UncalGyro,1676592873488,29930310370854,0.01450805,-0.70906186,0.15042557,0.0015562352,-0.0016511099,-0.00033751
UncalAccel,1676592873492,29930314613733,-0.5024927,2.4783661,11.59502,0.037048545,-0.031444572,0.0098014325
UncalMag,1676592873495,29930317516992,-152.7562,746.0056,398.0738,-174.57417,771.0116,430.86337
UncalGyro,1676592873496,29930318862074,0.031306844,-0.67347896,0.14294247,0.0015562352,-0.0016511099,-0.00033751
UncalAccel,1676592873501,29930323093285,-0.5407779,2.2444677,11.070992,0.037048545,-0.031444572,0.0098014325
UncalGyro,1676592873505,29930327338789,0.058337633,-0.64965516,0.15393804,0.0015562352,-0.0016511099,-0.00033751
UncalMag,1676592873505,29930327512149,-152.82939,746.54236,398.452,-174.57417,771.0116,430.86337
UncalAccel,1676592873509,29930331582930,-0.7076773,1.9710877,10.622338,0.037048545,-0.031444572,0.0098014325
UncalGyro,1676592873513,29930335818444,0.09712757,-0.63209283,0.17195857,0.0015562352,-0.0016511099,-0.00033751
UncalMag,1676592873515,29930337516542,-152.98799,745.7372,397.89078,-174.57417,771.0116,430.86337
UncalAccel,1676592873518,29930340052238,-0.89072824,1.7264216,10.264611,0.037048545,-0.031444572,0.0098014325
OrientationDeg,1676592873518,29930340052238,228.0,4.0,-12.0
UncalGyro,1676592873522,29930344303305,0.14782938,-0.61834836,0.18325958,0.0015562352,-0.0016511099,-0.00033751
UncalMag,1676592873525,29930347527080,-153.415,745.5542,397.9884,-174.57417,771.0116,430.86337
UncalAccel,1676592873526,29930348553457,-1.0875379,1.5050855,9.87817,0.037048545,-0.031444572,0.0098014325
OrientationDeg,1676592873526,29930348553457,228.0,4.0,-12.0
UncalGyro,1676592873530,29930352794495,0.20540343,-0.6096435,0.18096884,0.0015562352,-0.0016511099,-0.00033751
UncalAccel,1676592873535,29930357031809,-1.102493,1.227518,9.559326,0.037048545,-0.031444572,0.0098014325
OrientationDeg,1676592873535,29930357031809,228.0,3.0,-13.0
UncalMag,1676592873536,29930357533997,-153.59799,745.8958,397.5858,-174.57417,771.0116,430.86337
UncalGyro,1676592873539,29930361266246,0.26725355,-0.5874997,0.16661349,0.0015562352,-0.0016511099,-0.00033751
UncalAccel,1676592873543,29930365492422,-0.9846465,0.9942178,9.299107,0.037048545,-0.031444572,0.0098014325
OrientationDeg,1676592873543,29930365492422,228.0,3.0,-13.0
UncalMag,1676592873545,29930367516988,-153.7322,745.4688,397.964,-174.57417,771.0116,430.86337
UncalGyro,1676592873547,29930369752299,0.3295618,-0.536187,0.14431691,0.0015562352,-0.0016511099,-0.00033751
UncalAccel,1676592873551,29930373991587,-0.83389866,0.7704889,9.1052885,0.037048545,-0.031444572,0.0098014325
OrientationDeg,1676592873551,29930373991587,228.0,3.0,-13.0
UncalMag,1676592873555,29930377527282,-154.1592,745.4688,398.22018,-174.57417,771.0116,430.86337
UncalGyro,1676592873556,29930378237364,0.3837761,-0.46822822,0.11881329,0.0015562352,-0.0016511099,-0.00033751
UncalAccel,1676592873560,29930382472990,-0.68255264,0.59940207,8.897113,0.037048545,-0.031444572,0.0098014325
OrientationDeg,1676592873560,29930382472990,228.0,3.0,-13.0
UncalGyro,1676592873564,29930386716103,0.419359,-0.40943244,0.094531395,0.0015562352,-0.0016511099,-0.00033751
UncalMag,1676592873565,29930387516783,-154.2446,745.6152,397.659,-174.57417,771.0116,430.86337
UncalAccel,1676592873568,29930390953978,-0.5419743,0.42771706,8.750552,0.037048545,-0.031444572,0.0098014325
OrientationDeg,1676592873568,29930390953978,228.0,2.0,-13.0
UncalGyro,1676592873573,29930395192798,0.4279111,-0.3669773,0.068264194,0.0015562352,-0.0016511099,-0.00033751
UncalMag,1676592873575,29930397527077,-154.7814,745.3224,396.744,-174.57417,771.0116,430.86337
UncalAccel,1676592873577,29930399423897,-0.52163535,0.34217364,8.65125,0.037048545,-0.031444572,0.0098014325
OrientationDeg,1676592873577,29930399423897,228.0,2.0,-14.0
UncalGyro,1676592873581,29930403676358,0.4176791,-0.34315357,0.02367103,0.0015562352,-0.0016511099,-0.00033751
UncalMag,1676592873585,29930407522763,-155.00099,745.237,397.09778,-174.57417,771.0116,430.86337
UncalAccel,1676592873585,29930407913255,-0.5353941,0.30388847,8.560323,0.037048545,-0.031444572,0.0098014325
OrientationDeg,1676592873585,29930407913255,228.0,2.0,-14.0
UncalGyro,1676592873590,29930412149491,0.3933972,-0.3407101,-0.046731193,0.0015562352,-0.0016511099,-0.00033751
UncalAccel,1676592873594,29930416394680,-0.50189453,0.32303107,8.556135,0.037048545,-0.031444572,0.0098014325
UncalMag,1676592873595,29930417516699,-155.00099,745.237,397.09778,-174.57417,771.0116,430.86337
OrientationDeg,1676592873594,29930416394680,228.0,2.0,-14.0
UncalGyro,1676592873598,29930420628933,0.3555236,-0.3529274,-0.13790283,0.0015562352,-0.0016511099,-0.00033751
UncalAccel,1676592873602,29930424880834,-0.47856453,0.33260235,8.613564,0.037048545,-0.031444572,0.0098014325
OrientationDeg,1676592873602,29930424880834,228.0,2.0,-14.0
UncalMag,1676592873605,29930427532242,-155.0132,745.1028,398.15918,-174.57417,771.0116,430.86337
UncalGyro,1676592873607,29930429118708,0.30787608,-0.36743546,-0.24449882,0.0015562352,-0.0016511099,-0.00033751
UncalAccel,1676592873611,29930433357681,-0.55513483,0.34157544,8.660223,0.037048545,-0.031444572,0.0098014325
OrientationDeg,1676592873611,29930433357681,228.0,2.0,-14.0
UncalMag,1676592873615,29930437527155,-155.123,744.9808,397.4028,-174.57417,771.0116,430.86337
UncalGyro,1676592873615,29930437595240,0.2591596,-0.37522396,-0.36575556,0.0015562352,-0.0016511099,-0.00033751
UncalAccel,1676592873619,29930441831456,-0.6945168,0.3361916,8.755338,0.037048545,-0.031444572,0.0098014325
OrientationDeg,1676592873619,29930441831456,228.0,2.0,-14.0
UncalGyro,1676592873624,29930446082758,0.21594086,-0.36636642,-0.49571714,0.0015562352,-0.0016511099,-0.00033751
UncalMag,1676592873625,29930447527114,-155.5378,745.054,397.1954,-174.57417,771.0116,430.86337
UncalAccel,1676592873628,29930450319991,-0.86859465,0.3152544,9.002397,0.037048545,-0.031444572,0.0098014325
OrientationDeg,1676592873628,29930450319991,229.0,1.0,-14.0
UncalGyro,1676592873632,29930454557051,0.18570304,-0.34208453,-0.6235407,0.0015562352,-0.0016511099,-0.00033751
UncalMag,1676592873635,29930457527072,-155.2694,744.2976,397.8542,-174.57417,771.0116,430.86337
UncalAccel,1676592873636,29930458804477,-1.0606186,0.29012975,9.139386,0.037048545,-0.031444572,0.0098014325
OrientationDeg,1676592873636,29930458804477,229.0,1.0,-14.0
UncalGyro,1676592873641,29930463044191,0.17348573,-0.344528,-0.7304421,0.0015562352,-0.0016511099,-0.00033751
UncalAccel,1676592873645,29930467285839,-1.2227324,0.15972091,9.096315,0.037048545,-0.031444572,0.0098014325
OrientationDeg,1676592873645,29930467285839,229.0,1.0,-15.0
UncalMag,1676592873645,29930467526624,-154.8302,744.65137,397.5614,-174.57417,771.0116,430.86337
UncalGyro,1676592873649,29930471526115,0.17608191,-0.40393466,-0.8043568,0.0015562352,-0.0016511099,-0.00033751
UncalAccel,1676592873653,29930475770682,-1.2879368,0.0059820567,9.005986,0.037048545,-0.031444572,0.0098014325
OrientationDeg,1676592873653,29930475770682,230.0,1.0,-15.0
UncalMag,1676592873655,29930477527233,-154.57399,745.3468,397.354,-174.57417,771.0116,430.86337
UncalGyro,1676592873658,29930480006227,0.1731803,-0.50991976,-0.8382598,0.0015562352,-0.0016511099,-0.00033751
UncalAccel,1676592873662,29930484246187,-1.2454642,-0.09451649,9.116654,0.037048545,-0.031444572,0.0098014325
OrientationDeg,1676592873662,29930484246187,230.0,1.0,-15.0
UncalMag,1676592873665,29930487527355,-154.7936,745.1516,396.9514,-174.57417,771.0116,430.86337
UncalGyro,1676592873666,29930488487000,0.14492778,-0.61743206,-0.84559023,0.0015562352,-0.0016511099,-0.00033751
UncalAccel,1676592873670,29930492726176,-1.1324034,-0.07956135,9.375079,0.037048545,-0.031444572,0.0098014325
OrientationDeg,1676592873670,29930492726176,231.0,1.0,-15.0
UncalGyro,1676592873674,29930496965271,0.08399397,-0.6940956,-0.84742284,0.0015562352,-0.0016511099,-0.00033751
UncalMag,1676592873675,29930497516571,-154.6716,745.4322,397.6224,-174.57417,771.0116,430.86337
UncalAccel,1676592873679,29930501207937,-1.0013963,0.069391854,9.675379,0.037048545,-0.031444572,0.0098014325
OrientationDeg,1676592873679,29930501207937,231.0,1.0,-15.0
UncalGyro,1676592873683,29930505449860,-0.011148291,-0.7425067,-0.8730792,0.0015562352,-0.0016511099,-0.00033751
UncalMag,1676592873685,29930507527597,-154.4764,745.2492,396.9636,-174.57417,771.0116,430.86337
UncalAccel,1676592873687,29930509690398,-0.93260264,0.23688944,9.93799,0.037048545,-0.031444572,0.0098014325
OrientationDeg,1676592873687,29930509690398,232.0,0.0,-15.0
UncalGyro,1676592873691,29930513930582,-0.13591751,-0.7837401,-0.9451612,0.0015562352,-0.0016511099,-0.00033751
UncalMag,1676592873695,29930517527271,-154.5374,745.9446,396.89038,-174.57417,771.0116,430.86337
UncalAccel,1676592873696,29930518168211,-0.8865408,0.3278167,10.109675,0.037048545,-0.031444572,0.0098014325
OrientationDeg,1676592873696,29930518168211,232.0,0.0,-15.0
UncalGyro,1676592873700,29930522403237,-0.2761111,-0.8190176,-1.063211,0.0015562352,-0.0016511099,-0.00033751
UncalAccel,1676592873704,29930526651498,-0.8213364,0.4331009,10.276575,0.037048545,-0.031444572,0.0098014325
UncalMag,1676592873705,29930527516610,-154.4398,745.8348,396.378,-174.57417,771.0116,430.86337
OrientationDeg,1676592873704,29930526651498,233.0,0.0,-14.0
UncalGyro,1676592873708,29930530892830,-0.4089743,-0.8426886,-1.2258538,0.0015562352,-0.0016511099,-0.00033751
UncalAccel,1676592873713,29930535132058,-0.7375876,0.49112684,10.491331,0.037048545,-0.031444572,0.0098014325
OrientationDeg,1676592873713,29930535132058,233.0,0.0,-14.0
UncalMag,1676592873715,29930537527270,-155.2572,746.1886,396.9636,-174.57417,771.0116,430.86337
UncalGyro,1676592873717,29930539360684,-0.5209153,-0.8498663,-1.4117095,0.0015562352,-0.0016511099,-0.00033751
UncalAccel,1676592873721,29930543603156,-0.61435723,0.4432704,10.678569,0.037048545,-0.031444572,0.0098014325
OrientationDeg,1676592873721,29930543603156,234.0,0.0,-14.0
UncalMag,1676592873725,29930547527188,-154.5862,746.884,396.2682,-174.57417,771.0116,430.86337
UncalGyro,1676592873725,29930547852372,-0.58184916,-0.8347474,-1.5935947,0.0015562352,-0.0016511099,-0.00033751
UncalAccel,1676592873730,29930552086238,-0.48454657,0.28115666,10.756336,0.037048545,-0.031444572,0.0098014325
OrientationDeg,1676592873730,29930552086238,235.0,0.0,-14.0
UncalGyro,1676592873734,29930556336860,-0.57558775,-0.80909103,-1.7496707,0.0015562352,-0.0016511099,-0.00033751
UncalMag,1676592873735,29930557524420,-154.7814,747.0304,395.707,-174.57417,771.0116,430.86337
UncalAccel,1676592873738,29930560573218,-0.4127619,0.07058827,10.844273,0.037048545,-0.031444572,0.0098014325
OrientationDeg,1676592873738,29930560573218,236.0,0.0,-13.0
UncalGyro,1676592873742,29930564809281,-0.5056437,-0.78786343,-1.8745927,0.0015562352,-0.0016511099,-0.00033751
UncalMag,1676592873745,29930567527064,-154.9278,748.0674,395.5972,-174.57417,771.0116,430.86337
UncalAccel,1676592873747,29930569057510,-0.46899325,-0.068793654,10.829915,0.037048545,-0.031444572,0.0098014325
OrientationDeg,1676592873747,29930569057510,237.0,0.0,-13.0
UncalGyro,1676592873751,29930573298405,-0.37873647,-0.798859,-1.9804251,0.0015562352,-0.0016511099,-0.00033751
UncalAccel,1676592873755,29930577536828,-0.61016977,-0.14536397,10.590633,0.037048545,-0.031444572,0.0098014325
OrientationDeg,1676592873755,29930577536828,238.0,0.0,-13.0
UncalMag,1676592873755,29930577536544,-154.5984,748.4212,395.30438,-174.57417,771.0116,430.86337
UncalGyro,1676592873759,29930581764612,-0.21151209,-0.8567385,-2.0857995,0.0015562352,-0.0016511099,-0.00033751
UncalAccel,1676592873765,29930586019799,-0.7280163,-0.25124636,10.375877,0.037048545,-0.031444572,0.0098014325
OrientationDeg,1676592873764,29930586019799,239.0,0.0,-13.0
UncalMag,1676592873765,29930587517215,-154.25679,748.7506,394.5358,-174.57417,771.0116,430.86337
UncalGyro,1676592873768,29930590262953,-0.0364992,-0.9399689,-2.1948388,0.0015562352,-0.0016511099,-0.00033751
UncalAccel,1676592873772,29930594501407,-0.7896315,-0.232702,10.356734,0.037048545,-0.031444572,0.0098014325
OrientationDeg,1676592873772,29930594501407,240.0,-1.0,-13.0
UncalMag,1676592873775,29930597527265,-154.33,749.3484,394.3162,-174.57417,771.0116,430.86337
UncalGyro,1676592873776,29930598730604,0.11255192,-1.0204504,-2.307696,0.0015562352,-0.0016511099,-0.00033751
UncalAccel,1676592873780,29930602978680,-0.82911307,-0.10827523,10.369895,0.037048545,-0.031444572,0.0098014325
OrientationDeg,1676592873780,29930602978680,241.0,-1.0,-13.0
UncalGyro,1676592873785,29930607222841,0.20204368,-1.119716,-2.4344506,0.0015562352,-0.0016511099,-0.00033751
UncalMag,1676592873785,29930607516400,-154.2934,749.7876,394.4138,-174.57417,771.0116,430.86337
UncalAccel,1676592873789,29930611465121,-0.9816555,0.111266255,10.18146,0.037048545,-0.031444572,0.0098014325
OrientationDeg,1676592873789,29930611465121,242.0,-1.0,-13.0
UncalGyro,1676592873793,29930615704011,0.20265454,-1.2760975,-2.6099217,0.0015562352,-0.0016511099,-0.00033751
UncalMag,1676592873795,29930617527223,-154.9156,749.9584,394.4748,-174.57417,771.0116,430.86337
UncalAccel,1676592873797,29930619941225,-1.0779666,0.30269206,10.132407,0.037048545,-0.031444572,0.0098014325
OrientationDeg,1676592873797,29930619941225,244.0,-2.0,-13.0
UncalGyro,1676592873802,29930624182974,0.106137834,-1.4665347,-2.8506026,0.0015562352,-0.0016511099,-0.00033751
UncalMag,1676592873805,29930627527141,-154.3422,750.7392,393.9136,-174.57417,771.0116,430.86337
UncalAccel,1676592873806,29930628422373,-0.93260264,0.4229314,10.39502,0.037048545,-0.031444572,0.0098014325
OrientationDeg,1676592873806,29930628422373,245.0,-2.0,-13.0
UncalGyro,1676592873810,29930632656087,-0.08582657,-1.6484199,-3.1311426,0.0015562352,-0.0016511099,-0.00033751
UncalAccel,1676592873814,29930636906301,-0.5808577,0.49651068,10.668998,0.037048545,-0.031444572,0.0098014325
OrientationDeg,1676592873814,29930636906301,247.0,-2.0,-13.0
UncalMag,1676592873815,29930637519043,-154.9034,751.7518,393.44998,-174.57417,771.0116,430.86337
UncalGyro,1676592873819,29930641147044,-0.33673948,-1.8148806,-3.4205399,0.0015562352,-0.0016511099,-0.00033751
UncalAccel,1676592873823,29930645389485,-0.25244278,0.4833502,10.90529,0.037048545,-0.031444572,0.0098014325
OrientationDeg,1676592873823,29930645389485,249.0,-3.0,-13.0
UncalMag,1676592873825,29930647527302,-155.2572,752.862,392.6326,-174.57417,771.0116,430.86337
UncalGyro,1676592873827,29930649627817,-0.60048056,-1.9507982,-3.6879463,0.0015562352,-0.0016511099,-0.00033751
UncalAccel,1676592873832,29930653866769,0.0047856453,0.36490545,11.079367,0.037048545,-0.031444572,0.0098014325
OrientationDeg,1676592873831,29930653866769,251.0,-3.0,-13.0
UncalMag,1676592873835,29930657517251,-155.4158,753.716,392.3642,-174.57417,771.0116,430.86337
UncalGyro,1676592873836,29930658109271,-0.8313876,-2.061212,-3.9032762,0.0015562352,-0.0016511099,-0.00033751
UncalAccel,1676592873840,29930662338519,0.2745764,0.17048861,10.995618,0.037048545,-0.031444572,0.0098014325
OrientationDeg,1676592873840,29930662338519,253.0,-4.0,-13.0
UncalGyro,1676592873844,29930666591246,-1.0064005,-2.1774292,-4.0436225,0.0015562352,-0.0016511099,-0.00033751
UncalMag,1676592873845,29930667519122,-155.65979,754.81396,391.16858,-174.57417,771.0116,430.86337
UncalAccel,1676592873848,29930670829648,0.5587241,-0.14356937,10.975279,0.037048545,-0.031444572,0.0098014325
OrientationDeg,1676592873848,29930670829648,255.0,-5.0,-12.0
UncalGyro,1676592873853,29930675074490,-1.1148291,-2.2829561,-4.1018076,0.0015562352,-0.0016511099,-0.00033751
UncalMag,1676592873855,29930677527137,-155.672,756.30237,391.6566,-174.57417,771.0116,430.86337
UncalAccel,1676592873857,29930679310584,0.75194454,-0.43010986,10.911271,0.037048545,-0.031444572,0.0098014325
OrientationDeg,1676592873857,29930679310584,257.0,-5.0,-12.0
UncalGyro,1676592873861,29930683547115,-1.1378893,-2.36863,-4.09463,0.0015562352,-0.0016511099,-0.00033751
UncalMag,1676592873865,29930687527136,-155.50119,757.4126,390.58298,-174.57417,771.0116,430.86337
UncalAccel,1676592873865,29930687782284,0.93559366,-0.60598236,10.741381,0.037048545,-0.031444572,0.0098014325
OrientationDeg,1676592873865,29930687782284,259.0,-6.0,-12.0
UncalGyro,1676592873870,29930692035528,-1.0691669,-2.4243715,-4.04347,0.0015562352,-0.0016511099,-0.00033751
UncalAccel,1676592873874,29930696271460,1.2251252,-0.7280163,10.548161,0.037048545,-0.031444572,0.0098014325
OrientationDeg,1676592873874,29930696271460,261.0,-7.0,-11.0
UncalMag,1676592873875,29930697509842,-156.3918,758.2666,390.69278,-174.57417,771.0116,430.86337
UncalGyro,1676592873878,29930700507004,-0.91522884,-2.43216,-3.9577959,0.0015562352,-0.0016511099,-0.00033751
UncalAccel,1676592873882,29930704751338,1.5846468,-0.7686943,10.445868,0.037048545,-0.031444572,0.0098014325
OrientationDeg,1676592873882,29930704751338,263.0,-8.0,-11.0
UncalMag,1676592873885,29930707527420,-157.0506,759.45,390.0218,-174.57417,771.0116,430.86337
UncalGyro,1676592873886,29930708985468,-0.7145596,-2.3738225,-3.8424952,0.0015562352,-0.0016511099,-0.00033751
UncalAccel,1676592873892,29930713238215,1.8669999,-0.68075806,10.332807,0.037048545,-0.031444572,0.0098014325
OrientationDeg,1676592873891,29930713238215,265.0,-8.0,-11.0
UncalGyro,1676592873895,29930717477217,-0.4615087,-2.222786,-3.7102427,0.0015562352,-0.0016511099,-0.00033751
UncalMag,1676592873895,29930717516677,-158.0266,760.3406,388.326,-174.57417,771.0116,430.86337
UncalAccel,1676592873899,29930721720076,2.0027926,-0.5353941,9.979267,0.037048545,-0.031444572,0.0098014325
OrientationDeg,1676592873899,29930721720076,267.0,-9.0,-11.0
UncalGyro,1676592873903,29930725960565,-0.16768251,-2.022575,-3.5676057,0.0015562352,-0.0016511099,-0.00033751
UncalMag,1676592873905,29930727511101,-158.5268,760.7798,388.67978,-174.57417,771.0116,430.86337
UncalAccel,1676592873908,29930730198001,2.1589243,-0.41874397,9.52164,0.037048545,-0.031444572,0.0098014325
OrientationDeg,1676592873908,29930730198001,268.0,-9.0,-12.0
UncalGyro,1676592873912,29930734439395,0.118966006,-1.8217529,-3.4090862,0.0015562352,-0.0016511099,-0.00033751
UncalMag,1676592873915,29930737527011,-159.2954,761.8778,387.99658,-174.57417,771.0116,430.86337
UncalAccel,1676592873916,29930738675712,2.2851455,-0.24466611,9.158528,0.037048545,-0.031444572,0.0098014325
OrientationDeg,1676592873916,29930738675712,270.0,-10.0,-12.0
UncalGyro,1676592873920,29930742909995,0.36010507,-1.6276505,-3.233157,0.0015562352,-0.0016511099,-0.00033751
UncalAccel,1676592873925,29930747160238,2.236691,0.028115666,8.99462,0.037048545,-0.031444572,0.0098014325
UncalMag,1676592873925,29930747527783,-159.088,761.8656,387.7404,-174.57417,771.0116,430.86337
OrientationDeg,1676592873925,29930747160238,271.0,-10.0,-13.0
UncalGyro,1676592873929,29930751400809,0.5195409,-1.430341,-3.0460796,0.0015562352,-0.0016511099,-0.00033751
UncalAccel,1676592873933,29930755641023,2.0542383,0.34337005,8.9108715,0.037048545,-0.031444572,0.0098014325
OrientationDeg,1676592873933,29930755641023,273.0,-11.0,-13.0
UncalMag,1676592873935,29930757527294,-159.7834,762.53656,387.3134,-174.57417,771.0116,430.86337
UncalGyro,1676592873937,29930759882397,0.56001073,-1.2563971,-2.8571694,0.0015562352,-0.0016511099,-0.00033751
UncalAccel,1676592873942,29930764116974,1.7617157,0.66759753,8.745169,0.037048545,-0.031444572,0.0098014325
OrientationDeg,1676592873942,29930764116974,274.0,-11.0,-14.0
UncalMag,1676592873945,29930767527293,-159.7834,762.4634,387.5452,-174.57417,771.0116,430.86337
UncalGyro,1676592873946,29930768364594,0.48517972,-1.1346822,-2.6723828,0.0015562352,-0.0016511099,-0.00033751
UncalAccel,1676592873950,29930772603281,1.4033905,0.9816555,8.535796,0.037048545,-0.031444572,0.0098014325
OrientationDeg,1676592873950,29930772603281,275.0,-11.0,-14.0
UncalGyro,1676592873954,29930776846252,0.32559118,-1.0751228,-2.5059218,0.0015562352,-0.0016511099,-0.00033751
UncalMag,1676592873955,29930777516509,-160.61299,762.53656,387.5818,-174.57417,771.0116,430.86337
UncalAccel,1676592873959,29930781081726,0.9487542,1.2855439,8.307282,0.037048545,-0.031444572,0.0098014325
OrientationDeg,1676592873959,29930781081726,277.0,-11.0,-14.0
UncalGyro,1676592873963,29930785312744,0.11530081,-1.0955868,-2.3745859,0.0015562352,-0.0016511099,-0.00033751
UncalMag,1676592873965,29930787527088,-160.29579,762.63416,387.96,-174.57417,771.0116,430.86337
UncalAccel,1676592873967,29930789555622,0.49052864,1.451247,8.055437,0.037048545,-0.031444572,0.0098014325
OrientationDeg,1676592873967,29930789555622,278.0,-12.0,-15.0
UncalGyro,1676592873971,29930793807066,-0.09819659,-1.1847731,-2.2797492,0.0015562352,-0.0016511099,-0.00033751
UncalMag,1676592873975,29930797527291,-160.5886,762.8782,387.4232,-174.57417,771.0116,430.86337
UncalAccel,1676592873976,29930798040148,0.17587246,1.5308083,7.9244304,0.037048545,-0.031444572,0.0098014325
OrientationDeg,1676592873976,29930798040148,279.0,-12.0,-15.0
UncalGyro,1676592873980,29930802291002,-0.2921463,-1.3038919,-2.2011,0.0015562352,-0.0016511099,-0.00033751
UncalAccel,1676592873984,29930806527250,0.023928227,1.5924234,7.7365937,0.037048545,-0.031444572,0.0098014325
UncalMag,1676592873985,29930807516670,-160.6862,763.1222,387.1182,-174.57417,771.0116,430.86337
OrientationDeg,1676592873984,29930806527250,280.0,-12.0,-15.0
UncalGyro,1676592873988,29930810771135,-0.45769078,-1.450805,-2.1329887,0.0015562352,-0.0016511099,-0.00033751
UncalAccel,1676592873993,29930815005439,-0.043070808,1.6737795,7.6163545,0.037048545,-0.031444572,0.0098014325
UncalMag,1676592873995,29930817529080,-161.56459,764.0494,386.3862,-174.57417,771.0116,430.86337
UncalGyro,1676592873997,29930819249732,-0.59421915,-1.5919148,-2.0680842,0.0015562352,-0.0016511099,-0.00033751
UncalAccel,1676592874001,29930823490434,-0.08673982,1.7641085,7.64447,0.037048545,-0.031444572,0.0098014325
UncalMag,1676592874005,29930827516343,-162.687,764.4642,386.6424,-174.57417,771.0116,430.86337
UncalGyro,1676592874005,29930827730820,-0.68371093,-1.6749926,-1.9802724,0.0015562352,-0.0016511099,-0.00033751
UncalAccel,1676592874009,29930831961187,-0.029312078,1.8891335,7.563114,0.037048545,-0.031444572,0.0098014325
UncalGyro,1676592874014,29930836212886,-0.7107417,-1.68553,-1.832443,0.0015562352,-0.0016511099,-0.00033751
UncalMag,1676592874015,29930837529973,-162.443,764.96436,385.7884,-174.57417,771.0116,430.86337
OrientationDeg,1676592873993,29930815005439,281.0,-13.0,-15.0
OrientationDeg,1676592874001,29930823490434,282.0,-13.0,-15.0
OrientationDeg,1676592874009,29930831961187,283.0,-14.0,-15.0
UncalAccel,1676592874018,29930840449306,0.15672988,1.995614,7.597212,0.037048545,-0.031444572,0.0098014325
OrientationDeg,1676592874018,29930840449306,284.0,-14.0,-14.0
UncalGyro,1676592874022,29930844685785,-0.6776023,-1.5986344,-1.5728253,0.0015562352,-0.0016511099,-0.00033751
UncalMag,1676592874025,29930847527043,-163.3458,765.6598,386.2154,-174.57417,771.0116,430.86337
UncalAccel,1676592874026,29930848930933,0.8452646,1.625923,7.870592,0.037048545,-0.031444572,0.0098014325
OrientationDeg,1676592874027,29930848930933,285.0,-15.0,-14.0
UncalGyro,1676592874031,29930853164534,-0.5897904,-1.3652838,-1.1053606,0.0015562352,-0.0016511099,-0.00033751
UncalAccel,1676592874035,29930857417932,1.076172,1.9046868,8.13799,0.037048545,-0.031444572,0.0098014325
OrientationDeg,1676592874035,29930857417932,285.0,-15.0,-14.0
UncalMag,1676592874035,29930857523990,-164.1632,765.9038,386.0568,-174.57417,771.0116,430.86337
UncalGyro,1676592874039,29930861658034,-0.47784933,-1.0013609,-0.5390886,0.0015562352,-0.0016511099,-0.00033751
UncalAccel,1676592874043,29930865898482,0.8285148,2.7032914,8.046464,0.037048545,-0.031444572,0.0098014325
OrientationDeg,1676592874043,29930865898482,285.0,-16.0,-14.0
UncalMag,1676592874046,29930867527245,-164.883,766.24536,386.5204,-174.57417,771.0116,430.86337
UncalGyro,1676592874048,29930870136183,-0.3755294,-0.6073528,-0.02443461,0.0015562352,-0.0016511099,-0.00033751
UncalAccel,1676592874052,29930874373161,0.4001996,3.0514472,7.517052,0.037048545,-0.031444572,0.0098014325
OrientationDeg,1676592874052,29930874373161,285.0,-16.0,-14.0
UncalMag,1676592874055,29930877527203,-164.8708,766.3918,385.581,-174.57417,771.0116,430.86337
UncalGyro,1676592874056,29930878618288,-0.32345316,-0.27977628,0.3830125,0.0015562352,-0.0016511099,-0.00033751
UncalAccel,1676592874060,29930882858105,-0.031106694,2.6081767,7.3160553,0.037048545,-0.031444572,0.0098014325
OrientationDeg,1676592874060,29930882858105,285.0,-16.0,-14.0
UncalGyro,1676592874065,29930887100902,-0.37186423,-0.03313944,0.7021896,0.0015562352,-0.0016511099,-0.00033751
UncalMag,1676592874065,29930887516705,-165.0416,767.1116,386.1178,-174.57417,771.0116,430.86337
UncalAccel,1676592874069,29930891339225,-0.36011982,1.6049858,7.2711897,0.037048545,-0.031444572,0.0098014325
OrientationDeg,1676592874069,29930891339225,285.0,-16.0,-13.0
UncalGyro,1676592874073,29930895578838,-0.52671856,0.12522738,0.96745783,0.0015562352,-0.0016511099,-0.00033751
UncalMag,1676592874075,29930897527039,-165.2612,766.7212,385.19058,-174.57417,771.0116,430.86337
UncalAccel,1676592874077,29930899809560,-0.66699934,0.8560323,7.2065835,0.037048545,-0.031444572,0.0098014325
OrientationDeg,1676592874077,29930899809560,284.0,-16.0,-13.0
UncalGyro,1676592874082,29930904058797,-0.75411314,0.19746219,1.1548407,0.0015562352,-0.0016511099,-0.00033751
UncalMag,1676592874085,29930907527038,-165.2246,767.41656,384.8612,-174.57417,771.0116,430.86337
UncalAccel,1676592874086,29930908289235,-0.76570326,0.5341976,7.240681,0.037048545,-0.031444572,0.0098014325
OrientationDeg,1676592874086,29930908289235,284.0,-16.0,-12.0
UncalGyro,1676592874090,29930912545450,-1.0126618,0.23243423,1.2608259,0.0015562352,-0.0016511099,-0.00033751
UncalAccel,1676592874094,29930916782420,-0.67776704,0.020937199,16.908882,0.037048545,-0.031444572,0.0098014325
OrientationDeg,1676592874094,29930916782420,283.0,-16.0,-12.0
UncalMag,1676592874095,29930917539367,-165.31,767.7826,385.4346,-174.57417,771.0116,430.86337
UncalGyro,1676592874099,29930921026794,-0.28680122,2.0645719,1.4419475,0.0015562352,-0.0016511099,-0.00033751
UncalAccel,1676592874103,29930925263874,-0.8111669,-1.4823537,18.50968,0.037048545,-0.031444572,0.0098014325
OrientationDeg,1676592874103,29930925263874,282.0,-15.0,-12.0
UncalMag,1676592874105,29930927516661,-164.98059,767.9778,385.8372,-174.57417,771.0116,430.86337
UncalGyro,1676592874107,29930929506855,0.8886562,2.6720774,1.845882,0.0015562352,-0.0016511099,-0.00033751
UncalAccel,1676592874111,29930933744332,-1.1240284,3.502494,6.975078,0.037048545,-0.031444572,0.0098014325
OrientationDeg,1676592874111,29930933744332,281.0,-14.0,-12.0
UncalMag,1676592874115,29930937516538,-162.9188,767.5874,386.1788,-174.57417,771.0116,430.86337
UncalGyro,1676592874115,29930937983295,1.2304354,2.1711679,1.7913623,0.0015562352,-0.0016511099,-0.00033751
UncalAccel,1676592874120,29930942213630,-1.975275,3.470191,14.62553,0.037048545,-0.031444572,0.0098014325
OrientationDeg,1676592874120,29930942213630,280.0,-13.0,-12.0
UncalGyro,1676592874124,29930946464098,1.2441798,2.097253,1.7434094,0.0015562352,-0.0016511099,-0.00033751
UncalMag,1676592874125,29930947512021,-162.1624,766.3064,386.45938,-174.57417,771.0116,430.86337
UncalAccel,1676592874128,29930950706672,-1.7982062,1.9453648,10.596615,0.037048545,-0.031444572,0.0098014325
OrientationDeg,1676592874128,29930950706672,279.0,-12.0,-13.0
UncalGyro,1676592874132,29930954950995,0.8691085,1.7160732,1.6108516,0.0015562352,-0.0016511099,-0.00033751
UncalMag,1676592874135,29930957527075,-161.7842,765.70856,386.7888,-174.57417,771.0116,430.86337
UncalAccel,1676592874137,29930959188798,0.77407813,0.567099,7.8466635,0.037048545,-0.031444572,0.0098014325
OrientationDeg,1676592874137,29930959188798,279.0,-12.0,-13.0
UncalGyro,1676592874141,29930963430995,0.31215215,1.0867293,1.3674219,0.0015562352,-0.0016511099,-0.00033751
UncalMag,1676592874145,29930967527034,-161.0766,765.30597,387.41098,-174.57417,771.0116,430.86337
UncalAccel,1676592874145,29930967670903,2.804388,-0.6723832,5.875576,0.037048545,-0.031444572,0.0098014325
OrientationDeg,1676592874145,29930967670903,278.0,-11.0,-13.0
UncalGyro,1676592874149,29930971907772,-0.43386704,0.5342017,1.3402383,0.0015562352,-0.0016511099,-0.00033751
UncalAccel,1676592874154,29930976139328,2.1649063,-1.2293127,7.3543406,0.037048545,-0.031444572,0.0098014325
OrientationDeg,1676592874154,29930976139328,277.0,-11.0,-12.0
UncalMag,1676592874155,29930977526179,-161.0156,764.6106,387.2402,-174.57417,771.0116,430.86337
UncalGyro,1676592874158,29930980391179,-1.2701416,0.36819902,1.5169312,0.0015562352,-0.0016511099,-0.00033751
UncalAccel,1676592874162,29930984631159,3.586841,0.38763726,11.125429,0.037048545,-0.031444572,0.0098014325
OrientationDeg,1676592874162,29930984631159,277.0,-11.0,-11.0
UncalMag,1676592874165,29930987527277,-160.0152,765.50116,387.30118,-174.57417,771.0116,430.86337
UncalGyro,1676592874166,29930988875411,-1.7075211,0.65500027,1.4085026,0.0015562352,-0.0016511099,-0.00033751
UncalAccel,1676592874171,29930993116184,2.842075,0.9822537,10.526027,0.037048545,-0.031444572,0.0098014325
OrientationDeg,1676592874171,29930993116184,276.0,-11.0,-10.0
UncalGyro,1676592874175,29930997369266,-1.9653062,0.713796,1.3313808,0.0015562352,-0.0016511099,-0.00033751
UncalMag,1676592874175,29930997516534,-160.3812,766.35516,387.0328,-174.57417,771.0116,430.86337
UncalAccel,1676592874179,29931001592706,2.4197419,1.5332011,9.040682,0.037048545,-0.031444572,0.0098014325
UncalGyro,1676592874183,29931005831902,-1.9578232,0.5859725,1.3025174,0.0015562352,-0.0016511099,-0.00033751
UncalMag,1676592874185,29931007527031,-159.942,766.6358,387.3256,-174.57417,771.0116,430.86337
OrientationDeg,1676592874179,29931001592706,276.0,-11.0,-9.0
UncalAccel,1676592874188,29931010070691,2.8893332,2.4418755,8.986844,0.037048545,-0.031444572,0.0098014325
OrientationDeg,1676592874188,29931010070691,276.0,-11.0,-8.0
UncalGyro,1676592874192,29931014316154,-1.7519615,0.6035349,1.2038627,0.0015562352,-0.0016511099,-0.00033751
UncalMag,1676592874195,29931017517997,-160.43,767.29456,386.5326,-174.57417,771.0116,430.86337
UncalAccel,1676592874196,29931018556429,2.9108686,2.536392,9.840483,0.037048545,-0.031444572,0.0098014325
OrientationDeg,1676592874196,29931018556429,275.0,-10.0,-7.0
UncalGyro,1676592874200,29931022797354,-1.3588698,0.7997753,1.0793989,0.0015562352,-0.0016511099,-0.00033751
UncalAccel,1676592874205,29931027034933,1.672583,2.0279171,8.241479,0.037048545,-0.031444572,0.0098014325
OrientationDeg,1676592874205,29931027034933,275.0,-10.0,-7.0
UncalMag,1676592874205,29931027516531,-159.454,767.8558,387.1304,-174.57417,771.0116,430.86337
UncalGyro,1676592874209,29931031268159,-0.8405506,0.90576047,0.9408852,0.0015562352,-0.0016511099,-0.00033751
UncalAccel,1676592874213,29931035507233,0.98943216,2.021337,6.8865438,0.037048545,-0.031444572,0.0098014325
OrientationDeg,1676592874213,29931035507233,274.0,-9.0,-6.0
UncalMag,1676592874215,29931037526988,-158.844,767.61176,387.1792,-174.57417,771.0116,430.86337
UncalGyro,1676592874217,29931039759318,-0.28160888,0.88346386,0.8003862,0.0015562352,-0.0016511099,-0.00033751
UncalAccel,1676592874222,29931044000864,2.0201404,2.4119651,6.2847486,0.037048545,-0.031444572,0.0098014325
OrientationDeg,1676592874222,29931044000864,274.0,-9.0,-6.0
UncalMag,1676592874225,29931047527272,-158.722,767.9778,387.8624,-174.57417,771.0116,430.86337
UncalGyro,1676592874226,29931048242360,0.26847526,0.86376345,0.732122,0.0015562352,-0.0016511099,-0.00033751
UncalAccel,1676592874231,29931052477527,3.4869409,2.484348,5.773283,0.037048545,-0.031444572,0.0098014325
OrientationDeg,1676592874230,29931052477527,274.0,-9.0,-6.0
UncalGyro,1676592874234,29931056721648,0.75136423,0.82924956,0.77854776,0.0015562352,-0.0016511099,-0.00033751
UncalMag,1676592874235,29931057516692,-158.1364,767.09937,387.0328,-174.57417,771.0116,430.86337
UncalAccel,1676592874238,29931060961842,4.907679,2.3485553,6.4701924,0.037048545,-0.031444572,0.0098014325
OrientationDeg,1676592874238,29931060961842,273.0,-8.0,-7.0
UncalGyro,1676592874243,29931065205544,1.0453432,0.75319684,0.93187493,0.0015562352,-0.0016511099,-0.00033751
UncalMag,1676592874245,29931067527108,-158.2706,766.76996,387.9234,-174.57417,771.0116,430.86337
UncalAccel,1676592874247,29931069441588,5.829514,2.7397819,7.667202,0.037048545,-0.031444572,0.0098014325
OrientationDeg,1676592874247,29931069441588,273.0,-8.0,-7.0
UncalGyro,1676592874251,29931073680713,1.1520919,0.6907359,1.1652255,0.0015562352,-0.0016511099,-0.00033751
UncalMag,1676592874255,29931077527066,-157.80699,765.81836,387.56958,-174.57417,771.0116,430.86337
UncalAccel,1676592874255,29931077920732,5.6961145,3.6520455,8.816954,0.037048545,-0.031444572,0.0098014325
OrientationDeg,1676592874255,29931077920732,272.0,-8.0,-8.0
UncalGyro,1676592874260,29931082153225,1.091158,0.66798115,1.3371841,0.0015562352,-0.0016511099,-0.00033751
UncalAccel,1676592874264,29931086396889,4.2598224,5.1218367,9.878768,0.037048545,-0.031444572,0.0098014325
UncalMag,1676592874265,29931087517015,-157.746,765.1474,388.6188,-174.57417,771.0116,430.86337
OrientationDeg,1676592874264,29931086396889,271.0,-8.0,-8.0
UncalGyro,1676592874268,29931090643379,0.8926268,0.6826419,1.3345878,0.0015562352,-0.0016511099,-0.00033751
UncalAccel,1676592874272,29931094876298,2.6949165,6.710073,10.858629,0.037048545,-0.031444572,0.0098014325
OrientationDeg,1676592874272,29931094876298,270.0,-7.0,-8.0
UncalMag,1676592874275,29931097527431,-157.258,764.5374,388.2162,-174.57417,771.0116,430.86337
UncalGyro,1676592874277,29931099125178,0.56428677,0.7173085,1.1519392,0.0015562352,-0.0016511099,-0.00033751
UncalAccel,1676592874281,29931103366633,1.4650056,7.7557364,11.432308,0.037048545,-0.031444572,0.0098014325
OrientationDeg,1676592874281,29931103366633,270.0,-7.0,-9.0
UncalMag,1676592874285,29931107527268,-157.1482,764.5252,387.9722,-174.57417,771.0116,430.86337
UncalGyro,1676592874285,29931107613662,0.10430524,0.7673995,0.8185594,0.0015562352,-0.0016511099,-0.00033751
UncalAccel,1676592874289,29931111859879,0.94277215,7.982456,11.442478,0.037048545,-0.031444572,0.0098014325
UncalGyro,1676592874294,29931116086858,-0.46853364,0.81000733,0.4269948,0.0015562352,-0.0016511099,-0.00033751
UncalMag,1676592874295,29931117527063,-156.831,764.54956,388.448,-174.57417,771.0116,430.86337
OrientationDeg,1676592874289,29931111859879,270.0,-7.0,-8.0
UncalAccel,1676592874298,29931120318547,1.1670992,7.5960155,11.121242,0.037048545,-0.031444572,0.0098014325
OrientationDeg,1676592874298,29931120318547,270.0,-6.0,-8.0
UncalGyro,1676592874302,29931124567641,-1.1038336,0.821461,0.07651087,0.0015562352,-0.0016511099,-0.00033751
UncalMag,1676592874306,29931127527063,-156.3796,765.1718,388.3382,-174.57417,771.0116,430.86337
UncalAccel,1676592874306,29931128809797,1.8167506,6.777072,10.518848,0.037048545,-0.031444572,0.0098014325
OrientationDeg,1676592874306,29931128809797,270.0,-6.0,-7.0
UncalGyro,1676592874311,29931133052432,-1.738828,0.79229224,-0.16752979,0.0015562352,-0.0016511099,-0.00033751
UncalAccel,1676592874315,29931137290337,2.4448664,5.608776,9.898509,0.037048545,-0.031444572,0.0098014325
UncalMag,1676592874316,29931137516523,-156.5504,765.8794,389.119,-174.57417,771.0116,430.86337
OrientationDeg,1676592874315,29931137290337,270.0,-6.0,-6.0
UncalGyro,1676592874319,29931141541812,-2.2996023,0.7279987,-0.28237244,0.0015562352,-0.0016511099,-0.00033751
UncalAccel,1676592874323,29931145772586,2.8378878,4.438088,9.3200445,0.037048545,-0.031444572,0.0098014325
UncalMag,1676592874325,29931147527224,-155.672,766.57477,388.42358,-174.57417,771.0116,430.86337
OrientationDeg,1676592874323,29931145772586,270.0,-5.0,-5.0
UncalGyro,1676592874328,29931150014457,-2.7172813,0.6565274,-0.28252518,0.0015562352,-0.0016511099,-0.00033751
UncalAccel,1676592874332,29931154248252,2.8977082,3.591627,8.933005,0.037048545,-0.031444572,0.0098014325
OrientationDeg,1676592874332,29931154248252,271.0,-5.0,-4.0
UncalMag,1676592874335,29931157527223,-155.7818,768.24615,388.8262,-174.57417,771.0116,430.86337
UncalGyro,1676592874336,29931158483329,-2.9524643,0.6026186,-0.21303925,0.0015562352,-0.0016511099,-0.00033751
UncalAccel,1676592874340,29931162734824,2.7750762,2.8438697,8.58784,0.037048545,-0.031444572,0.0098014325
OrientationDeg,1676592874340,29931162734824,271.0,-5.0,-2.0
UncalGyro,1676592874344,29931166977225,-3.0309606,0.56001073,-0.10995574,0.0015562352,-0.0016511099,-0.00033751
UncalMag,1676592874345,29931167516440,-155.5866,769.6126,387.93558,-174.57417,771.0116,430.86337
UncalAccel,1676592874349,29931171220521,2.5896323,2.1870399,8.318049,0.037048545,-0.031444572,0.0098014325
OrientationDeg,1676592874349,29931171220521,271.0,-4.0,-1.0
UncalGyro,1676592874353,29931175464875,-2.986062,0.50747633,-0.008246681,0.0015562352,-0.0016511099,-0.00033751
UncalMag,1676592874355,29931177527262,-155.2816,771.11316,388.2894,-174.57417,771.0116,430.86337
UncalAccel,1676592874357,29931179696421,2.376671,1.783251,8.246863,0.037048545,-0.031444572,0.0098014325
OrientationDeg,1676592874357,29931179696421,271.0,-4.0,0.0
UncalGyro,1676592874362,29931183938313,-2.8341093,0.45112398,0.06078109,0.0015562352,-0.0016511099,-0.00033751
UncalMag,1676592874365,29931187527058,-154.6228,771.833,388.67978,-174.57417,771.0116,430.86337
UncalAccel,1676592874366,29931188175851,2.1655045,1.6187445,8.475378,0.037048545,-0.031444572,0.0098014325
OrientationDeg,1676592874366,29931188175851,271.0,-4.0,1.0
UncalGyro,1676592874370,29931192416777,-2.5937338,0.42714754,0.087201014,0.0015562352,-0.0016511099,-0.00033751
UncalAccel,1676592874374,29931196648823,1.9465612,1.4871392,9.04786,0.037048545,-0.031444572,0.0098014325
UncalMag,1676592874375,29931197534015,-154.4398,773.0408,388.1186,-174.57417,771.0116,430.86337
OrientationDeg,1676592874374,29931196648823,271.0,-4.0,2.0
UncalGyro,1676592874378,29931200902586,-2.2912028,0.474795,0.071776666,0.0015562352,-0.0016511099,-0.00033751
UncalAccel,1676592874384,29931205139860,1.9178474,1.4141582,9.74477,0.037048545,-0.031444572,0.0098014325
OrientationDeg,1676592874383,29931205139860,271.0,-4.0,3.0
UncalMag,1676592874385,29931207527260,-154.7936,774.0168,388.7286,-174.57417,771.0116,430.86337
UncalGyro,1676592874387,29931209384336,-1.9892827,0.61407226,0.020158553,0.0015562352,-0.0016511099,-0.00033751
UncalAccel,1676592874391,29931213620480,1.9298115,1.332204,10.088738,0.037048545,-0.031444572,0.0098014325
OrientationDeg,1676592874391,29931213620480,271.0,-3.0,4.0
UncalMag,1676592874395,29931217536252,-154.4276,774.9074,389.4118,-174.57417,771.0116,430.86337
UncalGyro,1676592874395,29931217859962,-1.7391334,0.78694713,-0.033444874,0.0015562352,-0.0016511099,-0.00033751
UncalAccel,1676592874400,29931222091539,1.8197416,1.1778669,10.227522,0.037048545,-0.031444572,0.0098014325
OrientationDeg,1676592874400,29931222091539,271.0,-3.0,5.0
UncalGyro,1676592874404,29931226341112,-1.575116,0.9607383,-0.071318515,0.0015562352,-0.0016511099,-0.00033751
UncalMag,1676592874405,29931227524817,-154.1714,775.6882,389.10678,-174.57417,771.0116,430.86337
UncalAccel,1676592874408,29931230573015,1.558924,0.8985049,10.1700945,0.037048545,-0.031444572,0.0098014325
OrientationDeg,1676592874408,29931230573015,271.0,-2.0,6.0
UncalGyro,1676592874412,29931234828568,-1.5088371,1.098183,-0.08536842,0.0015562352,-0.0016511099,-0.00033751
UncalMag,1676592874415,29931237526973,-153.3418,775.6272,389.4362,-174.57417,771.0116,430.86337
UncalAccel,1676592874417,29931239064631,1.0977074,0.67058855,9.943973,0.037048545,-0.031444572,0.0098014325
OrientationDeg,1676592874417,29931239064631,271.0,-2.0,6.0
UncalGyro,1676592874421,29931243308884,-1.5435038,1.1705705,-0.08475755,0.0015562352,-0.0016511099,-0.00033751
UncalMag,1676592874425,29931247527013,-152.98799,776.3348,389.2288,-174.57417,771.0116,430.86337
UncalAccel,1676592874425,29931247547836,0.54675996,0.4863412,9.521041,0.037048545,-0.031444572,0.0098014325
OrientationDeg,1676592874425,29931247547836,271.0,-1.0,7.0
UncalGyro,1676592874429,29931251797043,-1.6684257,1.1572843,-0.077121735,0.0015562352,-0.0016511099,-0.00033751
UncalAccel,1676592874434,29931256026738,-0.03708875,0.3397808,9.040682,0.037048545,-0.031444572,0.0098014325
UncalMag,1676592874435,29931257516555,-152.82939,777.2254,390.0462,-174.57417,771.0116,430.86337
OrientationDeg,1676592874434,29931256026738,272.0,-1.0,8.0
UncalGyro,1676592874438,29931260265426,-1.8513799,1.073901,-0.0786489,0.0015562352,-0.0016511099,-0.00033751
UncalAccel,1676592874442,29931264495508,-0.56111693,0.360718,8.770293,0.037048545,-0.031444572,0.0098014325
OrientationDeg,1676592874442,29931264495508,272.0,0.0,9.0
UncalMag,1676592874445,29931267527296,-152.0242,778.3966,390.5464,-174.57417,771.0116,430.86337
UncalGyro,1676592874446,29931268750735,-2.0517437,0.97081757,-0.10140363,0.0015562352,-0.0016511099,-0.00033751
UncalAccel,1676592874450,29931272986391,-0.82672024,0.24466611,8.525627,0.037048545,-0.031444572,0.0098014325
OrientationDeg,1676592874451,29931272986391,272.0,0.0,10.0
UncalGyro,1676592874455,29931277232973,-2.2368357,0.8735373,-0.12797627,0.0015562352,-0.0016511099,-0.00033751
UncalMag,1676592874455,29931277524040,-151.4874,778.7748,391.3516,-174.57417,771.0116,430.86337
UncalAccel,1676592874459,29931281469526,-0.87936234,0.04366901,8.025527,0.037048545,-0.031444572,0.0098014325
OrientationDeg,1676592874459,29931281469526,272.0,0.0,11.0
UncalGyro,1676592874463,29931285712028,-2.3848178,0.7509061,-0.14767668,0.0015562352,-0.0016511099,-0.00033751
UncalMag,1676592874465,29931287527091,-151.2434,779.2994,391.1076,-174.57417,771.0116,430.86337
UncalAccel,1676592874467,29931289951082,-0.9170493,-0.2620141,7.5254273,0.037048545,-0.031444572,0.0098014325
OrientationDeg,1676592874467,29931289951082,272.0,0.0,12.0
UncalGyro,1676592874472,29931294192771,-2.4715607,0.59696805,-0.14538592,0.0015562352,-0.0016511099,-0.00033751
UncalMag,1676592874475,29931297527253,-151.2434,780.983,392.2422,-174.57417,771.0116,430.86337
UncalAccel,1676592874476,29931298432587,-0.8117651,-0.72083783,7.2323065,0.037048545,-0.031444572,0.0098014325
OrientationDeg,1676592874476,29931298432587,272.0,0.0,13.0
UncalGyro,1676592874480,29931302674958,-2.4953845,0.45173484,-0.11881329,0.0015562352,-0.0016511099,-0.00033751
UncalAccel,1676592874484,29931306913596,-0.698106,-1.2035898,7.068398,0.037048545,-0.031444572,0.0098014325
OrientationDeg,1676592874484,29931306913596,272.0,0.0,15.0
UncalMag,1676592874485,29931307512116,-150.79199,781.60516,392.1324,-174.57417,771.0116,430.86337
UncalGyro,1676592874489,29931311154949,-2.4694228,0.32498032,-0.061850104,0.0015562352,-0.0016511099,-0.00033751
UncalAccel,1676592874493,29931315395416,-0.65264237,-1.6540387,7.0666037,0.037048545,-0.031444572,0.0098014325
UncalMag,1676592874495,29931317516428,-150.548,782.14197,392.6204,-174.57417,771.0116,430.86337
UncalGyro,1676592874497,29931319638488,-2.405282,0.21212296,0.012980887,0.0015562352,-0.0016511099,-0.00033751
OrientationDeg,1676592874493,29931315395416,272.0,1.0,16.0
UncalAccel,1676592874501,29931323865111,-0.721436,-1.9746768,6.9338017,0.037048545,-0.031444572,0.0098014325
OrientationDeg,1676592874501,29931323865111,272.0,1.0,17.0
UncalMag,1676592874505,29931327527129,-150.2674,783.4596,392.8034,-174.57417,771.0116,430.86337
UncalGyro,1676592874506,29931328117461,-2.319608,0.09330966,0.08078693,0.0015562352,-0.0016511099,-0.00033751
UncalAccel,1676592874510,29931332356006,-0.8105687,-2.1762722,6.8392854,0.037048545,-0.031444572,0.0098014325
OrientationDeg,1676592874510,29931332356006,272.0,1.0,18.0
UncalGyro,1676592874514,29931336599456,-2.2375994,-0.0355829,0.117744274,0.0015562352,-0.0016511099,-0.00033751
UncalMag,1676592874515,29931337516793,-150.1088,784.25256,392.9986,-174.57417,771.0116,430.86337
UncalAccel,1676592874518,29931340826791,-0.98943216,-2.4263222,6.643672,0.037048545,-0.031444572,0.0098014325
OrientationDeg,1676592874518,29931340826791,272.0,1.0,19.0
UncalGyro,1676592874523,29931345066557,-2.1354322,-0.24724771,0.12965615,0.0015562352,-0.0016511099,-0.00033751
UncalMag,1676592874525,29931347512479,-150.5114,784.6064,393.328,-174.57417,771.0116,430.86337
UncalAccel,1676592874527,29931349306323,-1.1820544,-2.7146573,6.3858457,0.037048545,-0.031444572,0.0098014325
OrientationDeg,1676592874527,29931349306323,272.0,1.0,20.0
UncalGyro,1676592874531,29931353555844,-1.975691,-0.54275376,0.12507465,0.0015562352,-0.0016511099,-0.00033751
UncalMag,1676592874535,29931357527208,-150.36499,785.31396,393.3768,-174.57417,771.0116,430.86337
UncalAccel,1676592874535,29931357801917,-1.0564312,-3.0634112,6.4360948,0.037048545,-0.031444572,0.0098014325
OrientationDeg,1676592874536,29931357801917,271.0,0.0,21.0
UncalGyro,1676592874540,29931362038937,-1.7458528,-0.83062404,0.105832405,0.0015562352,-0.0016511099,-0.00033751
UncalAccel,1676592874544,29931366284074,-0.57906306,-3.554538,6.928418,0.037048545,-0.031444572,0.0098014325
UncalMag,1676592874545,29931367516669,-151.0726,785.6678,394.2064,-174.57417,771.0116,430.86337
OrientationDeg,1676592874544,29931366284074,271.0,0.0,22.0
UncalGyro,1676592874548,29931370521013,-1.4605788,-1.0250319,0.09514226,0.0015562352,-0.0016511099,-0.00033751
UncalAccel,1676592874552,29931374754451,0.116650105,-4.1024942,7.603792,0.037048545,-0.031444572,0.0098014325
OrientationDeg,1676592874552,29931374754451,271.0,0.0,22.0
UncalMag,1676592874555,29931377527288,-151.2434,786.25336,393.3768,-174.57417,771.0116,430.86337
UncalGyro,1676592874557,29931379007442,-1.1073459,-1.1195632,0.10338894,0.0015562352,-0.0016511099,-0.00033751
UncalAccel,1676592874561,29931383243108,0.9296116,-4.6492543,8.032107,0.037048545,-0.031444572,0.0098014325
OrientationDeg,1676592874561,29931383243108,271.0,0.0,23.0
UncalGyro,1676592874565,29931387487462,-0.690125,-1.1684325,0.10293079,0.0015562352,-0.0016511099,-0.00033751
UncalMag,1676592874565,29931387516545,-151.58499,787.4734,393.6818,-174.57417,771.0116,430.86337
UncalAccel,1676592874569,29931391722894,1.7766708,-4.9603214,8.220542,0.037048545,-0.031444572,0.0098014325
OrientationDeg,1676592874569,29931391722894,271.0,-1.0,23.0
UncalGyro,1676592874573,29931395962711,-0.23533584,-1.1720977,0.095753126,0.0015562352,-0.0016511099,-0.00033751
UncalMag,1676592874575,29931397527083,-152.7318,787.53436,393.71838,-174.57417,771.0116,430.86337
UncalAccel,1676592874578,29931400206008,2.4352953,-5.028517,8.4347,0.037048545,-0.031444572,0.0098014325
OrientationDeg,1676592874578,29931400206008,271.0,-1.0,23.0
UncalGyro,1676592874582,29931404446761,0.22861631,-1.1093313,0.10445796,0.0015562352,-0.0016511099,-0.00033751
UncalMag,1676592874585,29931407527082,-152.82939,787.74176,391.8396,-174.57417,771.0116,430.86337
UncalAccel,1676592874586,29931408676507,2.9473593,-4.9531426,8.29472,0.037048545,-0.031444572,0.0098014325
OrientationDeg,1676592874586,29931408676507,271.0,-2.0,23.0
UncalGyro,1676592874590,29931412926557,0.66859204,-1.0193814,0.1151481,0.0015562352,-0.0016511099,-0.00033751
UncalAccel,1676592874595,29931417167381,3.3918262,-4.5475593,8.066205,0.037048545,-0.031444572,0.0098014325
UncalMag,1676592874595,29931417530174,-153.5614,787.5832,392.7912,-174.57417,771.0116,430.86337
OrientationDeg,1676592874595,29931417167381,271.0,-2.0,22.0
UncalGyro,1676592874599,29931421412224,1.0629056,-0.93386024,0.09621128,0.0015562352,-0.0016511099,-0.00033751
UncalAccel,1676592874603,29931425649386,3.51386,-4.130012,8.112267,0.037048545,-0.031444572,0.0098014325
OrientationDeg,1676592874603,29931425649386,271.0,-3.0,22.0
UncalMag,1676592874605,29931427516908,-153.3784,787.1318,392.1934,-174.57417,771.0116,430.86337
UncalGyro,1676592874607,29931429890351,1.4223998,-0.8434522,0.041080687,0.0015562352,-0.0016511099,-0.00033751
UncalAccel,1676592874612,29931434130473,3.3714871,-3.92064,8.416156,0.037048545,-0.031444572,0.0098014325
OrientationDeg,1676592874612,29931434130473,271.0,-3.0,21.0
UncalMag,1676592874615,29931437514832,-153.5248,786.5218,392.413,-174.57417,771.0116,430.86337
UncalGyro,1676592874616,29931438372661,1.7540996,-0.7368562,-0.030390546,0.0015562352,-0.0016511099,-0.00033751
UncalAccel,1676592874620,29931442611399,3.167499,-3.821936,8.815159,0.037048545,-0.031444572,0.0098014325
OrientationDeg,1676592874620,29931442611399,271.0,-3.0,20.0
UncalGyro,1676592874624,29931446852520,2.0615175,-0.61758476,-0.09728029,0.0015562352,-0.0016511099,-0.00033751
UncalMag,1676592874625,29931447520569,-154.1958,785.9118,392.6448,-174.57417,771.0116,430.86337
UncalAccel,1676592874629,29931451091157,3.034099,-3.7854455,9.353543,0.037048545,-0.031444572,0.0098014325
OrientationDeg,1676592874629,29931451091157,271.0,-4.0,19.0
UncalGyro,1676592874633,29931455328104,2.3409884,-0.48792863,-0.15515977,0.0015562352,-0.0016511099,-0.00033751
UncalMag,1676592874635,29931457527201,-154.52519,785.41156,390.96118,-174.57417,771.0116,430.86337
UncalAccel,1676592874637,29931459564228,3.0311081,-3.7190447,9.716056,0.037048545,-0.031444572,0.0098014325
OrientationDeg,1676592874637,29931459564228,271.0,-4.0,18.0
UncalGyro,1676592874641,29931463819538,2.58396,-0.35078937,-0.20265454,0.0015562352,-0.0016511099,-0.00033751
UncalMag,1676592874645,29931467527078,-154.39099,784.3868,391.559,-174.57417,771.0116,430.86337
UncalAccel,1676592874646,29931468052997,3.0999017,-3.5850465,9.944571,0.037048545,-0.031444572,0.0098014325
OrientationDeg,1676592874646,29931468052997,271.0,-4.0,16.0
UncalGyro,1676592874650,29931472287891,2.7676778,-0.24404067,-0.23075435,0.0015562352,-0.0016511099,-0.00033751
UncalAccel,1676592874654,29931476525216,3.4941192,-3.7968113,9.194421,0.037048545,-0.031444572,0.0098014325
UncalMag,1676592874655,29931477516905,-154.7204,782.1542,390.0706,-174.57417,771.0116,430.86337
OrientationDeg,1676592874654,29931476525216,271.0,-4.0,15.0
UncalGyro,1676592874658,29931480774504,2.7151432,-0.6270532,-0.20250183,0.0015562352,-0.0016511099,-0.00033751
UncalAccel,1676592874663,29931485008206,3.6693935,-4.0672,8.351549,0.037048545,-0.031444572,0.0098014325
OrientationDeg,1676592874663,29931485008206,271.0,-5.0,14.0
UncalMag,1676592874665,29931487527198,-154.7204,782.1542,390.0706,-174.57417,771.0116,430.86337
UncalGyro,1676592874667,29931489260526,2.223244,-1.4856243,-0.12018774,0.0015562352,-0.0016511099,-0.00033751
UncalAccel,1676592874671,29931493497983,2.9832516,-3.5132618,9.523434,0.037048545,-0.031444572,0.0098014325
OrientationDeg,1676592874671,29931493497983,271.0,-6.0,13.0
UncalMag,1676592874675,29931497527279,-156.3796,780.7878,389.18,-174.57417,771.0116,430.86337
UncalGyro,1676592874675,29931497745469,1.4181237,-1.9601139,-0.027641652,0.0015562352,-0.0016511099,-0.00033751
UncalAccel,1676592874679,29931501992418,2.5525436,-2.4687948,10.727622,0.037048545,-0.031444572,0.0098014325
OrientationDeg,1676592874679,29931501992418,271.0,-7.0,13.0
UncalGyro,1676592874684,29931506223954,0.5662721,-1.8510745,0.034513887,0.0015562352,-0.0016511099,-0.00033751
UncalMag,1676592874686,29931507516455,-156.6846,780.84875,388.3504,-174.57417,771.0116,430.86337
UncalAccel,1676592874688,29931510469346,2.609373,-1.8640088,10.433903,0.037048545,-0.031444572,0.0098014325
OrientationDeg,1676592874688,29931510469346,271.0,-7.0,12.0
UncalGyro,1676592874692,29931514692419,-0.20387627,-1.614975,0.00992656,0.0015562352,-0.0016511099,-0.00033751
UncalMag,1676592874695,29931517527237,-157.4288,780.678,388.814,-174.57417,771.0116,430.86337
UncalAccel,1676592874697,29931518930364,2.6111677,-1.5655042,9.287143,0.037048545,-0.031444572,0.0098014325
OrientationDeg,1676592874696,29931518930364,271.0,-8.0,13.0
UncalGyro,1676592874701,29931523180414,-0.82253003,-1.5520558,-0.0917825,0.0015562352,-0.0016511099,-0.00033751
UncalAccel,1676592874705,29931527420597,2.440679,-1.579263,8.479566,0.037048545,-0.031444572,0.0098014325
OrientationDeg,1676592874705,29931527420597,271.0,-9.0,13.0
UncalMag,1676592874705,29931527523411,-158.2462,781.0074,388.6676,-174.57417,771.0116,430.86337
UncalGyro,1676592874709,29931531656041,-1.234406,-1.6772833,-0.20540343,0.0015562352,-0.0016511099,-0.00033751
UncalAccel,1676592874713,29931535904158,2.1014965,-1.8921245,7.948957,0.037048545,-0.031444572,0.0098014325
OrientationDeg,1676592874713,29931535904158,271.0,-10.0,14.0
UncalMag,1676592874715,29931537516412,-159.1246,781.82477,387.67938,-174.57417,771.0116,430.86337
UncalGyro,1676592874718,29931540147261,-1.4307991,-1.9007072,-0.30451632,0.0015562352,-0.0016511099,-0.00033751
UncalAccel,1676592874722,29931544387078,1.7204394,-2.3928227,8.092526,0.037048545,-0.031444572,0.0098014325
OrientationDeg,1676592874722,29931544387078,272.0,-11.0,15.0
UncalMag,1676592874725,29931547517062,-160.1494,782.33716,387.8258,-174.57417,771.0116,430.86337
UncalGyro,1676592874727,29931548623640,-1.4340062,-2.094046,-0.39202276,0.0015562352,-0.0016511099,-0.00033751
UncalAccel,1676592874730,29931552855532,1.9130617,-2.9240294,8.368299,0.037048545,-0.031444572,0.0098014325
OrientationDeg,1676592874730,29931552855532,272.0,-12.0,15.0
UncalGyro,1676592874736,29931557107169,-1.2999213,-2.2134702,-0.46700647,0.0015562352,-0.0016511099,-0.00033751
UncalMag,1676592874735,29931557516370,-160.3324,782.752,387.20358,-174.57417,771.0116,430.86337
UncalAccel,1676592874739,29931561346814,2.580061,-3.4229329,8.379665,0.037048545,-0.031444572,0.0098014325
OrientationDeg,1676592874739,29931561346814,272.0,-13.0,16.0
UncalGyro,1676592874743,29931565590883,-1.0865766,-2.2681427,-0.5158757,0.0015562352,-0.0016511099,-0.00033751
UncalMag,1676592874745,29931567527111,-161.65,783.3498,387.9844,-174.57417,771.0116,430.86337
UncalAccel,1676592874747,29931569825644,3.2584262,-3.8261235,8.739186,0.037048545,-0.031444572,0.0098014325
OrientationDeg,1676592874747,29931569825644,273.0,-15.0,16.0
UncalGyro,1676592874752,29931574059877,-0.8399397,-2.217899,-0.5152648,0.0015562352,-0.0016511099,-0.00033751
UncalMag,1676592874755,29931577526948,-163.0896,783.6548,387.36218,-174.57417,771.0116,430.86337
UncalAccel,1676592874756,29931578308869,3.891926,-4.229314,8.778668,0.037048545,-0.031444572,0.0098014325
OrientationDeg,1676592874756,29931578308869,273.0,-16.0,16.0
UncalGyro,1676592874760,29931582549794,-0.5925393,-2.1027508,-0.44318274,0.0015562352,-0.0016511099,-0.00033751
UncalAccel,1676592874764,29931586789408,4.2514477,-4.5242295,8.863613,0.037048545,-0.031444572,0.0098014325
UncalMag,1676592874765,29931587519338,-163.3458,784.6064,387.36218,-174.57417,771.0116,430.86337
OrientationDeg,1676592874764,29931586789408,273.0,-17.0,17.0
UncalGyro,1676592874769,29931591032175,-0.35246924,-1.92392,-0.29779682,0.0015562352,-0.0016511099,-0.00033751
UncalAccel,1676592874773,29931595271392,4.5128636,-4.371089,9.652048,0.037048545,-0.031444572,0.0098014325
OrientationDeg,1676592874773,29931595271392,273.0,-18.0,17.0
UncalMag,1676592874775,29931597527272,-164.2974,784.399,386.8498,-174.57417,771.0116,430.86337
UncalGyro,1676592874777,29931599514169,-0.12385293,-1.6423112,-0.14553864,0.0015562352,-0.0016511099,-0.00033751
UncalAccel,1676592874781,29931603755441,4.6564326,-3.815954,10.509277,0.037048545,-0.031444572,0.0098014325
OrientationDeg,1676592874781,29931603755441,273.0,-18.0,17.0
UncalMag,1676592874785,29931607527189,-165.4686,784.1184,386.93518,-174.57417,771.0116,430.86337
UncalGyro,1676592874785,29931607997719,0.08200866,-1.3428345,-0.05222898,0.0015562352,-0.0016511099,-0.00033751
UncalAccel,1676592874790,29931612224587,4.4596233,-3.2907293,10.887343,0.037048545,-0.031444572,0.0098014325
OrientationDeg,1676592874790,29931612224587,273.0,-19.0,17.0
UncalGyro,1676592874794,29931616474678,0.23991732,-1.1520919,-0.033444874,0.0015562352,-0.0016511099,-0.00033751
UncalMag,1676592874795,29931617516731,-165.676,784.1916,386.5936,-174.57417,771.0116,430.86337
UncalAccel,1676592874798,29931620713264,4.0277185,-2.8151557,11.325828,0.037048545,-0.031444572,0.0098014325
OrientationDeg,1676592874798,29931620713264,273.0,-19.0,16.0
UncalGyro,1676592874802,29931624955757,0.29856038,-1.0641272,-0.08506299,0.0015562352,-0.0016511099,-0.00033751
UncalMag,1676592874805,29931627526984,-165.981,784.2648,386.374,-174.57417,771.0116,430.86337
UncalAccel,1676592874807,29931629184527,3.5958142,-2.3539393,11.822338,0.037048545,-0.031444572,0.0098014325
OrientationDeg,1676592874807,29931629184527,273.0,-20.0,16.0
UncalGyro,1676592874811,29931633437384,0.23151793,-0.9998337,-0.1910481,0.0015562352,-0.0016511099,-0.00033751
UncalMag,1676592874815,29931637527146,-166.7984,784.5088,386.45938,-174.57417,771.0116,430.86337
UncalAccel,1676592874815,29931637676997,3.3427732,-2.0638096,12.229716,0.037048545,-0.031444572,0.0098014325
OrientationDeg,1676592874815,29931637676997,274.0,-20.0,16.0
