# 
# Header Description:
# 
# Version: v3.0.5.6 Platform: 13 Manufacturer: Google Model: Pixel 7
# 
# Raw,utcTimeMillis,TimeNanos,LeapSecond,TimeUncertaintyNanos,FullBiasNanos,BiasNanos,BiasUncertaintyNanos,DriftNanosPerSecond,DriftUncertaintyNanosPerSecond,HardwareClockDiscontinuityCount,Svid,TimeOffsetNanos,State,ReceivedSvTimeNanos,ReceivedSvTimeUncertaintyNanos,Cn0DbHz,PseudorangeRateMetersPerSecond,PseudorangeRateUncertaintyMetersPerSecond,AccumulatedDeltaRangeState,AccumulatedDeltaRangeMeters,AccumulatedDeltaRangeUncertaintyMeters,CarrierFrequencyHz,CarrierCycles,CarrierPhase,CarrierPhaseUncertainty,MultipathIndicator,SnrInDb,ConstellationType,AgcDb,BasebandCn0DbHz,FullInterSignalBiasNanos,FullInterSignalBiasUncertaintyNanos,SatelliteInterSignalBiasNanos,SatelliteInterSignalBiasUncertaintyNanos,CodeType,ChipsetElapsedRealtimeNanos
# 
# UncalAccel,utcTimeMillis,elapsedRealtimeNanos,UncalAccelXMps2,UncalAccelYMps2,UncalAccelZMps2,BiasXMps2,BiasYMps2,BiasZMps2
# 
# Accel,utcTimeMillis,elapsedRealtimeNanos,AccelXMps2,AccelYMps2,AccelZMps2
# 
# UncalGyro,utcTimeMillis,elapsedRealtimeNanos,UncalGyroXRadPerSec,UncalGyroYRadPerSec,UncalGyroZRadPerSec,DriftXRadPerSec,DriftYRadPerSec,DriftZRadPerSec
# 
# Gyro,utcTimeMillis,elapsedRealtimeNanos,GyroXRadPerSec,GyroYRadPerSec,GyroZRadPerSec
# 
# UncalMag,utcTimeMillis,elapsedRealtimeNanos,UncalMagXMicroT,UncalMagYMicroT,UncalMagZMicroT,BiasXMicroT,BiasYMicroT,BiasZMicroT
# 
# Mag,utcTimeMillis,elapsedRealtimeNanos,MagXMicroT,MagYMicroT,MagZMicroT
# 
# OrientationDeg,utcTimeMillis,elapsedRealtimeNanos,yawDeg,rollDeg,pitchDeg
# 
# Fix,Provider,LatitudeDegrees,LongitudeDegrees,AltitudeMeters,SpeedMps,AccuracyMeters,BearingDegrees,UnixTimeMillis,SpeedAccuracyMps,BearingAccuracyDegrees,elapsedRealtimeNanos,VerticalAccuracyMeters
# 
# Nav,Svid,Type,Status,MessageId,Sub-messageId,Data(Bytes)
# 
# Status,UnixTimeMillis,SignalCount,SignalIndex,ConstellationType,Svid,CarrierFrequencyHz,Cn0DbHz,AzimuthDegrees,ElevationDegrees,UsedInFix,HasAlmanacData,HasEphemerisData,BasebandCn0DbHz
# 
UncalAccel,1676592830105,29886927252403,-3.3732817,2.3940191,15.1023,0.037048545,-0.031444572,0.0098014325
UncalAccel,1676592830112,29886934920270,-3.3463624,2.1164517,14.912669,0.037048545,-0.031444572,0.0098014325
UncalMag,1676592830119,29886941992373,-179.12039,784.7162,386.8132,-174.57417,771.0116,430.86337
UncalAccel,1676592830122,29886944060568,-3.2033913,1.8400806,14.56212,0.037048545,-0.031444572,0.0098014325
UncalGyro,1676592830129,29886951797194,0.23273966,-0.77763146,0.07162395,0.0015497988,-0.0016491596,-0.0003398799
UncalAccel,1676592830129,29886951797194,-2.9796624,1.588236,14.216357,0.037048545,-0.031444572,0.0098014325
UncalMag,1676592830129,29886951988181,-179.0228,784.643,387.0328,-174.57417,771.0116,430.86337
UncalGyro,1676592830138,29886960356059,0.3539964,-0.81581056,0.081397794,0.0015497988,-0.0016491596,-0.0003398799
UncalAccel,1676592830138,29886960356059,-2.7649066,1.3986049,13.784453,0.037048545,-0.031444572,0.0098014325
UncalMag,1676592830139,29886961984315,-179.27899,783.83777,386.8498,-174.57417,771.0116,430.86337
UncalGyro,1676592830146,29886968841969,0.4746423,-0.84497935,0.07437284,0.0015412527,-0.0016507695,-0.00033944898
UncalAccel,1676592830146,29886968841969,-2.6309085,1.2137593,13.27538,0.037048545,-0.031444572,0.0098014325
UncalMag,1676592830149,29886971990906,-179.2668,784.094,386.5448,-174.57417,771.0116,430.86337
UncalGyro,1676592830155,29886977317991,0.5510005,-0.86391616,0.047036625,0.0015399596,-0.001651013,-0.00033938373
UncalAccel,1676592830155,29886977317991,-2.5674987,0.9708878,12.6472645,0.037048545,-0.031444572,0.0098014325
UncalMag,1676592830159,29886981983418,-179.6938,783.9476,387.4842,-174.57417,771.0116,430.86337
UncalGyro,1676592830163,29886985806211,0.5870415,-0.8875872,0.001985312,0.001539764,-0.0016510499,-0.0003393739
UncalAccel,1676592830163,29886985806211,-2.5513473,0.72741807,11.90848,0.037048545,-0.031444572,0.0098014325
UncalMag,1676592830169,29886991993631,-180.04759,783.41077,387.61838,-174.57417,771.0116,430.86337
UncalGyro,1676592830172,29886994286588,0.59040123,-0.9111055,-0.05955936,0.0015397344,-0.0016510555,-0.00033937237
UncalAccel,1676592830172,29886994286588,-2.5357938,0.48454657,11.279766,0.037048545,-0.031444572,0.0098014325
UncalMag,1676592830179,29887001993833,-180.88939,783.3132,387.4842,-174.57417,771.0116,430.86337
UncalGyro,1676592830180,29887002769619,0.57436603,-0.91599244,-0.13362677,0.0015397299,-0.0016510563,-0.00033937214
UncalAccel,1676592830180,29887002769619,-2.4921248,0.23629123,10.756336,0.037048545,-0.031444572,0.0098014325
OrientationDeg,1676592830180,29887002769619,40.0,12.0,-4.0
UncalGyro,1676592830189,29887011246029,0.5458081,-0.9137017,-0.21227567,0.0015397292,-0.0016510565,-0.00033937214
UncalAccel,1676592830189,29887011246029,-2.4005992,0.0029910284,10.214361,0.037048545,-0.031444572,0.0098014325
UncalMag,1676592830189,29887011985369,-181.3042,783.20337,387.35,-174.57417,771.0116,430.86337
OrientationDeg,1676592830189,29887011246029,40.0,11.0,-4.0
UncalGyro,1676592830197,29887019723262,0.50610185,-0.9114109,-0.29016098,0.0015397291,-0.0016510565,-0.00033937214
UncalAccel,1676592830197,29887019723262,-2.271985,-0.19142582,9.777073,0.037048545,-0.031444572,0.0098014325
OrientationDeg,1676592830197,29887019723262,40.0,11.0,-5.0
UncalMag,1676592830199,29887021983334,-181.63359,783.0326,387.3134,-174.57417,771.0116,430.86337
UncalGyro,1676592830206,29887028197535,0.4622723,-0.9117164,-0.36636642,0.0015397291,-0.0016510565,-0.00033937214
UncalAccel,1676592830206,29887028197535,-2.1110678,-0.28115666,9.410374,0.037048545,-0.031444572,0.0098014325
UncalMag,1676592830209,29887031983536,-181.963,782.6788,387.36218,-174.57417,771.0116,430.86337
OrientationDeg,1676592830206,29887028197535,40.0,10.0,-5.0
UncalGyro,1676592830214,29887036678289,0.42287147,-0.9137017,-0.45234573,0.0015397291,-0.0016510565,-0.00033937214
UncalAccel,1676592830214,29887036678289,-2.0267208,-0.3278167,9.048459,0.037048545,-0.031444572,0.0098014325
OrientationDeg,1676592830214,29887036678289,41.0,10.0,-5.0
UncalMag,1676592830219,29887041983088,-182.5974,782.55676,386.98398,-174.57417,771.0116,430.86337
UncalGyro,1676592830223,29887045161238,0.3987423,-0.90026265,-0.5534439,0.0015397291,-0.0016510565,-0.00033937214
UncalAccel,1676592830223,29887045161238,-1.9764715,-0.38464624,8.782257,0.037048545,-0.031444572,0.0098014325
OrientationDeg,1676592830223,29887045161238,41.0,10.0,-5.0
UncalMag,1676592830229,29887051988743,-183.06099,781.959,387.3378,-174.57417,771.0116,430.86337
UncalGyro,1676592830231,29887053643690,0.39293906,-0.8575021,-0.66966105,0.0015397291,-0.0016510565,-0.00033937214
UncalAccel,1676592830231,29887053643690,-1.9465612,-0.42711884,8.644072,0.037048545,-0.031444572,0.0098014325
OrientationDeg,1676592830231,29887053643690,41.0,9.0,-5.0
UncalMag,1676592830239,29887061989068,-183.793,781.9346,387.228,-174.57417,771.0116,430.86337
UncalGyro,1676592830240,29887062122826,0.40225476,-0.7997753,-0.7979427,0.0015397291,-0.0016510565,-0.00033937214
UncalAccel,1676592830240,29887062122826,-1.9453648,-0.465404,8.496315,0.037048545,-0.031444572,0.0098014325
OrientationDeg,1676592830240,29887062122826,42.0,9.0,-5.0
UncalGyro,1676592830248,29887070604128,0.41798455,-0.7386888,-0.9254609,0.0015397291,-0.0016510565,-0.00033937214
UncalAccel,1676592830248,29887070604128,-2.0063818,-0.56590253,8.448459,0.037048545,-0.031444572,0.0098014325
OrientationDeg,1676592830248,29887070604128,42.0,9.0,-6.0
UncalMag,1676592830249,29887071983167,-183.8906,781.9468,387.4842,-174.57417,771.0116,430.86337
UncalGyro,1676592830257,29887079086153,0.43585235,-0.7200574,-1.0389291,0.0015397291,-0.0016510565,-0.00033937214
UncalAccel,1676592830257,29887079086153,-2.143969,-0.5952146,8.290532,0.037048545,-0.031444572,0.0098014325
OrientationDeg,1676592830257,29887079086153,43.0,8.0,-6.0
UncalMag,1676592830259,29887081985689,-184.647,781.6662,387.4354,-174.57417,771.0116,430.86337
UncalGyro,1676592830265,29887087567038,0.4529566,-0.77763146,-1.1417072,0.0015397291,-0.0016510565,-0.00033937214
UncalAccel,1676592830265,29887087567038,-2.2707887,-0.61016977,8.027322,0.037048545,-0.031444572,0.0098014325
OrientationDeg,1676592830265,29887087567038,43.0,8.0,-6.0
UncalMag,1676592830269,29887091983898,-185.6962,781.4588,387.167,-174.57417,771.0116,430.86337
UncalGyro,1676592830274,29887096051596,0.4622723,-0.88453287,-1.233795,0.0015397291,-0.0016510565,-0.00033937214
UncalAccel,1676592830274,29887096051596,-2.2845473,-0.6723832,7.9657063,0.037048545,-0.031444572,0.0098014325
UncalMag,1676592830279,29887101985037,-185.6962,781.4588,387.167,-174.57417,771.0116,430.86337
UncalGyro,1676592830282,29887104534688,0.45723262,-0.9970848,-1.3190107,0.0015397291,-0.0016510565,-0.00033937214
UncalAccel,1676592830282,29887104534688,-2.2175484,-0.74416786,7.966305,0.037048545,-0.031444572,0.0098014325
OrientationDeg,1676592830274,29887096051596,44.0,8.0,-6.0
OrientationDeg,1676592830282,29887104534688,45.0,7.0,-6.0
UncalMag,1676592830289,29887111983449,-185.7328,780.922,386.557,-174.57417,771.0116,430.86337
UncalGyro,1676592830291,29887113019377,0.43233988,-1.1178834,-1.401783,0.0015397291,-0.0016510565,-0.00033937214
UncalAccel,1676592830291,29887113019377,-2.0291135,-0.78065836,7.8053875,0.037048545,-0.031444572,0.0098014325
OrientationDeg,1676592830291,29887113019377,45.0,7.0,-6.0
UncalMag,1676592830299,29887121987070,-187.453,780.0558,387.96,-174.57417,771.0116,430.86337
UncalGyro,1676592830299,29887121494363,0.38087448,-1.2452488,-1.4848607,0.0015397291,-0.0016510565,-0.00033937214
UncalAccel,1676592830299,29887121494363,-1.7796619,-0.82672024,7.701898,0.037048545,-0.031444572,0.0098014325
UncalGyro,1676592830307,29887129974851,0.30085114,-1.3562735,-1.5636623,0.0015397291,-0.0016510565,-0.00033937214
UncalAccel,1676592830307,29887129974851,-1.5110675,-0.9068798,7.704291,0.037048545,-0.031444572,0.0098014325
OrientationDeg,1676592830299,29887121494363,46.0,6.0,-6.0
UncalMag,1676592830309,29887131988981,-188.01419,779.5312,388.0942,-174.57417,771.0116,430.86337
OrientationDeg,1676592830307,29887129974851,47.0,6.0,-6.0
UncalGyro,1676592830316,29887138450579,0.21120666,-1.442711,-1.6461291,0.0015397291,-0.0016510565,-0.00033937214
UncalAccel,1676592830316,29887138450579,-1.2143575,-0.9720842,7.6779695,0.037048545,-0.031444572,0.0098014325
OrientationDeg,1676592830316,29887138450579,48.0,5.0,-6.0
UncalMag,1676592830319,29887141994026,-188.2216,779.519,387.9722,-174.57417,771.0116,430.86337
UncalGyro,1676592830324,29887146945411,0.12721269,-1.4853189,-1.7363845,0.0015397291,-0.0016510565,-0.00033937214
UncalAccel,1676592830324,29887146945411,-0.98943216,-1.0522437,7.765308,0.037048545,-0.031444572,0.0098014325
OrientationDeg,1676592830324,29887146945411,49.0,4.0,-6.0
UncalMag,1676592830329,29887151983405,-189.7222,778.8846,388.10638,-174.57417,771.0116,430.86337
UncalGyro,1676592830333,29887155427171,0.063682705,-1.4709635,-1.8368717,0.0015397291,-0.0016510565,-0.00033937214
UncalAccel,1676592830333,29887155427171,-0.78424764,-1.1276177,7.8723865,0.037048545,-0.031444572,0.0098014325
OrientationDeg,1676592830333,29887155427171,49.0,4.0,-6.0
UncalMag,1676592830339,29887161998623,-190.015,779.2506,388.9238,-174.57417,771.0116,430.86337
UncalGyro,1676592830341,29887163888850,0.03176499,-1.4349225,-1.9449949,0.0015397291,-0.0016510565,-0.00033937214
UncalAccel,1676592830341,29887163888850,-0.5401797,-1.1066805,7.816155,0.037048545,-0.031444572,0.0098014325
OrientationDeg,1676592830341,29887163888850,50.0,3.0,-6.0
UncalMag,1676592830349,29887171987961,-190.869,778.9822,389.363,-174.57417,771.0116,430.86337
UncalGyro,1676592830350,29887172371077,0.03436117,-1.3892603,-2.0604484,0.0015397291,-0.0016510565,-0.00033937214
UncalAccel,1676592830350,29887172371077,-0.32004002,-1.0959128,7.8029947,0.037048545,-0.031444572,0.0098014325
OrientationDeg,1676592830350,29887172371077,51.0,3.0,-6.0
UncalGyro,1676592830358,29887180871852,0.057421334,-1.3275629,-2.1655173,0.0015397291,-0.0016510565,-0.00033937214
UncalAccel,1676592830358,29887180871852,-0.109471634,-1.1377872,7.852646,0.037048545,-0.031444572,0.0098014325
OrientationDeg,1676592830358,29887180871852,53.0,2.0,-6.0
UncalMag,1676592830359,29887181983444,-191.72299,778.726,390.1804,-174.57417,771.0116,430.86337
UncalGyro,1676592830368,29887189333408,0.08689558,-1.2670872,-2.2606595,0.0015397291,-0.0016510565,-0.00033937214
UncalAccel,1676592830367,29887189333408,0.062213387,-1.1365907,7.877172,0.037048545,-0.031444572,0.0098014325
OrientationDeg,1676592830367,29887189333408,54.0,2.0,-6.0
UncalMag,1676592830369,29887191993900,-192.5282,777.48157,389.7778,-174.57417,771.0116,430.86337
UncalGyro,1676592830375,29887197830986,0.11789699,-1.2127203,-2.3518312,0.0015397291,-0.0016510565,-0.00033937214
UncalAccel,1676592830375,29887197830986,0.16151553,-1.049851,7.9537425,0.037048545,-0.031444572,0.0098014325
OrientationDeg,1676592830375,29887197830986,55.0,1.0,-6.0
UncalMag,1676592830379,29887201993737,-193.1626,777.384,390.00958,-174.57417,771.0116,430.86337
UncalGyro,1676592830384,29887206301353,0.15027285,-1.162782,-2.451555,0.0015397291,-0.0016510565,-0.00033937214
UncalAccel,1676592830384,29887206301353,0.14955142,-0.8632108,8.172686,0.037048545,-0.031444572,0.0098014325
OrientationDeg,1676592830384,29887206301353,56.0,1.0,-6.0
UncalMag,1676592830389,29887211983116,-193.4066,776.957,390.156,-174.57417,771.0116,430.86337
UncalGyro,1676592830392,29887214789959,0.19410244,-1.1276573,-2.5692992,0.0015397291,-0.0016510565,-0.00033937214
UncalAccel,1676592830392,29887214789959,0.07537391,-0.65324056,8.309675,0.037048545,-0.031444572,0.0098014325
Fix,FLP,37.4308016000,-122.1551040000,-15.80000114440918,0.03313934,8.955,,1676592830002,,,29886824888818,3.0517561
OrientationDeg,1676592830392,29887214789959,57.0,0.0,-6.0
UncalMag,1676592830399,29887221997194,-194.0898,775.9078,390.4,-174.57417,771.0116,430.86337
UncalGyro,1676592830401,29887223271058,0.25152376,-1.1297953,-2.6995661,0.0015397291,-0.0016510565,-0.00033937214
UncalAccel,1676592830401,29887223271058,-0.14057833,-0.47736812,8.288139,0.037048545,-0.031444572,0.0098014325
OrientationDeg,1676592830401,29887223271058,59.0,0.0,-6.0
UncalGyro,1676592830409,29887231751547,0.3080288,-1.1788172,-2.8209758,0.0015397291,-0.0016510565,-0.00033937214
UncalAccel,1676592830409,29887231751547,-0.35174492,-0.32063824,8.280961,0.037048545,-0.031444572,0.0098014325
OrientationDeg,1676592830409,29887231751547,60.0,0.0,-7.0
UncalMag,1676592830409,29887231983521,-194.87059,775.1148,390.7172,-174.57417,771.0116,430.86337
UncalGyro,1676592830418,29887240233388,0.35185838,-1.2475395,-2.915507,0.0015397291,-0.0016510565,-0.00033937214
UncalAccel,1676592830418,29887240233388,-0.51505506,-0.20219351,8.270193,0.037048545,-0.031444572,0.0098014325
OrientationDeg,1676592830418,29887240233388,61.0,0.0,-7.0
UncalMag,1676592830419,29887241983439,-195.1146,774.4926,390.461,-174.57417,771.0116,430.86337
UncalGyro,1676592830426,29887248714130,0.36987892,-1.3141239,-2.9697213,0.0015397291,-0.0016510565,-0.00033937214
UncalAccel,1676592830426,29887248714130,-0.61076796,-0.0634098,8.245069,0.037048545,-0.031444572,0.0098014325
OrientationDeg,1676592830426,29887248714130,63.0,0.0,-7.0
UncalMag,1676592830429,29887251993896,-196.40779,773.88257,391.559,-174.57417,771.0116,430.86337
UncalGyro,1676592830435,29887257194832,0.3494149,-1.365742,-2.9898798,0.0015397291,-0.0016510565,-0.00033937214
UncalAccel,1676592830435,29887257194832,-0.6687939,0.12801601,8.157731,0.037048545,-0.031444572,0.0098014325
OrientationDeg,1676592830435,29887257194832,64.0,-1.0,-7.0
UncalMag,1676592830439,29887261983153,-196.786,773.0042,391.3516,-174.57417,771.0116,430.86337
UncalGyro,1676592830443,29887265677570,0.29535335,-1.4026994,-2.983466,0.0015397291,-0.0016510565,-0.00033937214
UncalAccel,1676592830443,29887265677570,-0.62093747,0.33439696,7.999206,0.037048545,-0.031444572,0.0098014325
OrientationDeg,1676592830443,29887265677570,66.0,-1.0,-7.0
UncalMag,1676592830449,29887271993772,-196.6396,771.9794,392.1934,-174.57417,771.0116,430.86337
UncalGyro,1676592830452,29887274157131,0.21594086,-1.4149166,-2.9608638,0.0015397291,-0.0016510565,-0.00033937214
UncalAccel,1676592830452,29887274157131,-0.5593223,0.5455636,7.912466,0.037048545,-0.031444572,0.0098014325
OrientationDeg,1676592830452,29887274157131,67.0,-2.0,-7.0
UncalMag,1676592830459,29887281994138,-197.7132,771.3694,392.6814,-174.57417,771.0116,430.86337
UncalGyro,1676592830460,29887282636501,0.1207986,-1.3923146,-2.931695,0.0015397291,-0.0016510565,-0.00033937214
UncalAccel,1676592830460,29887282636501,-0.5419743,0.799801,7.963912,0.037048545,-0.031444572,0.0098014325
OrientationDeg,1676592830460,29887282636501,69.0,-2.0,-8.0
UncalGyro,1676592830469,29887291117529,0.01695151,-1.3310753,-2.905275,0.0015397291,-0.0016510565,-0.00033937214
UncalAccel,1676592830469,29887291117529,-0.6454639,1.1533405,8.142776,0.037048545,-0.031444572,0.0098014325
UncalMag,1676592830469,29887291983313,-198.5916,770.7594,393.1572,-174.57417,771.0116,430.86337
OrientationDeg,1676592830469,29887291117529,70.0,-3.0,-8.0
UncalGyro,1676592830477,29887299603195,-0.07574729,-1.2434162,-2.879466,0.0015397291,-0.0016510565,-0.00033937214
UncalAccel,1676592830478,29887299603195,-0.9212367,1.5296118,8.287541,0.037048545,-0.031444572,0.0098014325
OrientationDeg,1676592830477,29887299603195,71.0,-3.0,-8.0
UncalMag,1676592830479,29887301994543,-199.2016,769.3564,393.328,-174.57417,771.0116,430.86337
UncalGyro,1676592830487,29887308081547,-0.1518,-1.1775955,-2.8475482,0.0015397291,-0.0016510565,-0.00033937214
UncalAccel,1676592830486,29887308081547,-1.2951152,1.8388842,8.211569,0.037048545,-0.031444572,0.0098014325
OrientationDeg,1676592830486,29887308081547,73.0,-3.0,-8.0
UncalMag,1676592830489,29887311983434,-198.799,769.0148,393.5964,-174.57417,771.0116,430.86337
UncalGyro,1676592830494,29887316547154,-0.22388211,-1.1830933,-2.8000536,0.0015397291,-0.0016510565,-0.00033937214
UncalAccel,1676592830494,29887316547154,-1.6779668,2.0662024,8.079366,0.037048545,-0.031444572,0.0098014325
OrientationDeg,1676592830494,29887316547154,74.0,-4.0,-8.0
UncalMag,1676592830500,29887322003046,-199.9458,769.10016,394.13318,-174.57417,771.0116,430.86337
UncalGyro,1676592830503,29887325042087,-0.29810223,-1.2504412,-2.7284296,0.0015397291,-0.0016510565,-0.00033937214
UncalAccel,1676592830503,29887325042087,-2.0225334,2.1984057,8.019546,0.037048545,-0.031444572,0.0098014325
OrientationDeg,1676592830504,29887325042087,76.0,-4.0,-8.0
UncalMag,1676592830509,29887331997349,-200.7266,768.3926,394.2186,-174.57417,771.0116,430.86337
UncalGyro,1676592830511,29887333519665,-0.36713,-1.3301591,-2.6311493,0.0015397291,-0.0016510565,-0.00033937214
UncalAccel,1676592830511,29887333519665,-2.3395824,2.2971098,8.078768,0.037048545,-0.031444572,0.0098014325
OrientationDeg,1676592830511,29887333519665,77.0,-5.0,-8.0
UncalGyro,1676592830520,29887342000715,-0.42531493,-1.3750577,-2.5184448,0.0015397291,-0.0016510565,-0.00033937214
UncalAccel,1676592830520,29887342000715,-2.580061,2.4388845,8.229515,0.037048545,-0.031444572,0.0098014325
OrientationDeg,1676592830520,29887342000715,78.0,-5.0,-7.0
UncalMag,1676592830520,29887342003207,-201.06819,767.92896,393.511,-174.57417,771.0116,430.86337
UncalGyro,1676592830528,29887350488048,-0.46120325,-1.3752104,-2.4058928,0.0015397291,-0.0016510565,-0.00033937214
UncalAccel,1676592830529,29887350488048,-2.7302105,2.6392834,8.298907,0.037048545,-0.031444572,0.0098014325
OrientationDeg,1676592830528,29887350488048,79.0,-6.0,-7.0
UncalMag,1676592830529,29887351993278,-201.605,767.685,394.56018,-174.57417,771.0116,430.86337
UncalGyro,1676592830536,29887358969494,-0.46914452,-1.3471106,-2.3049474,0.0015397291,-0.0016510565,-0.00033937214
UncalAccel,1676592830536,29887358969494,-2.8025935,2.87378,8.240283,0.037048545,-0.031444572,0.0098014325
OrientationDeg,1676592830536,29887358969494,80.0,-6.0,-7.0
UncalMag,1676592830539,29887361993969,-201.54399,767.0018,394.87738,-174.57417,771.0116,430.86337
UncalGyro,1676592830545,29887367447937,-0.45448375,-1.2959507,-2.2139285,0.0015397291,-0.0016510565,-0.00033937214
UncalAccel,1676592830545,29887367447937,-2.7942185,3.0843484,8.248658,0.037048545,-0.031444572,0.0098014325
OrientationDeg,1676592830545,29887367447937,82.0,-7.0,-7.0
UncalMag,1676592830549,29887371981843,-202.1052,766.3186,395.6948,-174.57417,771.0116,430.86337
UncalGyro,1676592830553,29887375928334,-0.43478334,-1.2009611,-2.1299343,0.0015397291,-0.0016510565,-0.00033937214
UncalAccel,1676592830553,29887375928334,-2.7960134,3.2614172,8.386245,0.037048545,-0.031444572,0.0098014325
OrientationDeg,1676592830553,29887375928334,83.0,-7.0,-7.0
UncalMag,1676592830559,29887381984202,-202.62979,766.404,396.2194,-174.57417,771.0116,430.86337
UncalGyro,1676592830562,29887384405780,-0.42332962,-1.0639745,-2.0401373,0.0015397291,-0.0016510565,-0.00033937214
UncalAccel,1676592830562,29887384405780,-2.8749764,3.4331024,8.560922,0.037048545,-0.031444572,0.0098014325
OrientationDeg,1676592830562,29887384405780,84.0,-7.0,-7.0
UncalMag,1676592830569,29887391993885,-202.99579,765.5256,396.012,-174.57417,771.0116,430.86337
UncalGyro,1676592830570,29887392878823,-0.4260785,-0.9072876,-1.9336939,0.0015397291,-0.0016510565,-0.00033937214
UncalAccel,1676592830570,29887392878823,-3.0000014,3.5617166,8.583653,0.037048545,-0.031444572,0.0098014325
OrientationDeg,1676592830570,29887392878823,85.0,-8.0,-7.0
UncalGyro,1676592830579,29887401373442,-0.4445572,-0.75716746,-1.8041905,0.0015397291,-0.0016510565,-0.00033937214
UncalAccel,1676592830579,29887401373442,-3.0430722,3.6382868,8.492127,0.037048545,-0.031444572,0.0098014325
UncalMag,1676592830579,29887401985340,-203.008,765.40356,397.8054,-174.57417,771.0116,430.86337
OrientationDeg,1676592830579,29887401373442,86.0,-8.0,-7.0
UncalGyro,1676592830587,29887409851874,-0.47723848,-0.61498857,-1.6542231,0.0015397291,-0.0016510565,-0.00033937214
UncalAccel,1676592830587,29887409851874,-3.0245278,3.6478581,8.568698,0.037048545,-0.031444572,0.0098014325
OrientationDeg,1676592830587,29887409851874,86.0,-8.0,-7.0
UncalMag,1676592830589,29887411983264,-202.9348,764.8424,396.4512,-174.57417,771.0116,430.86337
UncalGyro,1676592830596,29887418332404,-0.5148067,-0.45555276,-1.4914275,0.0015397291,-0.0016510565,-0.00033937214
UncalAccel,1676592830596,29887418332404,-3.0358937,3.565904,8.869596,0.037048545,-0.031444572,0.0098014325
OrientationDeg,1676592830596,29887418332404,87.0,-8.0,-7.0
UncalMag,1676592830599,29887421983344,-203.374,764.5008,397.11,-174.57417,771.0116,430.86337
UncalGyro,1676592830604,29887426810238,-0.5511532,-0.29856038,-1.3197744,0.0015397291,-0.0016510565,-0.00033937214
UncalAccel,1676592830604,29887426810238,-3.0598218,3.4073794,8.989835,0.037048545,-0.031444572,0.0098014325
OrientationDeg,1676592830604,29887426810238,88.0,-8.0,-6.0
UncalMag,1676592830609,29887431987860,-203.0568,764.5008,396.744,-174.57417,771.0116,430.86337
UncalGyro,1676592830613,29887435294724,-0.5815437,-0.18936823,-1.1475104,0.0015397291,-0.0016510565,-0.00033937214
UncalAccel,1676592830613,29887435294724,-3.0580273,3.2590244,8.857033,0.037048545,-0.031444572,0.0098014325
OrientationDeg,1676592830613,29887435294724,88.0,-8.0,-6.0
UncalMag,1676592830619,29887441993637,-203.26419,764.4642,395.88998,-174.57417,771.0116,430.86337
UncalGyro,1676592830621,29887443771092,-0.6232353,-0.13713925,-0.97035944,0.0015397291,-0.0016510565,-0.00033937214
UncalAccel,1676592830621,29887443771092,-2.99043,3.1441689,8.867203,0.037048545,-0.031444572,0.0098014325
OrientationDeg,1676592830621,29887443771092,89.0,-8.0,-6.0
UncalMag,1676592830629,29887451993799,-202.62979,764.5984,396.7562,-174.57417,771.0116,430.86337
UncalGyro,1676592830630,29887452257328,-0.70005155,-0.13103059,-0.7883216,0.0015397291,-0.0016510565,-0.00033937214
UncalAccel,1676592830630,29887452257328,-2.9240294,3.0825539,8.977871,0.037048545,-0.031444572,0.0098014325
OrientationDeg,1676592830630,29887452257328,89.0,-8.0,-6.0
UncalGyro,1676592830638,29887460741580,-0.8205447,-0.1328632,-0.6032294,0.0015397291,-0.0016510565,-0.00033937214
UncalAccel,1676592830638,29887460741580,-2.7918258,2.9724839,9.236894,0.037048545,-0.031444572,0.0098014325
UncalMag,1676592830639,29887461984562,-202.5688,763.9884,396.84158,-174.57417,771.0116,430.86337
OrientationDeg,1676592830638,29887460741580,90.0,-8.0,-5.0
UncalGyro,1676592830647,29887469214277,-0.98868537,-0.098043874,-0.420428,0.0015397291,-0.0016510565,-0.00033937214
UncalAccel,1676592830647,29887469214277,-2.5645077,2.8438697,9.635299,0.037048545,-0.031444572,0.0098014325
OrientationDeg,1676592830647,29887469214277,90.0,-8.0,-5.0
UncalMag,1676592830649,29887471993879,-203.60579,764.086,397.9884,-174.57417,771.0116,430.86337
UncalGyro,1676592830655,29887477699474,-0.63194007,1.2916746,-0.11881329,0.0015397291,-0.0016510565,-0.00033937214
UncalAccel,1676592830655,29887477699474,-2.4089742,1.9884356,23.338396,0.037048545,-0.031444572,0.0098014325
OrientationDeg,1676592830656,29887477699474,90.0,-8.0,-5.0
UncalMag,1676592830659,29887481983177,-203.1788,764.3178,396.4512,-174.57417,771.0116,430.86337
UncalGyro,1676592830664,29887486179547,0.10995574,2.617863,0.12034045,0.0015397291,-0.0016510565,-0.00033937214
UncalAccel,1676592830664,29887486179547,-0.6580262,4.8849473,13.569697,0.037048545,-0.031444572,0.0098014325
OrientationDeg,1676592830664,29887486179547,90.0,-6.0,-5.0
UncalMag,1676592830669,29887491993634,-201.70259,764.4154,395.8412,-174.57417,771.0116,430.86337
UncalGyro,1676592830672,29887494660655,0.50533825,2.7441595,0.14446963,0.0015397291,-0.0016510565,-0.00033937214
UncalAccel,1676592830672,29887494660655,-1.9100707,4.4111686,8.662616,0.037048545,-0.031444572,0.0098014325
OrientationDeg,1676592830672,29887494660655,90.0,-5.0,-5.0
UncalMag,1676592830679,29887501993959,-201.2878,764.4032,395.46298,-174.57417,771.0116,430.86337
UncalGyro,1676592830681,29887503127574,0.535118,2.5190556,0.18570304,0.0015397291,-0.0016510565,-0.00033937214
UncalAccel,1676592830681,29887503127574,-1.4536397,3.6771703,8.287541,0.037048545,-0.031444572,0.0098014325
OrientationDeg,1676592830681,29887503127574,90.0,-4.0,-5.0
UncalGyro,1676592830689,29887511624684,0.36300668,2.5499043,0.2284636,0.0015397291,-0.0016510565,-0.00033937214
UncalAccel,1676592830689,29887511624684,-1.2000005,3.5174494,10.304092,0.037048545,-0.031444572,0.0098014325
UncalMag,1676592830689,29887511991516,-200.446,764.5008,395.219,-174.57417,771.0116,430.86337
OrientationDeg,1676592830689,29887511624684,90.0,-3.0,-5.0
UncalGyro,1676592830698,29887520103525,0.04062254,2.898861,0.22311853,0.0015397291,-0.0016510565,-0.00033937214
UncalAccel,1676592830698,29887520103525,-1.0815558,3.970291,12.039487,0.037048545,-0.031444572,0.0098014325
OrientationDeg,1676592830698,29887520103525,90.0,-1.0,-5.0
UncalMag,1676592830699,29887521983581,-199.07959,764.574,393.755,-174.57417,771.0116,430.86337
UncalGyro,1676592830707,29887528572060,-0.38713586,3.3893857,0.16600263,0.0015397291,-0.0016510565,-0.00033937214
UncalAccel,1676592830706,29887528572060,-1.1856437,4.4614177,12.828521,0.037048545,-0.031444572,0.0098014325
OrientationDeg,1676592830706,29887528572060,89.0,0.0,-5.0
UncalMag,1676592830709,29887531993631,-198.6648,764.4032,393.5842,-174.57417,771.0116,430.86337
UncalGyro,1676592830715,29887537055244,-0.85047716,3.7433822,0.069485925,0.0015397291,-0.0016510565,-0.00033937214
UncalAccel,1676592830715,29887537055244,-1.5571294,4.4931226,12.549757,0.037048545,-0.031444572,0.0098014325
OrientationDeg,1676592830715,29887537055244,89.0,1.0,-5.0
UncalMag,1676592830719,29887541983091,-197.06659,764.8302,392.3154,-174.57417,771.0116,430.86337
UncalGyro,1676592830723,29887545546831,-0.6409504,2.8153253,0.6418667,0.0015397291,-0.0016510565,-0.00033937214
UncalAccel,1676592830723,29887545546831,-5.750551,1.1844472,7.719246,0.037048545,-0.031444572,0.0098014325
OrientationDeg,1676592830723,29887545546831,89.0,3.0,-4.0
UncalMag,1676592830729,29887551990700,-195.383,765.0986,391.3638,-174.57417,771.0116,430.86337
UncalGyro,1676592830732,29887554026627,-0.16401732,1.3868169,1.2705997,0.0015397291,-0.0016510565,-0.00033937214
UncalAccel,1676592830732,29887554026627,-4.4081774,2.8462625,9.924232,0.037048545,-0.031444572,0.0098014325
OrientationDeg,1676592830732,29887554026627,88.0,3.0,-4.0
UncalMag,1676592830739,29887561983293,-195.02919,765.6842,390.4122,-174.57417,771.0116,430.86337
UncalGyro,1676592830740,29887562500382,-0.43753225,0.7473936,0.93645644,0.0015397291,-0.0016510565,-0.00033937214
UncalAccel,1676592830740,29887562500382,-1.9806589,5.0626144,11.2552395,0.037048545,-0.031444572,0.0098014325
OrientationDeg,1676592830740,29887562500382,88.0,3.0,-4.0
UncalGyro,1676592830748,29887570977422,-0.85994554,0.3549127,0.32925636,0.0015397291,-0.0016510565,-0.00033937214
UncalAccel,1676592830748,29887570977422,-2.4622145,4.6564326,11.979667,0.037048545,-0.031444572,0.0098014325
UncalMag,1676592830749,29887571983292,-195.017,765.8794,390.9368,-174.57417,771.0116,430.86337
OrientationDeg,1676592830748,29887570977422,88.0,4.0,-4.0
UncalGyro,1676592830757,29887579465540,-1.2153164,0.0804815,-0.19058995,0.0015397291,-0.0016510565,-0.00033937214
UncalAccel,1676592830757,29887579465540,-1.6217356,3.9224346,12.690335,0.037048545,-0.031444572,0.0098014325
OrientationDeg,1676592830757,29887579465540,88.0,4.0,-3.0
UncalMag,1676592830759,29887581993993,-194.4558,766.3918,390.43658,-174.57417,771.0116,430.86337
UncalGyro,1676592830765,29887587952366,-1.4320209,-0.055283304,-0.54733527,0.0015397291,-0.0016510565,-0.00033937214
UncalAccel,1676592830766,29887587952366,-0.930808,2.9587252,13.048062,0.037048545,-0.031444572,0.0098014325
OrientationDeg,1676592830765,29887587952366,88.0,4.0,-2.0
UncalMag,1676592830769,29887591993911,-194.4558,766.404,390.6806,-174.57417,771.0116,430.86337
UncalGyro,1676592830774,29887596414727,-1.4472924,-0.13347405,-0.7199047,0.0015397291,-0.0016510565,-0.00033937214
UncalAccel,1676592830774,29887596414727,-0.5054838,1.8065811,13.266407,0.037048545,-0.031444572,0.0098014325
OrientationDeg,1676592830774,29887596414727,88.0,4.0,-2.0
UncalMag,1676592830779,29887601983168,-194.8584,766.7334,390.2902,-174.57417,771.0116,430.86337
UncalGyro,1676592830782,29887604913180,-1.4146112,-0.02275473,-0.7480045,0.0015397291,-0.0016510565,-0.00033937214
UncalAccel,1676592830782,29887604913180,-0.06819545,0.75972116,13.713864,0.037048545,-0.031444572,0.0098014325
OrientationDeg,1676592830782,29887604913180,89.0,4.0,-1.0
UncalMag,1676592830789,29887611980482,-194.5046,767.441,390.4488,-174.57417,771.0116,430.86337
UncalGyro,1676592830791,29887613396883,-1.5184582,0.27473664,-0.66156703,0.0015397291,-0.0016510565,-0.00033937214
UncalAccel,1676592830792,29887613396883,-0.2644069,0.7830512,13.106088,0.037048545,-0.031444572,0.0098014325
OrientationDeg,1676592830791,29887613396883,89.0,4.0,0.0
UncalGyro,1676592830799,29887621874951,-1.5816828,0.31016684,-0.7583892,0.0015397291,-0.0016510565,-0.00033937214
UncalAccel,1676592830799,29887621874951,-0.00059820566,1.9704895,11.541182,0.037048545,-0.031444572,0.0098014325
UncalMag,1676592830799,29887621983004,-194.6144,769.088,390.2414,-174.57417,771.0116,430.86337
OrientationDeg,1676592830799,29887621874951,89.0,4.0,0.0
UncalGyro,1676592830808,29887630356436,-1.7203492,0.22999077,-0.93447113,0.0015397291,-0.0016510565,-0.00033937214
UncalAccel,1676592830808,29887630356436,-0.40797627,2.103291,10.93161,0.037048545,-0.031444572,0.0098014325
OrientationDeg,1676592830808,29887630356436,90.0,4.0,0.0
UncalMag,1676592830809,29887631983207,-194.6144,769.088,390.2414,-174.57417,771.0116,430.86337
UncalGyro,1676592830816,29887638836415,-1.8533652,0.3115413,-1.0439687,0.0015397291,-0.0016510565,-0.00033937214
UncalAccel,1676592830816,29887638836415,-0.92183495,1.881955,12.561721,0.037048545,-0.031444572,0.0098014325
OrientationDeg,1676592830816,29887638836415,90.0,4.0,1.0
UncalMag,1676592830819,29887641993989,-194.2728,769.42957,389.8266,-174.57417,771.0116,430.86337
UncalGyro,1676592830825,29887647317586,-1.7672331,0.6693556,-1.1905763,0.0015397291,-0.0016510565,-0.00033937214
UncalAccel,1676592830825,29887647317586,-0.47856453,1.8969102,10.90828,0.037048545,-0.031444572,0.0098014325
OrientationDeg,1676592830825,29887647317586,91.0,4.0,2.0
UncalMag,1676592830829,29887651983002,-193.9312,769.9664,389.8266,-174.57417,771.0116,430.86337
UncalGyro,1676592830833,29887655798511,-1.563815,0.66981375,-1.1954633,0.0015397291,-0.0016510565,-0.00033937214
UncalAccel,1676592830833,29887655798511,1.0540384,0.5838487,8.318648,0.037048545,-0.031444572,0.0098014325
OrientationDeg,1676592830833,29887655798511,91.0,5.0,3.0
UncalMag,1676592830839,29887661993662,-193.65059,771.0888,389.485,-174.57417,771.0116,430.86337
UncalGyro,1676592830842,29887664279162,-1.3469579,0.6070473,-0.9239337,0.0015397291,-0.0016510565,-0.00033937214
UncalAccel,1676592830842,29887664279162,2.8366911,0.12562318,8.170293,0.037048545,-0.031444572,0.0098014325
OrientationDeg,1676592830842,29887664279162,92.0,5.0,4.0
UncalMag,1676592830849,29887671990609,-193.33339,771.1864,389.74118,-174.57417,771.0116,430.86337
UncalGyro,1676592830850,29887672759396,-1.0526736,0.5708536,-0.52381694,0.0015397291,-0.0016510565,-0.00033937214
UncalAccel,1676592830850,29887672759396,3.6861434,0.7537391,8.009974,0.037048545,-0.031444572,0.0098014325
OrientationDeg,1676592830850,29887672759396,92.0,5.0,4.0
UncalGyro,1676592830859,29887681230984,-0.6401868,0.64904433,-0.14630222,0.0015397291,-0.0016510565,-0.00033937214
UncalAccel,1676592830859,29887681230984,3.8817565,1.0713863,7.895118,0.037048545,-0.031444572,0.0098014325
UncalMag,1676592830859,29887681999397,-193.12599,771.101,389.5948,-174.57417,771.0116,430.86337
OrientationDeg,1676592830859,29887681230984,92.0,6.0,5.0
UncalGyro,1676592830867,29887689723344,-0.12110403,0.73807794,0.1142318,0.0015397291,-0.0016510565,-0.00033937214
UncalAccel,1676592830867,29887689723344,3.8709888,1.0336994,7.3896346,0.037048545,-0.031444572,0.0098014325
OrientationDeg,1676592830867,29887689723344,92.0,6.0,5.0
UncalMag,1676592830869,29887691993822,-192.4672,771.711,389.119,-174.57417,771.0116,430.86337
UncalGyro,1676592830876,29887698200099,0.4474588,0.7881689,0.27015516,0.0015397291,-0.0016510565,-0.00033937214
UncalAccel,1676592830876,29887698200099,3.6520455,1.076172,7.268797,0.037048545,-0.031444572,0.0098014325
OrientationDeg,1676592830876,29887698200099,92.0,6.0,4.0
UncalMag,1676592830879,29887701994025,-192.2842,771.1864,389.10678,-174.57417,771.0116,430.86337
UncalGyro,1676592830884,29887706673651,0.90484416,0.59773165,0.28771752,0.0015397291,-0.0016510565,-0.00033937214
UncalAccel,1676592830884,29887706673651,2.8235307,1.6977077,7.589435,0.037048545,-0.031444572,0.0098014325
OrientationDeg,1676592830884,29887706673651,91.0,7.0,4.0
UncalMag,1676592830889,29887711983119,-192.4184,770.7228,388.15518,-174.57417,771.0116,430.86337
UncalGyro,1676592830893,29887715158879,1.0143417,0.08170322,0.18448131,0.0015397291,-0.0016510565,-0.00033937214
UncalAccel,1676592830893,29887715158879,1.5397813,2.5543382,9.190233,0.037048545,-0.031444572,0.0098014325
OrientationDeg,1676592830893,29887715158879,91.0,7.0,3.0
UncalMag,1676592830899,29887721983485,-192.65019,770.4178,389.546,-174.57417,771.0116,430.86337
UncalGyro,1676592830901,29887723643375,0.7313584,-0.4185954,0.0071776668,0.0015397291,-0.0016510565,-0.00033937214
UncalAccel,1676592830901,29887723643375,0.058624156,3.4534414,10.268799,0.037048545,-0.031444572,0.0098014325
OrientationDeg,1676592830901,29887723643375,91.0,6.0,3.0
UncalMag,1676592830909,29887731984705,-192.7356,770.7472,389.1434,-174.57417,771.0116,430.86337
UncalGyro,1676592830910,29887732129865,0.2875648,-0.6427829,-0.23732115,0.0015397291,-0.0016510565,-0.00033937214
UncalAccel,1676592830910,29887732129865,-0.35294133,4.351348,10.319048,0.037048545,-0.031444572,0.0098014325
OrientationDeg,1676592830910,29887732129865,92.0,6.0,3.0
UncalGyro,1676592830918,29887740609266,-0.08353582,-0.54183745,-0.54473907,0.0015397291,-0.0016510565,-0.00033937214
UncalAccel,1676592830918,29887740609266,0.28713873,4.833502,10.72164,0.037048545,-0.031444572,0.0098014325
UncalMag,1676592830919,29887741983158,-193.0772,770.1006,388.143,-174.57417,771.0116,430.86337
OrientationDeg,1676592830918,29887740609266,92.0,6.0,3.0
UncalGyro,1676592830927,29887749083213,-0.33322698,-0.26282477,-0.80680025,0.0015397291,-0.0016510565,-0.00033937214
UncalAccel,1676592830927,29887749083213,1.2765709,3.7848473,11.492129,0.037048545,-0.031444572,0.0098014325
OrientationDeg,1676592830927,29887749083213,92.0,6.0,3.0
UncalMag,1676592830929,29887751993980,-193.60179,770.1006,388.6432,-174.57417,771.0116,430.86337
UncalGyro,1676592830935,29887757559856,-0.5479461,0.0720821,-0.9094256,0.0015397291,-0.0016510565,-0.00033937214
UncalAccel,1676592830935,29887757559856,2.3030918,2.3395824,11.453245,0.037048545,-0.031444572,0.0098014325
OrientationDeg,1676592830935,29887757559856,93.0,6.0,3.0
UncalMag,1676592830940,29887762007001,-193.49199,770.2226,389.5216,-174.57417,771.0116,430.86337
UncalGyro,1676592830944,29887766052745,-0.77946407,0.35995236,-0.87766063,0.0015397291,-0.0016510565,-0.00033937214
UncalAccel,1676592830944,29887766052745,2.949752,1.50688,10.693524,0.037048545,-0.031444572,0.0098014325
OrientationDeg,1676592830944,29887766052745,93.0,6.0,4.0
UncalMag,1676592830949,29887771993857,-193.187,770.0396,388.9848,-174.57417,771.0116,430.86337
UncalGyro,1676592830952,29887774531850,-0.9334021,0.5917757,-0.7654142,0.0015397291,-0.0016510565,-0.00033937214
UncalAccel,1676592830952,29887774531850,3.077768,0.9529416,9.900304,0.037048545,-0.031444572,0.0098014325
OrientationDeg,1676592830952,29887774531850,93.0,6.0,4.0
UncalMag,1676592830959,29887781993734,-192.72339,770.8204,388.5456,-174.57417,771.0116,430.86337
UncalGyro,1676592830961,29887783012827,-0.9744828,0.77442443,-0.60994893,0.0015300338,-0.0016528829,-0.00033888326
UncalAccel,1676592830961,29887783012827,2.909074,0.50787663,9.123235,0.037048545,-0.031444572,0.0098014325
OrientationDeg,1676592830961,29887783012827,94.0,6.0,5.0
UncalGyro,1676592830969,29887791480570,-0.94134337,0.8790351,-0.4445572,0.0015285668,-0.0016531593,-0.00033880927
UncalAccel,1676592830969,29887791480570,2.5136602,0.20458634,8.496913,0.037048545,-0.031444572,0.0098014325
UncalMag,1676592830969,29887791982950,-192.394,771.0766,388.1186,-174.57417,771.0116,430.86337
OrientationDeg,1676592830969,29887791480570,94.0,7.0,5.0
UncalGyro,1676592830977,29887799973336,-0.8538369,0.91415983,-0.29016098,0.0015283448,-0.0016532011,-0.00033879804
UncalAccel,1676592830977,29887799973336,2.033301,0.17826529,8.1840515,0.037048545,-0.031444572,0.0098014325
UncalMag,1676592830979,29887801990721,-191.4424,771.3816,388.8872,-174.57417,771.0116,430.86337
OrientationDeg,1676592830977,29887799973336,94.0,7.0,6.0
UncalGyro,1676592830986,29887808456855,-0.7263188,0.91583973,-0.16890424,0.0015283113,-0.0016532075,-0.00033879635
UncalAccel,1676592830986,29887808456855,1.4787644,0.26620153,8.079964,0.037048545,-0.031444572,0.0098014325
OrientationDeg,1676592830986,29887808456855,94.0,8.0,6.0
UncalMag,1676592830989,29887811987995,-191.3936,772.1502,388.5944,-174.57417,771.0116,430.86337
UncalGyro,1676592830994,29887816926541,-0.5665775,0.88239485,-0.08979719,0.0015283062,-0.0016532084,-0.00033879612
UncalAccel,1676592830994,29887816926541,0.8859426,0.43010986,7.908279,0.037048545,-0.031444572,0.0098014325
OrientationDeg,1676592830994,29887816926541,94.0,8.0,6.0
UncalMag,1676592830999,29887821983355,-190.66159,772.06476,388.0698,-174.57417,771.0116,430.86337
UncalGyro,1676592831003,29887825406480,-0.40194935,0.8135198,-0.06078109,0.0015283054,-0.0016532084,-0.00033879606
UncalAccel,1676592831003,29887825406480,0.3260221,0.70947194,7.7742805,0.037048545,-0.031444572,0.0098014325
OrientationDeg,1676592831003,29887825406480,94.0,9.0,7.0
UncalMag,1676592831009,29887831986162,-190.3322,772.2478,388.3504,-174.57417,771.0116,430.86337
UncalGyro,1676592831011,29887833889969,-0.27488935,0.7125743,-0.08032878,0.0015283052,-0.0016532084,-0.00033879606
UncalAccel,1676592831011,29887833889969,-0.20039889,0.9314062,7.6600237,0.037048545,-0.031444572,0.0098014325
OrientationDeg,1676592831011,29887833889969,94.0,9.0,7.0
UncalMag,1676592831019,29887841993892,-190.1492,772.0038,388.6432,-174.57417,771.0116,430.86337
UncalGyro,1676592831020,29887842376470,-0.20616703,0.5696318,-0.13836098,0.0015283052,-0.0016532084,-0.00033879606
UncalAccel,1676592831020,29887842376470,-0.6646065,1.0725827,7.5702925,0.037048545,-0.031444572,0.0098014325
OrientationDeg,1676592831020,29887842376470,94.0,9.0,7.0
UncalGyro,1676592831028,29887850860173,-0.20021108,0.38927388,-0.22449298,0.0015283052,-0.0016532084,-0.00033879606
UncalAccel,1676592831028,29887850860173,-1.1443675,1.1509477,7.69113,0.037048545,-0.031444572,0.0098014325
UncalMag,1676592831029,29887851983312,-190.4054,772.7724,388.10638,-174.57417,771.0116,430.86337
OrientationDeg,1676592831028,29887850860173,94.0,9.0,7.0
OrientationDeg,1676592831037,29887859343082,94.0,9.0,7.0
UncalGyro,1676592831038,29887859343082,-0.23396139,0.20998493,-0.33017266,0.0015283052,-0.0016532084,-0.00033879606
UncalAccel,1676592831037,29887859343082,-1.5571294,1.0707881,8.003992,0.037048545,-0.031444572,0.0098014325
UncalMag,1676592831039,29887861993932,-189.60019,772.321,387.25238,-174.57417,771.0116,430.86337
UncalGyro,1676592831045,29887867821384,-0.2753475,0.048258353,-0.42836925,0.0015283052,-0.0016532084,-0.00033879606
UncalAccel,1676592831045,29887867821384,-1.8245273,0.72442704,8.170891,0.037048545,-0.031444572,0.0098014325
OrientationDeg,1676592831045,29887867821384,94.0,9.0,7.0
UncalMag,1676592831049,29887871990635,-190.0394,771.894,387.899,-174.57417,771.0116,430.86337
UncalGyro,1676592831054,29887876287286,-0.28955013,-0.09514226,-0.49480084,0.0015283052,-0.0016532084,-0.00033879606
UncalAccel,1676592831054,29887876287286,-1.9136599,0.2015953,8.311469,0.037048545,-0.031444572,0.0098014325
OrientationDeg,1676592831054,29887876287286,95.0,9.0,7.0
UncalMag,1676592831059,29887881993604,-190.2224,772.39417,387.04498,-174.57417,771.0116,430.86337
UncalGyro,1676592831062,29887884783744,-0.24617869,-0.204029,-0.52274793,0.0015283052,-0.0016532084,-0.00033879606
UncalAccel,1676592831062,29887884783744,-1.8275183,-0.27756742,8.596215,0.037048545,-0.031444572,0.0098014325
OrientationDeg,1676592831062,29887884783744,95.0,9.0,8.0
UncalMag,1676592831070,29887891993889,-189.8076,772.3576,388.6066,-174.57417,771.0116,430.86337
UncalGyro,1676592831071,29887893254844,-0.15271631,-0.24953845,-0.5109888,0.0015283052,-0.0016532084,-0.00033879606
UncalAccel,1676592831071,29887893254844,-1.6217356,-0.7800602,8.995817,0.037048545,-0.031444572,0.0098014325
OrientationDeg,1676592831071,29887893254844,95.0,9.0,8.0
UncalGyro,1676592831079,29887901734386,-0.043066,-0.24587326,-0.4540256,0.0015283052,-0.0016532084,-0.00033879606
UncalAccel,1676592831079,29887901734386,-1.4392828,-1.3160524,9.276974,0.037048545,-0.031444572,0.0098014325
UncalMag,1676592831079,29887901988883,-189.8076,772.2356,387.6062,-174.57417,771.0116,430.86337
OrientationDeg,1676592831079,29887901734386,95.0,9.0,8.0
UncalGyro,1676592831088,29887910223959,0.06078109,-0.23044892,-0.36468655,0.0015283052,-0.0016532084,-0.00033879606
UncalAccel,1676592831088,29887910223959,-1.352543,-1.6606189,9.417552,0.037048545,-0.031444572,0.0098014325
UncalMag,1676592831089,29887911981070,-190.63719,772.50397,388.0576,-174.57417,771.0116,430.86337
OrientationDeg,1676592831088,29887910223959,95.0,9.0,8.0
UncalGyro,1676592831096,29887918706817,0.1525636,-0.22739458,-0.2751948,0.0015283052,-0.0016532084,-0.00033879606
UncalAccel,1676592831096,29887918706817,-1.4392828,-1.6755741,9.527023,0.037048545,-0.031444572,0.0098014325
OrientationDeg,1676592831096,29887918706817,96.0,9.0,8.0
UncalMag,1676592831099,29887921993724,-189.8198,772.27216,388.58218,-174.57417,771.0116,430.86337
UncalGyro,1676592831105,29887927190255,0.2321288,-0.2218968,-0.20448714,0.0015283052,-0.0016532084,-0.00033879606
UncalAccel,1676592831105,29887927190255,-1.6372889,-1.5667006,9.692128,0.037048545,-0.031444572,0.0098014325
OrientationDeg,1676592831105,29887927190255,96.0,8.0,8.0
UncalMag,1676592831109,29887931981841,-190.2468,772.0892,388.42358,-174.57417,771.0116,430.86337
OrientationDeg,1676592831113,29887935659209,96.0,8.0,7.0
UncalGyro,1676592831113,29887935659209,0.30497447,-0.20922135,-0.15699236,0.0015283052,-0.0016532084,-0.00033879606
UncalAccel,1676592831113,29887935659209,-1.814956,-1.5200406,9.742975,0.037048545,-0.031444572,0.0098014325
UncalMag,1676592831119,29887941987863,-190.4664,771.894,388.26498,-174.57417,771.0116,430.86337
UncalGyro,1676592831122,29887944149880,0.3585779,-0.20387627,-0.121256754,0.0015283052,-0.0016532084,-0.00033879606
UncalAccel,1676592831122,29887944149880,-1.838286,-1.5200406,9.666406,0.037048545,-0.031444572,0.0098014325
OrientationDeg,1676592831122,29887944149880,96.0,8.0,7.0
UncalMag,1676592831130,29887951993559,-190.7836,771.7232,388.47238,-174.57417,771.0116,430.86337
UncalGyro,1676592831130,29887952630184,0.39568797,-0.22418754,-0.09101892,0.0015283052,-0.0016532084,-0.00033879606
UncalAccel,1676592831130,29887952630184,-1.727618,-1.5433706,9.624531,0.037048545,-0.031444572,0.0098014325
OrientationDeg,1676592831130,29887952630184,96.0,8.0,7.0
UncalGyro,1676592831139,29887961111945,0.41523564,-0.21884248,-0.064599,0.0015283052,-0.0016532084,-0.00033879606
UncalAccel,1676592831139,29887961111945,-1.6157535,-1.4811572,9.963714,0.037048545,-0.031444572,0.0098014325
UncalMag,1676592831139,29887961983711,-191.0154,771.43036,387.6916,-174.57417,771.0116,430.86337
OrientationDeg,1676592831139,29887961111945,96.0,8.0,7.0
UncalGyro,1676592831147,29887969584642,0.4063781,-0.17989981,-0.04550946,0.0015283052,-0.0016532084,-0.00033879606
UncalAccel,1676592831147,29887969584642,-1.4997016,-1.4039887,10.3746805,0.037048545,-0.031444572,0.0098014325
UncalMag,1676592831149,29887971993842,-191.1496,771.01556,388.4358,-174.57417,771.0116,430.86337
OrientationDeg,1676592831147,29887969584642,96.0,8.0,7.0
UncalGyro,1676592831156,29887978073857,0.35521814,-0.12156218,-0.0290161,0.0015283052,-0.0016532084,-0.00033879606
UncalAccel,1676592831156,29887978073857,-1.5014962,-1.457229,10.656436,0.037048545,-0.031444572,0.0098014325
OrientationDeg,1676592831156,29887978073857,96.0,8.0,7.0
UncalMag,1676592831159,29887981993882,-190.7348,770.8326,387.655,-174.57417,771.0116,430.86337
UncalGyro,1676592831164,29887986544031,0.26984972,-0.059406646,-0.010842858,0.0015283052,-0.0016532084,-0.00033879606
UncalAccel,1676592831164,29887986544031,-1.6372889,-1.5116657,10.880164,0.037048545,-0.031444572,0.0098014325
OrientationDeg,1676592831164,29887986544031,96.0,8.0,6.0
UncalMag,1676592831169,29887991982976,-190.84459,770.8326,387.899,-174.57417,771.0116,430.86337
UncalGyro,1676592831173,29887995031661,0.1779145,0.01863139,0.005955936,0.0015283052,-0.0016532084,-0.00033879606
UncalAccel,1676592831173,29887995031661,-1.7186449,-1.5840486,10.980065,0.037048545,-0.031444572,0.0098014325
OrientationDeg,1676592831173,29887995031661,96.0,8.0,6.0
UncalMag,1676592831179,29888001994287,-190.7592,770.5154,388.78958,-174.57417,771.0116,430.86337
UncalGyro,1676592831181,29888003516228,0.10873401,0.10934488,0.028405234,0.0015283052,-0.0016532084,-0.00033879606
UncalAccel,1676592831181,29888003516228,-1.6313069,-1.7078772,10.914861,0.037048545,-0.031444572,0.0098014325
OrientationDeg,1676592831181,29888003516228,96.0,8.0,6.0
UncalMag,1676592831189,29888011978946,-191.052,770.735,387.7648,-174.57417,771.0116,430.86337
UncalGyro,1676592831190,29888012000898,0.061239243,0.20387627,0.06994407,0.0015283052,-0.0016532084,-0.00033879606
UncalAccel,1676592831190,29888012000898,-1.4476577,-1.8981066,10.77847,0.037048545,-0.031444572,0.0098014325
OrientationDeg,1676592831190,29888012000898,96.0,8.0,6.0
UncalGyro,1676592831198,29888020500265,0.024740042,0.29077184,0.13332134,0.0015283052,-0.0016532084,-0.00033879606
UncalAccel,1676592831198,29888020500265,-1.3166506,-2.035694,10.627124,0.037048545,-0.031444572,0.0098014325
UncalMag,1676592831199,29888021979963,-190.9666,770.5642,387.83798,-174.57417,771.0116,430.86337
OrientationDeg,1676592831198,29888020500265,96.0,8.0,6.0
UncalGyro,1676592831206,29888028957336,-0.010079277,0.34468073,0.21166481,0.0015283052,-0.0016532084,-0.00033879606
UncalAccel,1676592831206,29888028957336,-1.262214,-2.0638096,10.360324,0.037048545,-0.031444572,0.0098014325
UncalMag,1676592831209,29888031983543,-190.9666,770.5642,387.83798,-174.57417,771.0116,430.86337
OrientationDeg,1676592831206,29888028957336,96.0,8.0,6.0
UncalGyro,1676592831215,29888037433950,-0.048563786,0.38163805,0.2857322,0.0015283052,-0.0016532084,-0.00033879606
UncalAccel,1676592831215,29888037433950,-1.3142579,-1.9345971,10.259227,0.037048545,-0.031444572,0.0098014325
OrientationDeg,1676592831215,29888037433950,96.0,9.0,6.0
UncalMag,1676592831219,29888041983054,-190.625,771.00336,387.6916,-174.57417,771.0116,430.86337
UncalGyro,1676592831223,29888045914683,-0.08903361,0.40301836,0.3391829,0.0015283052,-0.0016532084,-0.00033879606
UncalAccel,1676592831223,29888045914683,-1.3770695,-1.6857436,10.17129,0.037048545,-0.031444572,0.0098014325
OrientationDeg,1676592831223,29888045914683,96.0,9.0,6.0
UncalMag,1676592831229,29888051993632,-190.6128,771.11316,388.326,-174.57417,771.0116,430.86337
UncalGyro,1676592831232,29888054404041,-0.13209961,0.4007276,0.36575556,0.0015283052,-0.0016532084,-0.00033879606
UncalAccel,1676592831232,29888054404041,-1.4099708,-1.4458631,9.926624,0.037048545,-0.031444572,0.0098014325
OrientationDeg,1676592831232,29888054404041,95.0,9.0,6.0
UncalMag,1676592831239,29888061990905,-189.8808,771.22296,388.448,-174.57417,771.0116,430.86337
UncalGyro,1676592831240,29888062884398,-0.16783522,0.36819902,0.36010507,0.0015283052,-0.0016532084,-0.00033879606
UncalAccel,1676592831240,29888062884398,-1.4195421,-1.18684,9.696316,0.037048545,-0.031444572,0.0098014325
OrientationDeg,1676592831240,29888062884398,95.0,9.0,6.0
UncalGyro,1676592831249,29888071363340,-0.19242255,0.29260445,0.3304781,0.0015283052,-0.0016532084,-0.00033879606
UncalAccel,1676592831249,29888071363340,-1.3704891,-0.94636136,9.351749,0.037048545,-0.031444572,0.0098014325
UncalMag,1676592831250,29888072005350,-190.1736,771.4548,387.9112,-174.57417,771.0116,430.86337
OrientationDeg,1676592831249,29888071363340,95.0,9.0,6.0
UncalGyro,1676592831257,29888079834705,-0.20357084,0.19318613,0.28053987,0.0015283052,-0.0016532084,-0.00033879606
UncalAccel,1676592831257,29888079834705,-1.3417753,-0.7399804,9.2075815,0.037048545,-0.031444572,0.0098014325
UncalMag,1676592831259,29888081993834,-189.5392,771.589,388.7774,-174.57417,771.0116,430.86337
OrientationDeg,1676592831257,29888079834705,95.0,9.0,7.0
OrientationDeg,1676592831266,29888088325731,95.0,10.0,7.0
UncalGyro,1676592831266,29888088325731,-0.19120082,0.100334615,0.22159137,0.0015283052,-0.0016532084,-0.00033879606
UncalAccel,1676592831266,29888088325731,-1.3519448,-0.58683974,9.192626,0.037048545,-0.031444572,0.0098014325
UncalMag,1676592831269,29888091993914,-190.1736,771.54016,387.6916,-174.57417,771.0116,430.86337
UncalGyro,1676592831274,29888096795732,-0.16264287,0.028252518,0.16523905,0.0015283052,-0.0016532084,-0.00033879606
UncalAccel,1676592831275,29888096795732,-1.3914263,-0.4534399,9.3104725,0.037048545,-0.031444572,0.0098014325
OrientationDeg,1676592831274,29888096795732,95.0,10.0,7.0
UncalMag,1676592831279,29888101983253,-189.466,771.11316,387.4476,-174.57417,771.0116,430.86337
UncalGyro,1676592831283,29888105287054,-0.13332134,-0.00015271631,0.112399206,0.0015283052,-0.0016532084,-0.00033879606
UncalAccel,1676592831283,29888105287054,-1.466202,-0.27696922,9.557532,0.037048545,-0.031444572,0.0098014325
OrientationDeg,1676592831283,29888105287054,95.0,10.0,7.0
UncalMag,1676592831289,29888111983048,-189.649,771.4792,388.26498,-174.57417,771.0116,430.86337
UncalGyro,1676592831291,29888113757960,-0.12797627,0.011911872,0.061391957,0.0015283052,-0.0016532084,-0.00033879606
UncalAccel,1676592831291,29888113757960,-1.5595222,-0.11006984,9.803992,0.037048545,-0.031444572,0.0098014325
OrientationDeg,1676592831291,29888113757960,95.0,10.0,7.0
UncalMag,1676592831299,29888121990738,-189.5636,771.284,387.4964,-174.57417,771.0116,430.86337
UncalGyro,1676592831300,29888122247532,-0.15592335,0.02977968,0.014660766,0.0015283052,-0.0016532084,-0.00033879606
UncalAccel,1676592831300,29888122247532,-1.6235301,0.008973085,9.903295,0.037048545,-0.031444572,0.0098014325
OrientationDeg,1676592831300,29888122247532,95.0,10.0,7.0
UncalGyro,1676592831308,29888130729689,-0.21105394,0.038789943,-0.030390546,0.0015283052,-0.0016532084,-0.00033879606
UncalAccel,1676592831308,29888130729689,-1.7108682,0.15194423,9.983455,0.037048545,-0.031444572,0.0098014325
UncalMag,1676592831309,29888131983291,-189.6368,771.7354,388.082,-174.57417,771.0116,430.86337
OrientationDeg,1676592831308,29888130729689,95.0,10.0,7.0
OrientationDeg,1676592831317,29888139210859,95.0,10.0,7.0
UncalGyro,1676592831317,29888139210859,-0.27931812,0.05299256,-0.07360926,0.0015283052,-0.0016532084,-0.00033879606
UncalAccel,1676592831317,29888139210859,-1.8077775,0.25663024,10.1348,0.037048545,-0.031444572,0.0098014325
UncalMag,1676592831319,29888141993544,-189.6368,771.7354,388.082,-174.57417,771.0116,430.86337
UncalGyro,1676592831325,29888147691948,-0.35445455,0.060628377,-0.11789699,0.0015283052,-0.0016532084,-0.00033879606
UncalAccel,1676592831325,29888147691948,-1.8807586,0.31345975,10.234102,0.037048545,-0.031444572,0.0098014325
OrientationDeg,1676592831325,29888147691948,95.0,10.0,7.0
UncalMag,1676592831329,29888151983086,-189.70999,772.17456,388.31378,-174.57417,771.0116,430.86337
UncalGyro,1676592831334,29888156174817,-0.42470407,0.06627888,-0.15821409,0.0015283052,-0.0016532084,-0.00033879606
UncalAccel,1676592831334,29888156174817,-1.9441684,0.360718,10.367502,0.037048545,-0.031444572,0.0098014325
OrientationDeg,1676592831334,29888156174817,95.0,10.0,7.0
UncalMag,1676592831339,29888161984143,-189.9296,771.9794,387.6672,-174.57417,771.0116,430.86337
UncalGyro,1676592831342,29888164651348,-0.47510046,0.069485925,-0.18860464,0.0015283052,-0.0016532084,-0.00033879606
UncalAccel,1676592831342,29888164651348,-2.0063818,0.3696911,10.366904,0.037048545,-0.031444572,0.0098014325
OrientationDeg,1676592831342,29888164651348,95.0,10.0,8.0
UncalMag,1676592831348,29888171993664,-189.57579,772.71136,388.5578,-174.57417,771.0116,430.86337
UncalGyro,1676592831351,29888173134420,-0.495259,0.056046885,-0.21548271,0.0015283052,-0.0016532084,-0.00033879606
UncalAccel,1676592831351,29888173134420,-2.03031,0.46061835,10.28495,0.037048545,-0.031444572,0.0098014325
OrientationDeg,1676592831351,29888173134420,95.0,10.0,8.0
UncalGyro,1676592831359,29888181618113,-0.48609602,0.03863723,-0.24846944,0.0015283052,-0.0016532084,-0.00033879606
UncalAccel,1676592831359,29888181618113,-2.0410776,0.6329016,10.355538,0.037048545,-0.031444572,0.0098014325
UncalMag,1676592831359,29888181986665,-190.0638,773.3824,388.0088,-174.57417,771.0116,430.86337
OrientationDeg,1676592831359,29888181618113,95.0,10.0,8.0
OrientationDeg,1676592831368,29888190085113,95.0,10.0,8.0
UncalGyro,1676592831368,29888190085113,-0.46288314,0.03726278,-0.28680122,0.0015283052,-0.0016532084,-0.00033879606
UncalAccel,1676592831368,29888190085113,-2.0380867,0.762114,10.4362955,0.037048545,-0.031444572,0.0098014325
UncalMag,1676592831369,29888191983124,-189.7466,773.2726,387.0084,-174.57417,771.0116,430.86337
UncalGyro,1676592831376,29888198574380,-0.43997568,0.033444874,-0.33444872,0.0015283052,-0.0016532084,-0.00033879606
UncalAccel,1676592831376,29888198574380,-1.9914266,0.9206385,10.517054,0.037048545,-0.031444572,0.0098014325
OrientationDeg,1676592831376,29888198574380,95.0,10.0,9.0
UncalMag,1676592831379,29888201993784,-189.9784,772.9432,387.77698,-174.57417,771.0116,430.86337
UncalGyro,1676592831385,29888207058652,-0.42424592,0.015271631,-0.3924809,0.0015283052,-0.0016532084,-0.00033879606
UncalAccel,1676592831385,29888207058652,-1.9734805,1.0833504,10.563714,0.037048545,-0.031444572,0.0098014325
OrientationDeg,1676592831385,29888207058652,95.0,10.0,9.0
UncalMag,1676592831389,29888211983041,-189.6734,772.7724,387.72818,-174.57417,771.0116,430.86337
UncalGyro,1676592831393,29888215541806,-0.4173737,-0.026419923,-0.45448375,0.0015283052,-0.0016532084,-0.00033879606
UncalAccel,1676592831393,29888215541806,-1.9357935,1.1413764,10.573285,0.037048545,-0.031444572,0.0098014325
OrientationDeg,1676592831393,29888215541806,95.0,10.0,9.0
UncalMag,1676592831399,29888221993620,-189.832,773.6386,387.8258,-174.57417,771.0116,430.86337
OrientationDeg,1676592831402,29888224009610,96.0,10.0,9.0
UncalGyro,1676592831402,29888224009610,-0.40546182,-0.07895433,-0.5154176,0.0015283052,-0.0016532084,-0.00033879606
UncalAccel,1676592831402,29888224009610,-1.8221345,1.1467602,10.707881,0.037048545,-0.031444572,0.0098014325
UncalMag,1676592831409,29888231983691,-189.6246,773.6386,387.4476,-174.57417,771.0116,430.86337
UncalGyro,1676592831410,29888232498429,-0.37614027,-0.10919216,-0.5661194,0.0015283052,-0.0016532084,-0.00033879606
UncalAccel,1676592831410,29888232498429,-1.6175481,1.0899308,10.952547,0.037048545,-0.031444572,0.0098014325
OrientationDeg,1676592831410,29888232498429,96.0,9.0,10.0
UncalGyro,1676592831418,29888240981757,-0.3287982,-0.10949759,-0.59849524,0.0015283052,-0.0016532084,-0.00033879606
UncalAccel,1676592831418,29888240981757,-1.3794622,0.94277215,11.188839,0.037048545,-0.031444572,0.0098014325
UncalMag,1676592831419,29888241983242,-189.3074,773.724,387.45978,-174.57417,771.0116,430.86337
OrientationDeg,1676592831419,29888240981757,96.0,9.0,10.0
UncalGyro,1676592831427,29888249465011,-0.26083946,-0.07467828,-0.6038403,0.0015283052,-0.0016532084,-0.00033879606
UncalAccel,1676592831427,29888249465011,-1.1557333,0.7710871,11.415559,0.037048545,-0.031444572,0.0098014325
UncalMag,1676592831429,29888251990606,-189.5148,773.65076,387.93558,-174.57417,771.0116,430.86337
OrientationDeg,1676592831427,29888249465011,96.0,9.0,10.0
UncalGyro,1676592831435,29888257957096,-0.1742493,-0.003970624,-0.57833666,0.0015283052,-0.0016532084,-0.00033879606
UncalAccel,1676592831435,29888257957096,-0.97866446,0.6329016,11.522637,0.037048545,-0.031444572,0.0098014325
OrientationDeg,1676592831435,29888257957096,97.0,9.0,10.0
UncalMag,1676592831439,29888261993820,-190.0394,773.6264,387.3378,-174.57417,771.0116,430.86337
UncalGyro,1676592831444,29888266413232,-0.06704246,0.09987647,-0.52366424,0.0015283052,-0.0016532084,-0.00033879606
UncalAccel,1676592831444,29888266413232,-0.88295156,0.6334998,11.508879,0.037048545,-0.031444572,0.0098014325
OrientationDeg,1676592831444,29888266413232,97.0,9.0,10.0
UncalMag,1676592831449,29888271982955,-189.9662,773.1994,387.83798,-174.57417,771.0116,430.86337
UncalGyro,1676592831452,29888274904880,0.030085113,0.23197608,-0.4541783,0.0015283052,-0.0016532084,-0.00033879606
UncalAccel,1676592831452,29888274904880,-0.8967103,0.7298109,11.402996,0.037048545,-0.031444572,0.0098014325
OrientationDeg,1676592831452,29888274904880,97.0,9.0,10.0
UncalMag,1676592831459,29888281993778,-189.1366,773.114,387.3134,-174.57417,771.0116,430.86337
UncalGyro,1676592831461,29888283389041,0.09789115,0.36361754,-0.38805214,0.0015283052,-0.0016532084,-0.00033879606
UncalAccel,1676592831461,29888283389041,-0.9912268,0.86859465,11.139188,0.037048545,-0.031444572,0.0098014325
OrientationDeg,1676592831461,29888283389041,97.0,9.0,10.0
UncalGyro,1676592831469,29888291866183,0.12690726,0.4718934,-0.33093625,0.0015283052,-0.0016532084,-0.00033879606
UncalAccel,1676592831469,29888291866183,-1.166501,1.0307083,10.802996,0.037048545,-0.031444572,0.0098014325
UncalMag,1676592831470,29888292003258,-189.75879,773.22375,388.448,-174.57417,771.0116,430.86337
OrientationDeg,1676592831469,29888291866183,98.0,10.0,10.0
