# 
# Header Description:
# 
# Version: v3.0.5.6 Platform: 13 Manufacturer: Google Model: Pixel 7
# 
# Raw,utcTimeMillis,TimeNanos,LeapSecond,TimeUncertaintyNanos,FullBiasNanos,BiasNanos,BiasUncertaintyNanos,DriftNanosPerSecond,DriftUncertaintyNanosPerSecond,HardwareClockDiscontinuityCount,Svid,TimeOffsetNanos,State,ReceivedSvTimeNanos,ReceivedSvTimeUncertaintyNanos,Cn0DbHz,PseudorangeRateMetersPerSecond,PseudorangeRateUncertaintyMetersPerSecond,AccumulatedDeltaRangeState,AccumulatedDeltaRangeMeters,AccumulatedDeltaRangeUncertaintyMeters,CarrierFrequencyHz,CarrierCycles,CarrierPhase,CarrierPhaseUncertainty,MultipathIndicator,SnrInDb,ConstellationType,AgcDb,BasebandCn0DbHz,FullInterSignalBiasNanos,FullInterSignalBiasUncertaintyNanos,SatelliteInterSignalBiasNanos,SatelliteInterSignalBiasUncertaintyNanos,CodeType,ChipsetElapsedRealtimeNanos
# 
# UncalAccel,utcTimeMillis,elapsedRealtimeNanos,UncalAccelXMps2,UncalAccelYMps2,UncalAccelZMps2,BiasXMps2,BiasYMps2,BiasZMps2
# 
# Accel,utcTimeMillis,elapsedRealtimeNanos,AccelXMps2,AccelYMps2,AccelZMps2
# 
# UncalGyro,utcTimeMillis,elapsedRealtimeNanos,UncalGyroXRadPerSec,UncalGyroYRadPerSec,UncalGyroZRadPerSec,DriftXRadPerSec,DriftYRadPerSec,DriftZRadPerSec
# 
# Gyro,utcTimeMillis,elapsedRealtimeNanos,GyroXRadPerSec,GyroYRadPerSec,GyroZRadPerSec
# 
# UncalMag,utcTimeMillis,elapsedRealtimeNanos,UncalMagXMicroT,UncalMagYMicroT,UncalMagZMicroT,BiasXMicroT,BiasYMicroT,BiasZMicroT
# 
# Mag,utcTimeMillis,elapsedRealtimeNanos,MagXMicroT,MagYMicroT,MagZMicroT
# 
# OrientationDeg,utcTimeMillis,elapsedRealtimeNanos,yawDeg,rollDeg,pitchDeg
# 
# Fix,Provider,LatitudeDegrees,LongitudeDegrees,AltitudeMeters,SpeedMps,AccuracyMeters,BearingDegrees,UnixTimeMillis,SpeedAccuracyMps,BearingAccuracyDegrees,elapsedRealtimeNanos,VerticalAccuracyMeters
# 
# Nav,Svid,Type,Status,MessageId,Sub-messageId,Data(Bytes)
# 
# Status,UnixTimeMillis,SignalCount,SignalIndex,ConstellationType,Svid,CarrierFrequencyHz,Cn0DbHz,AzimuthDegrees,ElevationDegrees,UsedInFix,HasAlmanacData,HasEphemerisData,BasebandCn0DbHz
# 
UncalAccel,1676594912709,31969531297077,-2.986841,2.035694,15.372091,0.037048545,-0.031444572,0.0098014325
UncalGyro,1676594912713,31969535527872,-0.59880066,-0.55481833,0.49754974,-0.0003678383,-0.0017186713,-0.0003239105
UncalAccel,1676594912717,31969539769102,-2.4783661,1.8005991,14.694324,0.037048545,-0.031444572,0.0098014325
UncalMag,1676594912719,31969541407775,-149.9136,778.8236,391.9372,-177.00775,769.7961,430.15182
UncalGyro,1676594912722,31969544021697,-0.42638394,-0.6559166,0.4036292,-0.0003678383,-0.0017186713,-0.0003239105
OrientationDeg,1676594912717,31969539769102,310.0,9.0,-10.0
UncalAccel,1676594912726,31969548258960,-2.0644078,1.5218352,13.839488,0.037048545,-0.031444572,0.0098014325
OrientationDeg,1676594912726,31969548258960,310.0,9.0,-9.0
UncalMag,1676594912729,31969551417093,-150.02339,778.84796,392.6692,-177.00775,769.7961,430.15182
Fix,FLP,37.4311259000,-122.1551566000,-16.200000762939453,0.24515103,3.98,120.46766,1676594912010,0.08845492,180.0,31968832606000,2.3218346
UncalGyro,1676594912730,31969552502653,-0.22388211,-0.72219545,0.2910773,-0.0003678383,-0.0017186713,-0.0003239105
UncalAccel,1676594912734,31969556737924,-1.7587247,1.204188,12.907483,0.037048545,-0.031444572,0.0098014325
OrientationDeg,1676594912734,31969556737924,310.0,8.0,-9.0
UncalGyro,1676594912738,31969560980447,-0.0070249503,-0.75579304,0.17501289,-0.0003678383,-0.0017186713,-0.0003239105
UncalMag,1676594912739,31969561430236,-151.2556,779.05536,391.9006,-177.00775,769.7961,430.15182
UncalAccel,1676594912743,31969565218861,-1.5314065,0.95832545,12.079567,0.037048545,-0.031444572,0.0098014325
OrientationDeg,1676594912743,31969565218861,309.0,8.0,-9.0
UncalGyro,1676594912747,31969569460641,0.20311269,-0.7528914,0.057421334,-0.0003678383,-0.0017186713,-0.0003239105
UncalMag,1676594912749,31969571418436,-150.8286,779.2384,391.8152,-177.00775,769.7961,430.15182
UncalAccel,1676594912751,31969573695230,-1.2999009,0.7788638,11.28515,0.037048545,-0.031444572,0.0098014325
OrientationDeg,1676594912751,31969573695230,310.0,8.0,-10.0
UncalGyro,1676594912755,31969577923614,0.37522396,-0.73655075,-0.057726767,-0.0003678383,-0.0017186713,-0.0003239105
UncalMag,1676594912759,31969581418314,-151.0604,778.8968,392.2178,-177.00775,769.7961,430.15182
UncalAccel,1676594912760,31969582181091,-1.1216356,0.6376872,10.585249,0.037048545,-0.031444572,0.0098014325
OrientationDeg,1676594912760,31969582181091,310.0,7.0,-10.0
UncalGyro,1676594912764,31969586421173,0.49327368,-0.72356987,-0.17470746,-0.0003678383,-0.0017186713,-0.0003239105
UncalAccel,1676594912768,31969590662140,-1.0109676,0.45224348,10.013963,0.037048545,-0.031444572,0.0098014325
UncalMag,1676594912769,31969591420634,-151.9998,778.9334,391.16858,-177.00775,769.7961,430.15182
OrientationDeg,1676594912768,31969590662140,310.0,7.0,-10.0
UncalGyro,1676594912772,31969594890920,0.5540548,-0.7069238,-0.29764408,-0.0003678383,-0.0017186713,-0.0003239105
UncalAccel,1676594912777,31969599141052,-0.9732806,0.28055847,9.552148,0.037048545,-0.031444572,0.0098014325
UncalMag,1676594912779,31969601415467,-151.9998,778.9334,391.16858,-177.00775,769.7961,430.15182
OrientationDeg,1676594912777,31969599141052,310.0,7.0,-10.0
UncalGyro,1676594912781,31969603381510,0.55924714,-0.68859786,-0.43661594,-0.0003678383,-0.0017186713,-0.0003239105
UncalAccel,1676594912785,31969607618173,-0.974477,0.18544376,9.12802,0.037048545,-0.031444572,0.0098014325
OrientationDeg,1676594912785,31969607618173,310.0,6.0,-10.0
UncalMag,1676594912789,31969611418437,-152.3292,778.6528,390.8636,-177.00775,769.7961,430.15182
UncalGyro,1676594912789,31969611849650,0.5174029,-0.6806566,-0.59788436,-0.0003678383,-0.0017186713,-0.0003239105
UncalAccel,1676594912794,31969616092469,-0.95712906,0.12921242,8.765508,0.037048545,-0.031444572,0.0098014325
OrientationDeg,1676594912794,31969616092469,311.0,6.0,-11.0
UncalGyro,1676594912798,31969620344839,0.44241914,-0.68019843,-0.7695375,-0.0003678383,-0.0017186713,-0.0003239105
UncalMag,1676594912799,31969621407777,-152.866,778.482,391.193,-177.00775,769.7961,430.15182
UncalAccel,1676594912802,31969624584860,-0.9738788,0.076570325,8.536395,0.037048545,-0.031444572,0.0098014325
OrientationDeg,1676594912802,31969624584860,311.0,6.0,-11.0
UncalGyro,1676594912806,31969628825755,0.35002577,-0.68233645,-0.9445504,-0.0003678383,-0.0017186713,-0.0003239105
UncalMag,1676594912809,31969631418560,-153.049,778.8114,390.5586,-177.00775,769.7961,430.15182
UncalAccel,1676594912811,31969633062308,-1.0055838,0.0047856453,8.327023,0.037048545,-0.031444572,0.0098014325
OrientationDeg,1676594912811,31969633062308,312.0,6.0,-11.0
UncalGyro,1676594912815,31969637304088,0.2454151,-0.69898254,-1.1133019,-0.0003678383,-0.0017186713,-0.0003239105
UncalMag,1676594912819,31969641418601,-153.354,778.97,390.1194,-177.00775,769.7961,430.15182
UncalAccel,1676594912819,31969641542979,-1.0277174,-0.023928227,8.130812,0.037048545,-0.031444572,0.0098014325
OrientationDeg,1676594912819,31969641542979,312.0,6.0,-11.0
UncalGyro,1676594912823,31969645784578,0.13927728,-0.73945236,-1.2788464,-0.0003678383,-0.0017186713,-0.0003239105
UncalAccel,1676594912828,31969650024404,-1.0504491,-0.028115666,7.9830546,0.037048545,-0.031444572,0.0098014325
UncalMag,1676594912829,31969651407859,-153.842,779.49457,390.6196,-177.00775,769.7961,430.15182
OrientationDeg,1676594912828,31969650024404,313.0,5.0,-11.0
UncalGyro,1676594912832,31969654264864,0.038331795,-0.79320854,-1.4474452,-0.0003678383,-0.0017186713,-0.0003239105
UncalAccel,1676594912836,31969658504213,-1.0594223,-0.071186475,7.9256268,0.037048545,-0.031444572,0.0098014325
OrientationDeg,1676594912836,31969658504213,314.0,5.0,-11.0
UncalMag,1676594912839,31969661418601,-154.3666,779.397,390.6074,-177.00775,769.7961,430.15182
UncalGyro,1676594912840,31969662740786,-0.04917465,-0.8364272,-1.616044,-0.0003678383,-0.0017186713,-0.0003239105
UncalAccel,1676594912844,31969666967611,-1.1222339,-0.10049855,8.011768,0.037048545,-0.031444572,0.0098014325
OrientationDeg,1676594912844,31969666967611,315.0,5.0,-11.0
UncalGyro,1676594912849,31969671225241,-0.11407909,-0.8536842,-1.7785342,-0.0003678383,-0.0017186713,-0.0003239105
UncalMag,1676594912849,31969671414939,-154.6594,779.824,390.59518,-177.00775,769.7961,430.15182
UncalAccel,1676594912853,31969675461631,-1.2035898,-0.091525465,8.049456,0.037048545,-0.031444572,0.0098014325
OrientationDeg,1676594912853,31969675461631,315.0,5.0,-10.0
UncalGyro,1676594912857,31969679710990,-0.14431691,-0.84757555,-1.9283489,-0.0003678383,-0.0017186713,-0.0003239105
UncalMag,1676594912859,31969681418602,-155.55,780.5682,389.7046,-177.00775,769.7961,430.15182
UncalAccel,1676594912861,31969683946780,-1.2179468,-0.10109676,8.001599,0.037048545,-0.031444572,0.0098014325
OrientationDeg,1676594912861,31969683946780,316.0,4.0,-10.0
UncalGyro,1676594912866,31969688188540,-0.1282817,-0.83062404,-2.0520492,-0.0003678383,-0.0017186713,-0.0003239105
UncalMag,1676594912869,31969691418358,-155.9648,780.7268,389.63138,-177.00775,769.7961,430.15182
UncalAccel,1676594912870,31969692426048,-1.1928221,-0.14895321,7.906484,0.037048545,-0.031444572,0.0098014325
OrientationDeg,1676594912870,31969692426048,317.0,4.0,-10.0
UncalGyro,1676594912874,31969696666933,-0.06872234,-0.80909103,-2.1450534,-0.0003678383,-0.0017186713,-0.0003239105
UncalAccel,1676594912878,31969700906151,-1.1443675,-0.23509483,7.8831544,0.037048545,-0.031444572,0.0098014325
UncalMag,1676594912879,31969701409894,-156.6724,780.97076,389.47278,-177.00775,769.7961,430.15182
OrientationDeg,1676594912878,31969700906151,319.0,4.0,-10.0
UncalGyro,1676594912883,31969705147413,0.017562376,-0.7770206,-2.2099578,-0.0003678383,-0.0017186713,-0.0003239105
UncalAccel,1676594912887,31969709386854,-1.082154,-0.2727818,7.859824,0.037048545,-0.031444572,0.0098014325
OrientationDeg,1676594912887,31969709386854,320.0,4.0,-10.0
UncalMag,1676594912889,31969711418358,-157.075,781.3124,389.4362,-177.00775,769.7961,430.15182
UncalGyro,1676594912891,31969713628166,0.124005646,-0.7435757,-2.2618814,-0.0003678383,-0.0017186713,-0.0003239105
UncalAccel,1676594912895,31969717868207,-1.0145568,-0.27696922,7.7886376,0.037048545,-0.031444572,0.0098014325
OrientationDeg,1676594912895,31969717868207,321.0,4.0,-10.0
UncalMag,1676594912899,31969721418562,-157.03839,781.91016,389.21658,-177.00775,769.7961,430.15182
UncalGyro,1676594912900,31969722108259,0.23900102,-0.7162395,-2.3125832,-0.0003678383,-0.0017186713,-0.0003239105
UncalAccel,1676594912904,31969726345056,-0.9613165,-0.26679972,7.7557364,0.037048545,-0.031444572,0.0098014325
OrientationDeg,1676594912904,31969726345056,322.0,4.0,-10.0
UncalGyro,1676594912908,31969730577375,0.3481932,-0.69134676,-2.3660338,-0.0003678383,-0.0017186713,-0.0003239105
UncalMag,1676594912909,31969731408023,-157.4532,781.91016,389.47278,-177.00775,769.7961,430.15182
UncalAccel,1676594912912,31969734825667,-0.90029955,-0.20937198,7.865806,0.037048545,-0.031444572,0.0098014325
OrientationDeg,1676594912912,31969734825667,323.0,3.0,-10.0
UncalGyro,1676594912917,31969739071556,0.4427246,-0.656222,-2.4336872,-0.0003678383,-0.0017186713,-0.0003239105
UncalMag,1676594912919,31969741418644,-158.25839,782.4104,389.0092,-177.00775,769.7961,430.15182
UncalAccel,1676594912921,31969743311405,-0.9349955,-0.16211374,7.969894,0.037048545,-0.031444572,0.0098014325
OrientationDeg,1676594912921,31969743311405,324.0,3.0,-10.0
UncalGyro,1676594912925,31969747550886,0.5224425,-0.6243043,-2.5158484,-0.0003678383,-0.0017186713,-0.0003239105
UncalMag,1676594912929,31969751418278,-159.1734,782.813,388.52118,-177.00775,769.7961,430.15182
UncalAccel,1676594912929,31969751787398,-1.0307083,-0.066400826,7.911868,0.037048545,-0.031444572,0.0098014325
OrientationDeg,1676594912929,31969751787398,326.0,3.0,-10.0
UncalGyro,1676594912934,31969756020969,0.5859725,-0.62858033,-2.611907,-0.0003678383,-0.0017186713,-0.0003239105
UncalAccel,1676594912938,31969760269677,-1.102493,0.091525465,7.8197446,0.037048545,-0.031444572,0.0098014325
UncalMag,1676594912939,31969761411646,-159.3076,782.45917,388.67978,-177.00775,769.7961,430.15182
OrientationDeg,1676594912938,31969760269677,327.0,3.0,-10.0
UncalGyro,1676594912942,31969764510441,0.6241516,-0.6844745,-2.7178922,-0.0003678383,-0.0017186713,-0.0003239105
UncalAccel,1676594912946,31969768752221,-1.1467602,0.2009971,7.87119,0.037048545,-0.031444572,0.0098014325
OrientationDeg,1676594912946,31969768752221,328.0,3.0,-11.0
UncalMag,1676594912949,31969771418523,-159.71019,782.7032,388.143,-177.00775,769.7961,430.15182
UncalGyro,1676594912950,31969772986749,0.6189592,-0.7643451,-2.8273897,-0.0003678383,-0.0017186713,-0.0003239105
UncalAccel,1676594912955,31969777212864,-1.2634103,0.30089745,8.084749,0.037048545,-0.031444572,0.0098014325
OrientationDeg,1676594912955,31969777212864,330.0,3.0,-11.0
UncalMag,1676594912959,31969781418360,-160.95459,782.76416,388.31378,-177.00775,769.7961,430.15182
UncalGyro,1676594912959,31969781469517,0.56413406,-0.8355109,-2.9379563,-0.0003678383,-0.0017186713,-0.0003239105
UncalAccel,1676594912963,31969785701634,-1.486541,0.4761717,8.335398,0.037048545,-0.031444572,0.0098014325
OrientationDeg,1676594912963,31969785701634,331.0,3.0,-11.0
UncalGyro,1676594912967,31969789954676,0.46609017,-0.8927795,-3.0508137,-0.0003678383,-0.0017186713,-0.0003239105
UncalMag,1676594912969,31969791407781,-160.918,783.4718,388.47238,-177.00775,769.7961,430.15182
UncalAccel,1676594912972,31969794183406,-1.6558332,0.73340017,8.40479,0.037048545,-0.031444572,0.0098014325
OrientationDeg,1676594912972,31969794183406,333.0,3.0,-11.0
UncalGyro,1676594912976,31969798434880,0.33322698,-0.97097033,-3.1500793,-0.0003678383,-0.0017186713,-0.0003239105
UncalMag,1676594912979,31969801415309,-161.65,783.4596,388.3748,-177.00775,769.7961,430.15182
UncalAccel,1676594912980,31969802670964,-1.7760726,1.0013963,8.359924,0.037048545,-0.031444572,0.0098014325
OrientationDeg,1676594912980,31969802670964,334.0,3.0,-11.0
UncalGyro,1676594912984,31969806910008,0.17669277,-1.0827587,-3.227201,-0.0003678383,-0.0017186713,-0.0003239105
UncalAccel,1676594912989,31969811145299,-1.9010975,1.1970096,8.262417,0.037048545,-0.031444572,0.0098014325
UncalMag,1676594912989,31969811408148,-162.5894,783.4352,388.387,-177.00775,769.7961,430.15182
OrientationDeg,1676594912989,31969811145299,336.0,2.0,-11.0
UncalGyro,1676594912993,31969815393652,0.005955936,-1.2118039,-3.2775974,-0.0003678383,-0.0017186713,-0.0003239105
UncalAccel,1676594912997,31969819634303,-1.9543378,1.3357933,8.270791,0.037048545,-0.031444572,0.0098014325
OrientationDeg,1676594912998,31969819634303,338.0,2.0,-11.0
UncalMag,1676594912999,31969821418564,-164.1388,783.6426,387.7526,-177.00775,769.7961,430.15182
UncalGyro,1676594913001,31969823874202,-0.17379116,-1.3309226,-3.2910366,-0.0003678383,-0.0017186713,-0.0003239105
UncalAccel,1676594913006,31969828113042,-1.9884356,1.4117653,8.284551,0.037048545,-0.031444572,0.0098014325
OrientationDeg,1676594913006,31969828113042,339.0,2.0,-11.0
UncalMag,1676594913009,31969831418565,-164.6268,784.2648,388.2772,-177.00775,769.7961,430.15182
UncalGyro,1676594913010,31969832353979,-0.3454443,-1.3991868,-3.2699616,-0.0003678383,-0.0017186713,-0.0003239105
UncalAccel,1676594913014,31969836594091,-1.9567307,1.4452649,8.489735,0.037048545,-0.031444572,0.0098014325
OrientationDeg,1676594913014,31969836594091,341.0,1.0,-10.0
UncalGyro,1676594913018,31969840834743,-0.49388456,-1.3654366,-3.2194126,-0.0003678383,-0.0017186713,-0.0003239105
UncalMag,1676594913019,31969841422959,-165.77359,784.3258,388.082,-177.00775,769.7961,430.15182
UncalAccel,1676594913023,31969845074153,-1.8681962,1.5170496,8.762517,0.037048545,-0.031444572,0.0098014325
OrientationDeg,1676594913023,31969845074153,343.0,1.0,-10.0
UncalGyro,1676594913027,31969849315405,-0.60918534,-1.219287,-3.150232,-0.0003678383,-0.0017186713,-0.0003239105
UncalMag,1676594913029,31969851408840,-166.652,785.3384,387.8624,-177.00775,769.7961,430.15182
UncalAccel,1676594913031,31969853555843,-1.9244276,1.6648064,9.119047,0.037048545,-0.031444572,0.0098014325
OrientationDeg,1676594913031,31969853555843,344.0,1.0,-10.0
UncalGyro,1676594913035,31969857795345,-0.68768156,-0.97097033,-3.062573,-0.0003678383,-0.0017186713,-0.0003239105
UncalMag,1676594913039,31969861415473,-167.3718,785.4848,387.30118,-177.00775,769.7961,430.15182
UncalAccel,1676594913040,31969862031450,-1.9758734,1.8460627,9.49472,0.037048545,-0.031444572,0.0098014325
OrientationDeg,1676594913040,31969862031450,345.0,1.0,-9.0
UncalGyro,1676594913044,31969866267880,-0.72021013,-0.66675943,-2.9495628,-0.0003678383,-0.0017186713,-0.0003239105
UncalAccel,1676594913048,31969870513119,-1.9722841,1.9369899,9.570692,0.037048545,-0.031444572,0.0098014325
OrientationDeg,1676594913048,31969870513119,347.0,1.0,-9.0
UncalMag,1676594913049,31969871407946,-168.482,786.26556,387.88678,-177.00775,769.7961,430.15182
UncalGyro,1676594913052,31969874746640,-0.7110472,-0.38713586,-2.8032606,-0.0003678383,-0.0017186713,-0.0003239105
UncalAccel,1676594913056,31969878997951,-1.8717855,1.855634,9.667602,0.037048545,-0.031444572,0.0098014325
OrientationDeg,1676594913056,31969878997951,348.0,1.0,-9.0
UncalMag,1676594913059,31969881418403,-168.55519,786.80237,388.3748,-177.00775,769.7961,430.15182
UncalGyro,1676594913061,31969883237200,-0.68844515,-0.1685988,-2.6109908,-0.0003678383,-0.0017186713,-0.0003239105
UncalAccel,1676594913065,31969887480170,-1.6372889,1.6845472,9.736395,0.037048545,-0.031444572,0.0098014325
OrientationDeg,1676594913065,31969887480170,349.0,1.0,-8.0
UncalMag,1676594913069,31969891418648,-169.16519,787.0464,388.082,-177.00775,769.7961,430.15182
UncalGyro,1676594913069,31969891716336,-0.6757697,-0.020158553,-2.3811526,-0.0003678383,-0.0017186713,-0.0003239105
UncalAccel,1676594913074,31969895948870,-1.527219,1.5463617,9.87159,0.037048545,-0.031444572,0.0098014325
OrientationDeg,1676594913073,31969895948870,351.0,1.0,-8.0
UncalGyro,1676594913078,31969900204017,-0.6783658,0.0917825,-2.1471913,-0.0003678383,-0.0017186713,-0.0003239105
UncalMag,1676594913079,31969901418404,-169.37259,786.9244,387.3378,-177.00775,769.7961,430.15182
UncalAccel,1676594913082,31969904436806,-1.5343975,1.5266209,10.138988,0.037048545,-0.031444572,0.0098014325
OrientationDeg,1676594913082,31969904436806,351.0,2.0,-8.0
UncalGyro,1676594913086,31969908680742,-0.6945538,0.19318613,-1.9402608,-0.0003678383,-0.0017186713,-0.0003239105
UncalMag,1676594913089,31969911418648,-169.8118,788.3152,387.3134,-177.00775,769.7961,430.15182
UncalAccel,1676594913090,31969912916024,-1.6456637,1.7030915,10.247263,0.037048545,-0.031444572,0.0098014325
OrientationDeg,1676594913090,31969912916024,352.0,2.0,-7.0
Status,0,33,0,3,15,1602000000,42.94,308.0,79.0,1,1,1,39.34094
Status,0,33,1,1,11,1176450050,41.30,113.0,77.0,1,1,1,37.697605
Status,0,33,2,1,11,1575420030,41.15,113.0,77.0,1,1,1,37.55458
Status,0,33,3,6,2,1575420030,39.51,113.0,75.0,1,1,1,35.90787
Status,0,33,4,6,2,1176450050,38.20,113.0,75.0,1,1,1,34.59663
Status,0,33,5,3,17,1604249980,41.88,329.0,72.0,1,1,1,38.279785
Status,0,33,6,1,12,1575420030,45.52,329.0,67.0,1,1,1,41.921505
Status,0,33,7,6,34,1575420030,40.94,208.0,61.0,1,1,1,37.337097
Status,0,33,8,6,34,1176450050,34.76,208.0,61.0,1,1,1,31.160515
Status,0,33,9,6,36,1575420030,42.97,49.0,61.0,1,1,1,39.37162
Status,0,33,10,6,36,1176450050,39.01,49.0,61.0,1,1,1,35.413807
Status,0,33,11,6,30,1176450050,41.29,316.0,48.0,1,1,1,37.68649
Status,0,33,12,6,30,1575420030,43.62,316.0,48.0,1,1,1,40.01567
Status,0,33,13,3,14,1598062460,42.02,154.0,43.0,1,1,1,38.417088
Status,0,33,14,1,6,1176450050,40.57,46.0,42.0,1,1,1,36.974083
Status,0,33,15,1,6,1575420030,44.42,46.0,42.0,1,1,1,40.81751
Status,0,33,16,3,18,1600312450,40.19,242.0,38.0,1,1,1,36.592144
Status,0,33,17,1,25,1575420030,45.74,313.0,37.0,1,1,1,42.14043
Status,0,33,18,1,25,1176450050,43.02,313.0,37.0,1,1,1,39.416927
Status,0,33,19,1,24,1575420030,39.08,217.0,36.0,1,1,1,35.47627
Status,0,33,20,1,24,1176450050,43.96,217.0,36.0,1,1,1,40.360126
Status,0,33,21,3,24,1603124990,45.33,35.0,28.0,1,1,1,41.72526
Status,0,33,22,1,20,1575420030,39.66,140.0,28.0,1,1,1,36.06403
Status,0,33,23,6,25,1575420030,38.89,128.0,24.0,1,1,1,35.293095
Status,0,33,24,3,16,1601437440,47.62,328.0,24.0,1,1,1,44.017197
Status,0,33,25,6,25,1176450050,37.23,128.0,24.0,1,1,1,33.630714
Status,0,33,26,1,19,1575420030,44.06,62.0,23.0,1,1,1,40.46207
Status,0,33,27,1,29,1575420030,46.97,266.0,16.0,1,1,1,43.365494
Status,0,33,28,1,2,1575420030,44.58,218.0,13.0,1,1,1,40.98458
Status,0,33,29,6,11,1176450050,29.16,41.0,12.0,1,1,1,25.563995
Status,0,33,30,6,11,1575420030,37.47,41.0,12.0,1,1,1,33.874943
Status,0,33,31,6,15,1575420030,42.29,217.0,11.0,1,1,1,38.692123
Status,0,33,32,6,15,1176450050,43.83,217.0,11.0,1,1,1,40.230347
UncalGyro,1676594913095,31969917159400,-0.71593404,0.2773328,-1.7825048,-0.0003678383,-0.0017186713,-0.0003239105
UncalAccel,1676594913099,31969921398344,-1.933999,1.969293,10.234102,0.037048545,-0.031444572,0.0098014325
UncalMag,1676594913099,31969921427071,-169.8362,787.998,388.448,-177.00775,769.7961,430.15182
OrientationDeg,1676594913099,31969921398344,353.0,2.0,-7.0
Fix,GPS,37.4311293722,-122.1551606663,-7.681287754388141,0.11076573,2.9842155,83.19332,1676594912999,0.08623096,180.0,31969832605000,3.0
UncalGyro,1676594913103,31969925636198,-0.74388117,0.3594942,-1.670411,-0.0003678383,-0.0017186713,-0.0003239105
Raw,1676594912999,150066000000,,,-1360629980933663885,0.0,6.3372743613193006,199.0,1.0,60,2,0.0,16431,434930918939005,11,44.449649810791016,-575.8863599921879,0.15,16,-86761.93532939897,340282346638528860000000000000000000000,1575420030,,,,0,,1,,40.84965133666992,0.0,1.0,0.0,1.0,C,31969832605000
Raw,1676594912999,150066000000,,,-1360629980933663885,0.0,6.3372743613193006,199.0,1.0,60,6,0.0,16431,434930927144527,16,39.708927154541016,542.5144886054215,0.15,16,80487.28725532579,340282346638528860000000000000000000000,1575420030,,,,0,,1,,36.10892868041992,0.320142130558394,1.0,0.320142130558394,1.0,C,31969832605000
Raw,1676594912999,150066000000,,,-1360629980933663885,0.0,6.3372743613193006,199.0,1.0,60,11,0.0,16431,434930931714387,18,38.62367630004883,33.34855898650471,0.15,16,3634.0977350408084,340282346638528860000000000000000000000,1575420030,,,,0,,1,,35.023677825927734,-0.20372681261465636,1.0,-0.20372681261465636,1.0,C,31969832605000
Raw,1676594912999,150066000000,,,-1360629980933663885,0.0,6.3372743613193006,199.0,1.0,60,12,0.0,16431,434930931372664,12,45.52150344848633,-181.6412421111114,0.15,16,-28072.074511440816,340282346638528860000000000000000000000,1575420030,,,,0,,1,,41.921504974365234,-0.6984919076624261,1.0,-0.6984919076624261,1.0,C,31969832605000
Raw,1676594912999,150066000000,,,-1360629980933663885,0.0,6.3372743613193006,199.0,1.0,60,19,0.0,16431,434930922714424,17,39.571868896484375,571.6899575328168,0.15,16,85504.96106924114,340282346638528860000000000000000000000,1575420030,,,,0,,1,,35.97187042236328,0.0,1.0,0.0,1.0,C,31969832605000
Raw,1676594912999,150066000000,,,-1360629980933663885,0.0,6.3372743613193006,199.0,1.0,60,20,0.0,16431,434930923260846,45,27.263322830200195,-464.20834062143854,0.8851246576949827,16,-70105.27054220294,340282346638528860000000000000000000000,1575420030,,,,1,,1,,23.66332244873047,0.0,1.0,0.0,1.0,C,31969832605000
Raw,1676594912999,150066000000,,,-1360629980933663885,0.0,6.3372743613193006,199.0,1.0,60,24,0.0,16431,434930924470025,18,38.47053527832031,591.5014419428526,0.15,16,87974.52903961243,340282346638528860000000000000000000000,1575420030,,,,0,,1,,34.87053680419922,-0.20372681261465636,1.0,-0.20372681261465636,1.0,C,31969832605000
Raw,1676594912999,150066000000,,,-1360629980933663885,0.0,6.3372743613193006,199.0,1.0,60,25,0.0,16431,434930926815207,13,45.36436462402344,-457.85158757291265,0.15,16,-69005.33731859399,340282346638528860000000000000000000000,1575420030,,,,0,,1,,41.764366149902344,-2.0372682255564105,1.0,-2.0372682255564105,1.0,C,31969832605000
Raw,1676594912999,150066000000,,,-1360629980933663885,0.0,6.3372743613193006,199.0,1.0,60,29,0.0,16431,434930918711650,11,46.7968635559082,-429.9272515420132,0.15,16,-64594.1123921035,340282346638528860000000000000000000000,1575420030,,,,0,,1,,43.19686508178711,-0.6984919076624261,1.0,-0.6984919076624261,1.0,C,31969832605000
Raw,1676594912999,150066000000,,,-1360629980933663885,0.0,6.3372743613193006,199.0,1.0,60,6,0.0,81921,434930927145069,6,38.27506637573242,542.6197011487075,0.15,16,82141.16062293143,340282346638528860000000000000000000000,1176450050,,,,0,,1,,34.67506790161133,1.9208527336454408,1.8092687736405433,1.9208527336454408,1.0,Q,31969832605000
Raw,1676594912999,150066000000,,,-1360629980933663885,0.0,6.3372743613193006,199.0,1.0,60,11,0.0,81921,434930931714909,7,40.768795013427734,32.979771895853176,0.15,16,3658.9046463975806,340282346638528860000000000000000000000,1176450050,,,,0,,1,,37.16879653930664,0.0,1.8092687736405433,0.0,1.0,Q,31969832605000
Raw,1676594912999,150066000000,,,-1360629980933663885,0.0,6.3372743613193006,199.0,1.0,60,24,0.0,81921,434930924470522,8,43.96012496948242,591.2214886449742,0.15,16,89757.91831418624,340282346638528860000000000000000000000,1176450050,,,,0,,1,,40.36012649536133,3.5215636101095664,1.8092687736405433,3.5215636101095664,1.0,Q,31969832605000
Raw,1676594912999,150066000000,,,-1360629980933663885,0.0,6.3372743613193006,199.0,1.0,60,25,0.0,81921,434930926815705,7,40.105934143066406,-457.86297111339127,0.15,16,-69024.95643891294,340282346638528860000000000000000000000,1176450050,,,,0,,1,,36.50593566894531,1.0186341127782053,1.8092687736405433,1.0186341127782053,1.0,Q,31969832605000
Raw,1676594912999,150066000000,,,-1360629980933663885,0.0,6.3372743613193006,199.0,1.0,60,14,0.0,32995,13712930503800,47,35.33416748046875,662.3228779796873,0.5234907557407662,16,98626.37235076625,340282346638528860000000000000000000000,1598062460,,,,0,,3,,31.734169006347656,52.1540641784668,2.0000000474974513,52.1540641784668,2.0000000474974513,C,31969832605000
Raw,1676594912999,150066000000,,,-1360629980933663885,0.0,6.3372743613193006,199.0,1.0,60,18,0.0,32995,13712929470707,39,37.78284454345703,-405.7038272175562,0.15,16,-61545.115440868656,340282346638528860000000000000000000000,1600312450,,,,0,,3,,34.18284606933594,52.1540641784668,2.0000000474974513,52.1540641784668,2.0000000474974513,C,31969832605000
Raw,1676594912999,150066000000,,,-1360629980933663885,0.0,6.3372743613193006,199.0,1.0,60,16,0.0,32995,13712925427914,33,47.61719512939453,-663.7159643076006,0.15,16,-99543.55767064165,340282346638528860000000000000000000000,1601437440,,,,0,,3,,44.01719665527344,52.1540641784668,2.0000000474974513,52.1540641784668,2.0000000474974513,C,31969832605000
Raw,1676594912999,150066000000,,,-1360629980933663885,0.0,6.3372743613193006,199.0,1.0,60,15,0.0,32995,13712935586963,33,42.40007781982422,-64.6661273475869,0.15,16,-11344.924655575069,340282346638528860000000000000000000000,1602000000,,,,0,,3,,38.800079345703125,52.1540641784668,2.0000000474974513,52.1540641784668,2.0000000474974513,C,31969832605000
Raw,1676594912999,150066000000,,,-1360629980933663885,0.0,6.3372743613193006,199.0,1.0,60,24,0.0,32867,13712926678474,33,43.57442855834961,704.8198158635882,0.15,16,105807.2934668809,340282346638528860000000000000000000000,1603124990,,,,0,,3,,39.974430084228516,52.1540641784668,2.0000000474974513,52.1540641784668,2.0000000474974513,C,31969832605000
Raw,1676594912999,150066000000,,,-1360629980933663885,0.0,6.3372743613193006,199.0,1.0,60,17,0.0,32995,13712935529238,33,41.34473419189453,186.7316955699888,0.15,16,26782.546771603964,340282346638528860000000000000000000000,1604249980,,,,0,,3,,37.74473571777344,52.1540641784668,2.0000000474974513,52.1540641784668,2.0000000474974513,C,31969832605000
Raw,1676594912999,150066000000,,,-1360629980933663885,0.0,6.3372743613193006,199.0,1.0,60,2,0.0,85026,434930921576876,23,35.74219512939453,170.1057450000858,0.5035364093888313,16,24860.98240521753,340282346638528860000000000000000000000,1575420030,,,,0,,6,,32.14219665527344,-5.878973752260207,1.5000000237487257,-5.878973752260207,1.5000000237487257,C,31969832605000
Raw,1676594912999,150066000000,,,-1360629980933663885,0.0,6.3372743613193006,199.0,1.0,60,11,0.0,85026,434930908537800,37,29.86568260192871,594.4046537543786,0.7683291383059516,16,87458.15771879032,340282346638528860000000000000000000000,1575420030,,,,0,,6,,26.265682220458984,-5.878973752260207,1.5000000237487257,-5.878973752260207,1.5000000237487257,C,31969832605000
Raw,1676594912999,150066000000,,,-1360629980933663885,0.0,6.3372743613193006,199.0,1.0,60,15,0.0,85026,434930907150364,13,42.29212188720703,-495.55844068727174,0.15,16,-74310.54287267785,340282346638528860000000000000000000000,1575420030,,,,0,,6,,38.69212341308594,-5.878973752260207,1.5000000237487257,-5.878973752260207,1.5000000237487257,C,31969832605000
Raw,1676594912999,150066000000,,,-1360629980933663885,0.0,6.3372743613193006,199.0,1.0,60,25,0.0,85026,434930910885952,44,27.642423629760742,512.3312355211033,0.868728999088574,16,75638.49717633359,340282346638528860000000000000000000000,1575420030,,,,0,,6,,24.042423248291016,-5.878973752260207,1.5000000237487257,-5.878973752260207,1.5000000237487257,C,31969832605000
Raw,1676594912999,150066000000,,,-1360629980933663885,0.0,6.3372743613193006,199.0,1.0,60,30,0.0,85026,434930916416951,13,42.541481018066406,-295.2596268553891,0.15,16,-44521.852403176716,340282346638528860000000000000000000000,1575420030,,,,0,,6,,38.94148254394531,-5.878973752260207,1.5000000237487257,-5.878973752260207,1.5000000237487257,C,31969832605000
Raw,1676594912999,150066000000,,,-1360629980933663885,0.0,6.3372743613193006,199.0,1.0,60,34,0.0,85026,434930920067107,15,40.937095642089844,-227.37240062428793,0.15,16,-35078.134514651945,340282346638528860000000000000000000000,1575420030,,,,0,,6,,37.33709716796875,-5.878973752260207,1.5000000237487257,-5.878973752260207,1.5000000237487257,C,31969832605000
Raw,1676594912999,150066000000,,,-1360629980933663885,0.0,6.3372743613193006,199.0,1.0,60,36,0.0,85026,434930920009585,14,41.96419143676758,303.00500143002387,0.15,16,44810.08734984651,340282346638528860000000000000000000000,1575420030,,,,0,,6,,38.364192962646484,-5.878973752260207,1.5000000237487257,-5.878973752260207,1.5000000237487257,C,31969832605000
Raw,1676594912999,150066000000,,,-1360629980933663885,0.0,6.3372743613193006,199.0,1.0,60,2,0.0,84003,434930921577401,10,37.741539001464844,169.73460408978065,0.15,16,24952.1847202392,340282346638528860000000000000000000000,1176450050,,,,0,,6,,34.14154052734375,-4.216632805764675,2.3092687973892687,-4.216632805764675,1.5000000237487257,Q,31969832605000
Raw,1676594912999,150066000000,,,-1360629980933663885,0.0,6.3372743613193006,199.0,1.0,60,11,0.0,84003,434930908538316,44,25.680601119995117,594.2743224406354,0.9572471963024212,16,87977.78277977802,340282346638528860000000000000000000000,1176450050,,,,0,,6,,22.08060073852539,5.203299224376676,2.3092687973892687,5.203299224376676,1.5000000237487257,Q,31969832605000
Raw,1676594912999,150066000000,,,-1360629980933663885,0.0,6.3372743613193006,199.0,1.0,60,15,0.0,84003,434930907150831,7,43.830345153808594,-495.6798764798625,0.15,16,-73867.86021081019,340282346638528860000000000000000000000,1176450050,,,,0,,6,,40.2303466796875,-11.050701141357418,2.3092687973892687,-11.050701141357418,1.5000000237487257,Q,31969832605000
Raw,1676594912999,150066000000,,,-1360629980933663885,0.0,6.3372743613193006,199.0,1.0,60,25,0.0,84003,434930910886408,61,24.399866104125977,511.8343473874572,1.0152627265724172,16,76057.07370301856,340282346638528860000000000000000000000,1176450050,,,,0,,6,,20.79986572265625,-8.649541996419428,2.3092687973892687,-8.649541996419428,1.5000000237487257,Q,31969832605000
Raw,1676594912999,150066000000,,,-1360629980933663885,0.0,6.3372743613193006,199.0,1.0,60,30,0.0,84003,434930916417468,7,40.303672790527344,-295.2630691834979,0.15,16,-45566.38291681253,340282346638528860000000000000000000000,1176450050,,,,0,,6,,36.70367431640625,-8.2801328971982,2.3092687973892687,-8.2801328971982,1.5000000237487257,Q,31969832605000
Raw,1676594912999,150066000000,,,-1360629980933663885,0.0,6.3372743613193006,199.0,1.0,60,34,0.0,84003,434930920067610,29,27.334108352661133,-227.4072499360825,0.8849646299108405,16,-35428.27755616581,340282346638528860000000000000000000000,1176450050,,,,0,,6,,23.734107971191406,-9.942473843693731,2.3092687973892687,-9.942473843693731,1.5000000237487257,Q,31969832605000
Raw,1676594912999,150066000000,,,-1360629980933663885,0.0,6.3372743613193006,199.0,1.0,60,36,0.0,84003,434930920010097,8,34.03517532348633,302.9264754501953,0.5836149383062175,16,45255.77249422423,340282346638528860000000000000000000000,1176450050,,,,0,,6,,30.4351749420166,-10.865996591746804,2.3092687973892687,-10.865996591746804,1.5000000237487257,Q,31969832605000
UncalAccel,1676594913107,31969929878863,-2.2462623,2.3509483,10.125229,0.037048545,-0.031444572,0.0098014325
UncalMag,1676594913109,31969931407947,-169.8118,788.4494,388.8018,-177.00775,769.7961,430.15182
UncalGyro,1676594913112,31969934119719,-0.7826711,0.4485278,-1.5755742,-0.0003678383,-0.0017186713,-0.0003239105
OrientationDeg,1676594913107,31969929878863,354.0,2.0,-6.0
Fix,FLP,37.4311271000,-122.1551575000,-16.200000762939453,0.1732947,3.98,122.67184,1676594913010,0.08623096,180.0,31969832605000,2.2217028
UncalAccel,1676594913116,31969938359973,-2.5052853,2.7954152,9.882956,0.037048545,-0.031444572,0.0098014325
OrientationDeg,1676594913116,31969938359973,355.0,3.0,-6.0
UncalMag,1676594913119,31969941409412,-169.8972,788.70557,388.8628,-177.00775,769.7961,430.15182
UncalGyro,1676594913120,31969942600035,-0.82848597,0.5551238,-1.4656185,-0.0003678383,-0.0017186713,-0.0003239105
UncalAccel,1676594913124,31969946839394,-2.6919255,3.196811,9.645468,0.037048545,-0.031444572,0.0098014325
OrientationDeg,1676594913124,31969946839394,355.0,3.0,-6.0
UncalGyro,1676594913129,31969951080799,-0.9059132,0.6568329,-1.3100005,-0.0003678383,-0.0017186713,-0.0003239105
UncalMag,1676594913129,31969951418161,-170.09239,788.9618,388.692,-177.00775,769.7961,430.15182
UncalAccel,1676594913133,31969955321197,-3.3445678,3.3720853,8.533403,0.037048545,-0.031444572,0.0098014325
OrientationDeg,1676594913133,31969955321197,356.0,3.0,-5.0
UncalGyro,1676594913137,31969959562071,-0.6969972,-0.2751948,-0.61636305,-0.0003678383,-0.0017186713,-0.0003239105
UncalMag,1676594913139,31969961409860,-170.4462,790.07196,387.99658,-177.00775,769.7961,430.15182
UncalAccel,1676594913141,31969963800546,-13.532608,3.851248,7.669595,0.037048545,-0.031444572,0.0098014325
OrientationDeg,1676594913141,31969963800546,356.0,3.0,-5.0
UncalGyro,1676594913146,31969968041370,0.47983465,-3.0025554,1.4915802,-0.0003678383,-0.0017186713,-0.0003239105
UncalMag,1676594913149,31969971418446,-170.11679,790.16956,388.1308,-177.00775,769.7961,430.15182
UncalAccel,1676594913150,31969972280659,-10.74497,6.6484575,26.840292,0.037048545,-0.031444572,0.0098014325
OrientationDeg,1676594913150,31969972280659,354.0,1.0,-6.0
UncalGyro,1676594913154,31969976521982,1.1734722,-2.0922134,2.5360072,-0.0003678383,-0.0017186713,-0.0003239105
UncalAccel,1676594913158,31969980761514,-2.6165516,8.663813,20.633907,0.037048545,-0.031444572,0.0098014325
OrientationDeg,1676594913158,31969980761514,353.0,0.0,-6.0
UncalMag,1676594913159,31969981418365,-171.22699,789.1936,388.5334,-177.00775,769.7961,430.15182
UncalGyro,1676594913163,31969985005258,1.2574661,-0.5186246,1.9782871,-0.0003678383,-0.0017186713,-0.0003239105
UncalAccel,1676594913167,31969989253173,0.6550352,5.2977095,12.114263,0.037048545,-0.031444572,0.0098014325
OrientationDeg,1676594913167,31969989253173,352.0,0.0,-7.0
UncalMag,1676594913169,31969991415232,-172.1908,788.81537,387.9844,-177.00775,769.7961,430.15182
UncalGyro,1676594913171,31969993482147,0.84956086,0.2556471,1.4075862,-0.0003678383,-0.0017186713,-0.0003239105
UncalAccel,1676594913175,31969997719359,0.5276174,2.6398816,8.017751,0.037048545,-0.031444572,0.0098014325
OrientationDeg,1676594913175,31969997719359,352.0,0.0,-7.0
UncalMag,1676594913179,31970001418528,-171.6296,789.32776,387.4842,-177.00775,769.7961,430.15182
UncalGyro,1676594913179,31970001960703,0.21624629,0.4098906,1.1268936,-0.0003678383,-0.0017186713,-0.0003239105
UncalAccel,1676594913184,31970006202586,2.3665016,3.028117,6.2231336,0.037048545,-0.031444572,0.0098014325
OrientationDeg,1676594913184,31970006202586,351.0,0.0,-7.0
UncalGyro,1676594913188,31970010444479,-0.4259258,0.26542094,0.76067996,-0.0003678383,-0.0017186713,-0.0003239105
UncalMag,1676594913189,31970011408234,-171.06839,788.3152,387.94778,-177.00775,769.7961,430.15182
UncalAccel,1676594913192,31970014683310,3.2093735,2.4909284,7.042675,0.037048545,-0.031444572,0.0098014325
OrientationDeg,1676594913192,31970014683310,351.0,1.0,-7.0
UncalGyro,1676594913196,31970018924795,-1.0210613,0.22204952,0.3022256,-0.0003678383,-0.0017186713,-0.0003239105
UncalMag,1676594913199,31970021418407,-170.72679,788.8398,388.0698,-177.00775,769.7961,430.15182
UncalAccel,1676594913201,31970023164825,2.6991038,1.666601,8.098508,0.037048545,-0.031444572,0.0098014325
OrientationDeg,1676594913201,31970023164825,351.0,1.0,-6.0
UncalGyro,1676594913205,31970027405792,-1.5509869,0.26618454,-0.21655174,-0.0003678383,-0.0017186713,-0.0003239105
UncalMag,1676594913209,31970031412914,-171.3002,789.8036,388.5578,-177.00775,769.7961,430.15182
UncalAccel,1676594913209,31970031640829,3.0430722,1.5248263,8.220542,0.037048545,-0.031444572,0.0098014325
OrientationDeg,1676594913209,31970031640829,351.0,1.0,-5.0
UncalGyro,1676594913213,31970035871583,-1.9381227,0.14752395,-0.8739954,-0.0003678383,-0.0017186713,-0.0003239105
UncalAccel,1676594913218,31970040120463,1.1407782,1.7964116,7.8634133,0.037048545,-0.031444572,0.0098014325
UncalMag,1676594913219,31970041413077,-170.72679,790.49896,388.10638,-177.00775,769.7961,430.15182
OrientationDeg,1676594913218,31970040120463,352.0,1.0,-4.0
UncalGyro,1676594913222,31970044348370,-2.0248656,-0.20326541,-1.4191927,-0.0003678383,-0.0017186713,-0.0003239105
UncalAccel,1676594913226,31970048597718,-0.20458634,0.27936205,10.4159565,0.037048545,-0.031444572,0.0098014325
OrientationDeg,1676594913226,31970048597718,353.0,1.0,-3.0
UncalMag,1676594913229,31970051415356,-171.349,790.60876,389.363,-177.00775,769.7961,430.15182
UncalGyro,1676594913230,31970052845633,-1.6236799,-0.59299743,-1.5706873,-0.0003678383,-0.0017186713,-0.0003239105
UncalAccel,1676594913235,31970057087128,-0.6149554,0.13519448,9.130413,0.037048545,-0.031444572,0.0098014325
OrientationDeg,1676594913235,31970057087128,353.0,0.0,-3.0
UncalGyro,1676594913239,31970061329377,-1.1137601,-1.1061243,-1.4729488,-0.0003678383,-0.0017186713,-0.0003239105
UncalMag,1676594913239,31970061405305,-172.0932,792.2436,388.9238,-177.00775,769.7961,430.15182
UncalAccel,1676594913243,31970065565981,0.12323037,-0.26919255,10.411171,0.037048545,-0.031444572,0.0098014325
OrientationDeg,1676594913243,31970065565981,354.0,0.0,-2.0
UncalGyro,1676594913247,31970069807822,-0.52610767,-1.1815661,-1.2438743,-0.0003678383,-0.0017186713,-0.0003239105
UncalMag,1676594913249,31970071411328,-172.0932,792.2436,388.9238,-177.00775,769.7961,430.15182
UncalAccel,1676594913252,31970074046389,0.2973082,-0.7722835,11.193027,0.037048545,-0.031444572,0.0098014325
OrientationDeg,1676594913253,31970074046389,355.0,0.0,-2.0
UncalGyro,1676594913256,31970078287731,0.08078693,-0.80848014,-0.96990126,-0.0003678383,-0.0017186713,-0.0003239105
UncalMag,1676594913259,31970081418408,-172.8252,792.2436,389.668,-177.00775,769.7961,430.15182
UncalAccel,1676594913260,31970082526837,-0.12562318,-1.0863415,11.001002,0.037048545,-0.031444572,0.0098014325
OrientationDeg,1676594913260,31970082526837,355.0,0.0,-2.0
UncalGyro,1676594913264,31970086768169,0.53893584,-0.32284227,-0.72387534,-0.0003678383,-0.0017186713,-0.0003239105
UncalAccel,1676594913269,31970091008588,0.06460621,-0.9828519,9.847063,0.037048545,-0.031444572,0.0098014325
OrientationDeg,1676594913269,31970091008588,355.0,0.0,-3.0
UncalMag,1676594913269,31970091413566,-173.1546,791.87756,389.2288,-177.00775,769.7961,430.15182
UncalGyro,1676594913273,31970095249342,0.8889617,-0.1994475,-0.54993147,-0.0003678383,-0.0017186713,-0.0003239105
UncalAccel,1676594913277,31970099487856,1.1700903,-1.1036894,9.162118,0.037048545,-0.031444572,0.0098014325
OrientationDeg,1676594913277,31970099487856,356.0,0.0,-3.0
UncalMag,1676594913279,31970101418694,-173.1546,791.87756,389.2288,-177.00775,769.7961,430.15182
UncalGyro,1676594913281,31970103728477,1.1142182,-0.35918877,-0.31887165,-0.0003678383,-0.0017186713,-0.0003239105
UncalAccel,1676594913285,31970107967561,2.5698915,-0.8979067,8.58784,0.037048545,-0.031444572,0.0098014325
OrientationDeg,1676594913285,31970107967561,356.0,-1.0,-4.0
UncalMag,1676594913289,31970111418653,-173.4474,792.1094,388.31378,-177.00775,769.7961,430.15182
UncalGyro,1676594913290,31970112208132,1.2709051,-0.60231316,0.008857546,-0.0003678383,-0.0017186713,-0.0003239105
UncalAccel,1676594913294,31970116448683,3.4444683,-0.06281159,8.078768,0.037048545,-0.031444572,0.0098014325
OrientationDeg,1676594913294,31970116448683,355.0,-1.0,-4.0
UncalGyro,1676594913298,31970120689222,1.4912748,-0.7284568,0.31795537,-0.0003678383,-0.0017186713,-0.0003239105
UncalMag,1676594913299,31970121411207,-174.8992,790.70636,388.8628,-177.00775,769.7961,430.15182
UncalAccel,1676594913302,31970124927330,3.6047873,0.74117684,9.130413,0.037048545,-0.031444572,0.0098014325
OrientationDeg,1676594913302,31970124927330,355.0,-1.0,-5.0
UncalGyro,1676594913307,31970129167809,1.7860173,-0.46074513,0.56001073,-0.0003678383,-0.0017186713,-0.0003239105
UncalMag,1676594913309,31970131418491,-173.8012,789.828,387.899,-177.00775,769.7961,430.15182
UncalAccel,1676594913311,31970133399122,2.778067,1.5062819,9.803394,0.037048545,-0.031444572,0.0098014325
OrientationDeg,1676594913311,31970133399122,355.0,-1.0,-6.0
UncalGyro,1676594913315,31970137651288,2.118786,-0.049632803,0.6579019,-0.0003678383,-0.0017186713,-0.0003239105
UncalMag,1676594913319,31970141418572,-174.582,789.01056,387.6062,-177.00775,769.7961,430.15182
UncalAccel,1676594913319,31970141889702,1.4261223,2.6626134,9.416953,0.037048545,-0.031444572,0.0098014325
OrientationDeg,1676594913319,31970141889702,355.0,-1.0,-7.0
UncalGyro,1676594913324,31970146133691,2.402533,0.094225965,0.5723807,-0.0003678383,-0.0017186713,-0.0003239105
UncalAccel,1676594913328,31970150370151,0.3894319,4.2281175,8.752945,0.037048545,-0.031444572,0.0098014325
OrientationDeg,1676594913328,31970150370151,354.0,-1.0,-9.0
UncalMag,1676594913329,31970151407953,-174.03299,787.7052,387.0328,-177.00775,769.7961,430.15182
UncalGyro,1676594913332,31970154611779,2.5431848,-0.023518313,0.32620203,-0.0003678383,-0.0017186713,-0.0003239105
UncalAccel,1676594913336,31970158852288,-0.89371926,5.348557,10.066605,0.037048545,-0.031444572,0.0098014325
UncalMag,1676594913339,31970161410638,-174.19159,786.7414,387.289,-177.00775,769.7961,430.15182
OrientationDeg,1676594913336,31970158852288,354.0,-2.0,-10.0
UncalGyro,1676594913341,31970163093062,2.434756,-0.055741455,-0.06490443,-0.0003678383,-0.0017186713,-0.0003239105
UncalAccel,1676594913345,31970167331231,-2.0087745,5.7266226,11.761321,0.037048545,-0.031444572,0.0098014325
OrientationDeg,1676594913345,31970167331231,354.0,-1.0,-11.0
UncalMag,1676594913349,31970171418533,-174.6552,785.94836,387.2402,-177.00775,769.7961,430.15182
UncalGyro,1676594913349,31970171573663,2.0422752,0.011911872,-0.56184334,-0.0003678383,-0.0017186713,-0.0003239105
UncalAccel,1676594913353,31970175817550,-2.181058,5.2977095,12.774084,0.037048545,-0.031444572,0.0098014325
UncalGyro,1676594913358,31970180052301,1.3355042,0.10125092,-1.0555751,-0.0003678383,-0.0017186713,-0.0003239105
OrientationDeg,1676594913353,31970175817550,355.0,-1.0,-12.0
UncalMag,1676594913359,31970181415400,-174.3624,785.6922,387.04498,-177.00775,769.7961,430.15182
UncalAccel,1676594913362,31970184285700,0.3505485,3.309872,16.46561,0.037048545,-0.031444572,0.0098014325
OrientationDeg,1676594913362,31970184285700,355.0,-1.0,-12.0
UncalGyro,1676594913366,31970188518396,0.36178493,0.23777929,-1.3494014,-0.0003678383,-0.0017186713,-0.0003239105
UncalMag,1676594913369,31970191418614,-174.30139,784.88696,386.496,-177.00775,769.7961,430.15182
UncalAccel,1676594913370,31970192773747,0.11365908,3.2727833,11.787045,0.037048545,-0.031444572,0.0098014325
OrientationDeg,1676594913370,31970192773747,356.0,-1.0,-12.0
UncalGyro,1676594913375,31970197014876,-0.43371433,0.17852537,-1.536326,-0.0003678383,-0.0017186713,-0.0003239105
UncalAccel,1676594913379,31970201256535,1.4009976,2.7846475,10.714461,0.037048545,-0.031444572,0.0098014325
UncalMag,1676594913379,31970201408768,-174.5942,785.2408,386.82538,-177.00775,769.7961,430.15182
OrientationDeg,1676594913379,31970201256535,357.0,-1.0,-12.0
UncalGyro,1676594913383,31970205491297,-0.9034697,0.2855795,-1.5746579,-0.0003678383,-0.0017186713,-0.0003239105
UncalAccel,1676594913387,31970209722885,2.1272194,2.2671995,10.564312,0.037048545,-0.031444572,0.0098014325
UncalMag,1676594913389,31970211408158,-174.765,785.94836,387.2402,-177.00775,769.7961,430.15182
OrientationDeg,1676594913387,31970209722885,358.0,0.0,-11.0
UncalGyro,1676594913391,31970213974696,-1.1030699,0.43890667,-1.5183055,-0.0003678383,-0.0017186713,-0.0003239105
UncalAccel,1676594913396,31970218214116,1.6881363,1.9345971,10.042677,0.037048545,-0.031444572,0.0098014325
UncalMag,1676594913399,31970221418493,-174.582,785.61896,387.88678,-177.00775,769.7961,430.15182
UncalGyro,1676594913400,31970222458074,-1.1301007,0.56169057,-1.4845552,-0.0003678383,-0.0017186713,-0.0003239105
OrientationDeg,1676594913396,31970218214116,358.0,0.0,-11.0
OrientationDeg,1676594913404,31970226695664,359.0,0.0,-10.0
UncalAccel,1676594913404,31970226695664,1.5266209,1.6175481,10.124631,0.037048545,-0.031444572,0.0098014325
UncalGyro,1676594913408,31970230934281,-1.058324,0.6739371,-1.4729488,-0.0003678383,-0.0017186713,-0.0003239105
UncalMag,1676594913409,31970231430375,-174.4112,786.57056,387.4964,-177.00775,769.7961,430.15182
UncalAccel,1676594913413,31970235165960,1.1437693,1.3609179,10.323833,0.037048545,-0.031444572,0.0098014325
OrientationDeg,1676594913413,31970235165960,0.0,0.0,-10.0
UncalGyro,1676594913417,31970239413681,-0.9450085,0.8217665,-1.4504995,-0.0003678383,-0.0017186713,-0.0003239105
UncalMag,1676594913419,31970241415360,-174.3624,787.43677,387.35,-177.00775,769.7961,430.15182
UncalAccel,1676594913421,31970243645036,0.9529416,1.0767702,10.490733,0.037048545,-0.031444572,0.0098014325
OrientationDeg,1676594913421,31970243645036,0.0,1.0,-9.0
UncalGyro,1676594913425,31970247895605,-0.84314674,0.96745783,-1.4089607,-0.0003678383,-0.0017186713,-0.0003239105
UncalMag,1676594913429,31970251418616,-174.4356,787.9736,387.716,-177.00775,769.7961,430.15182
UncalAccel,1676594913430,31970252135901,0.82612205,0.6687939,10.449456,0.037048545,-0.031444572,0.0098014325
OrientationDeg,1676594913430,31970252135901,1.0,1.0,-9.0
UncalGyro,1676594913434,31970256379787,-0.7860308,1.0499246,-1.34314,-0.0003678383,-0.0017186713,-0.0003239105
UncalAccel,1676594913438,31970260618170,0.70947194,0.31405798,10.2927265,0.037048545,-0.031444572,0.0098014325
OrientationDeg,1676594913438,31970260618170,2.0,2.0,-8.0
UncalMag,1676594913439,31970261415931,-174.2282,787.9736,387.35,-177.00775,769.7961,430.15182
UncalGyro,1676594913442,31970264857378,-0.7680103,1.0595458,-1.2617421,-0.0003678383,-0.0017186713,-0.0003239105
UncalAccel,1676594913447,31970269096625,0.5210371,0.10767702,10.020543,0.037048545,-0.031444572,0.0098014325
UncalMag,1676594913449,31970271407874,-173.69139,788.242,387.2768,-177.00775,769.7961,430.15182
OrientationDeg,1676594913448,31970269096625,2.0,2.0,-8.0
UncalGyro,1676594913451,31970273335537,-0.7464773,1.0022771,-1.1798862,-0.0003678383,-0.0017186713,-0.0003239105
UncalAccel,1676594913455,31970277568752,0.29970104,0.08255238,9.623335,0.037048545,-0.031444572,0.0098014325
OrientationDeg,1676594913455,31970277568752,3.0,3.0,-8.0
UncalMag,1676594913459,31970281418454,-173.6548,788.7788,387.88678,-177.00775,769.7961,430.15182
UncalGyro,1676594913459,31970281815681,-0.6818783,0.8894198,-1.1134546,-0.0003678383,-0.0017186713,-0.0003239105
UncalAccel,1676594913464,31970286047086,0.0047856453,0.17706887,9.329616,0.037048545,-0.031444572,0.0098014325
OrientationDeg,1676594913464,31970286047086,3.0,3.0,-7.0
UncalGyro,1676594913468,31970290301287,-0.5488624,0.7470882,-1.0841331,-0.0003678383,-0.0017186713,-0.0003239105
UncalMag,1676594913469,31970291407712,-174.0696,788.8642,388.04538,-177.00775,769.7961,430.15182
UncalAccel,1676594913472,31970294536873,-0.2428715,0.33439696,9.069396,0.037048545,-0.031444572,0.0098014325
OrientationDeg,1676594913472,31970294536873,4.0,4.0,-7.0
UncalGyro,1676594913476,31970298772488,-0.3475823,0.5914703,-1.0931433,-0.0003678383,-0.0017186713,-0.0003239105
UncalMag,1676594913479,31970301418454,-173.6426,788.852,387.30118,-177.00775,769.7961,430.15182
UncalAccel,1676594913482,31970303018521,-0.38524446,0.4103691,8.920443,0.037048545,-0.031444572,0.0098014325
OrientationDeg,1676594913481,31970303018521,4.0,4.0,-7.0
UncalGyro,1676594913485,31970307259426,-0.098043874,0.4448626,-1.1172725,-0.0003678383,-0.0017186713,-0.0003239105
UncalMag,1676594913489,31970311402179,-172.7764,789.4254,388.387,-177.00775,769.7961,430.15182
UncalAccel,1676594913489,31970311498674,-0.45224348,0.3475575,8.915657,0.037048545,-0.031444572,0.0098014325
OrientationDeg,1676594913489,31970311498674,5.0,4.0,-7.0
UncalGyro,1676594913493,31970315729653,0.16432275,0.3100141,-1.1302534,-0.0003678383,-0.0017186713,-0.0003239105
UncalAccel,1676594913497,31970319979794,-0.4564309,0.232702,8.973084,0.037048545,-0.031444572,0.0098014325
UncalMag,1676594913499,31970321407672,-173.1424,788.5348,387.93558,-177.00775,769.7961,430.15182
OrientationDeg,1676594913497,31970319979794,6.0,4.0,-7.0
UncalGyro,1676594913502,31970324220813,0.39584067,0.18906279,-1.118647,-0.0003678383,-0.0017186713,-0.0003239105
UncalAccel,1676594913506,31970328464780,-0.47138608,0.08853444,9.145967,0.037048545,-0.031444572,0.0098014325
OrientationDeg,1676594913506,31970328464780,6.0,5.0,-7.0
UncalMag,1676594913509,31970331418455,-173.3498,788.69336,387.61838,-177.00775,769.7961,430.15182
UncalGyro,1676594913510,31970332706144,0.5716171,0.08384126,-1.0813842,-0.0003678383,-0.0017186713,-0.0003239105
UncalAccel,1676594913514,31970336940437,-0.506082,-0.017347964,9.336794,0.037048545,-0.031444572,0.0098014325
OrientationDeg,1676594913514,31970336940437,7.0,5.0,-7.0
UncalGyro,1676594913519,31970341181130,0.6914995,-0.00076358154,-1.0282389,-0.0003678383,-0.0017186713,-0.0003239105
UncalMag,1676594913519,31970341402423,-173.2522,788.5104,387.4476,-177.00775,769.7961,430.15182
UncalAccel,1676594913523,31970345419483,-0.55513483,0.010767702,9.48455,0.037048545,-0.031444572,0.0098014325
OrientationDeg,1676594913523,31970345419483,7.0,5.0,-8.0
UncalGyro,1676594913527,31970349660653,0.7675522,-0.045356743,-0.9604329,-0.0003678383,-0.0017186713,-0.0003239105
UncalMag,1676594913529,31970351408853,-173.7646,788.5714,386.9962,-177.00775,769.7961,430.15182
UncalAccel,1676594913531,31970353895486,-0.5988039,0.08673982,9.555139,0.037048545,-0.031444572,0.0098014325
OrientationDeg,1676594913531,31970353895486,8.0,5.0,-8.0
UncalGyro,1676594913536,31970358142800,0.81061816,-0.05100725,-0.88117313,-0.0003678383,-0.0017186713,-0.0003239105
UncalMag,1676594913539,31970361403563,-174.00859,788.15656,387.8746,-177.00775,769.7961,430.15182
UncalAccel,1676594913540,31970362379362,-0.6855437,0.19142582,9.549755,0.037048545,-0.031444572,0.0098014325
OrientationDeg,1676594913540,31970362379362,8.0,5.0,-8.0
UncalGyro,1676594913544,31970366611774,0.8266534,-0.03268129,-0.7959574,-0.0003678383,-0.0017186713,-0.0003239105
UncalAccel,1676594913548,31970370861550,-0.7812566,0.3397808,9.452846,0.037048545,-0.031444572,0.0098014325
UncalMag,1676594913549,31970371408039,-173.9354,787.5466,387.8502,-177.00775,769.7961,430.15182
OrientationDeg,1676594913548,31970370861550,8.0,5.0,-9.0
UncalGyro,1676594913553,31970375100006,0.8174904,-0.007788532,-0.7156286,-0.0003678383,-0.0017186713,-0.0003239105
UncalAccel,1676594913557,31970379345946,-0.91525465,0.5688936,9.273982,0.037048545,-0.031444572,0.0098014325
UncalMag,1676594913559,31970381418538,-174.16719,787.1684,386.66678,-177.00775,769.7961,430.15182
OrientationDeg,1676594913557,31970379345946,9.0,5.0,-9.0
UncalGyro,1676594913562,31970383584492,0.79198676,0.020616703,-0.65026605,-0.0003678383,-0.0017186713,-0.0003239105
UncalAccel,1676594913565,31970387827147,-1.0731809,0.8895318,9.109476,0.037048545,-0.031444572,0.0098014325
OrientationDeg,1676594913565,31970387827147,9.0,5.0,-9.0
UncalMag,1676594913569,31970391418497,-174.0696,787.00977,387.472,-177.00775,769.7961,430.15182
UncalGyro,1676594913570,31970392066976,0.7487681,0.04642576,-0.6070473,-0.0003678383,-0.0017186713,-0.0003239105
UncalAccel,1676594913574,31970396314189,-1.2227324,1.2382857,9.001799,0.037048545,-0.031444572,0.0098014325
OrientationDeg,1676594913574,31970396314189,9.0,5.0,-10.0
UncalGyro,1676594913578,31970400543945,0.6892087,0.064446285,-0.5981898,-0.0003678383,-0.0017186713,-0.0003239105
UncalMag,1676594913579,31970401408081,-173.7768,786.7414,387.04498,-177.00775,769.7961,430.15182
UncalAccel,1676594913582,31970404783966,-1.3669,1.5248263,8.855837,0.037048545,-0.031444572,0.0098014325
OrientationDeg,1676594913582,31970404783966,10.0,5.0,-10.0
UncalGyro,1676594913587,31970409022450,0.6241516,0.07452556,-0.6232353,-0.0003678383,-0.0017186713,-0.0003239105
UncalMag,1676594913589,31970411418457,-173.7768,786.7414,387.04498,-177.00775,769.7961,430.15182
UncalAccel,1676594913591,31970413264506,-1.4668003,1.6779668,8.692527,0.037048545,-0.031444572,0.0098014325
OrientationDeg,1676594913592,31970413264506,10.0,5.0,-10.0
UncalGyro,1676594913595,31970417503102,0.5653558,0.07819075,-0.6621779,-0.0003678383,-0.0017186713,-0.0003239105
UncalMag,1676594913599,31970421418417,-174.4356,786.3022,387.0694,-177.00775,769.7961,430.15182
UncalAccel,1676594913599,31970421731608,-1.5182459,1.7258233,8.529815,0.037048545,-0.031444572,0.0098014325
OrientationDeg,1676594913599,31970421731608,11.0,5.0,-10.0
UncalGyro,1676594913603,31970425975709,0.5154176,0.067500606,-0.700357,-0.0003678383,-0.0017186713,-0.0003239105
Fix,NLP,37.4318049000,-122.1545524000,-16.200000762939453,,119.329,,1676594913347,,,31970169000000,1.5313804
UncalAccel,1676594913608,31970430226623,-1.5320047,1.7018951,8.434102,0.037048545,-0.031444572,0.0098014325
OrientationDeg,1676594913608,31970430226623,11.0,6.0,-11.0
UncalMag,1676594913609,31970431408285,-174.6552,785.94836,387.1182,-177.00775,769.7961,430.15182
UncalGyro,1676594913612,31970434470328,0.4775439,0.03863723,-0.7334964,-0.0003678383,-0.0017186713,-0.0003239105
UncalAccel,1676594913616,31970438708170,-1.5403795,1.6013966,8.4012,0.037048545,-0.031444572,0.0098014325
OrientationDeg,1676594913616,31970438708170,11.0,6.0,-11.0
UncalMag,1676594913619,31970441415325,-174.5576,785.85077,386.8498,-177.00775,769.7961,430.15182
UncalGyro,1676594913620,31970442943757,0.45646906,0.002443461,-0.7620544,-0.0003678383,-0.0017186713,-0.0003239105
Fix,FLP,37.4311283000,-122.1551591000,-16.200000762939453,0.14603907,3.972,119.38607,1676594913347,0.08623096,180.0,31970169000000,2.233337
UncalAccel,1676594913625,31970447182628,-1.5062819,1.4147564,8.402397,0.037048545,-0.031444572,0.0098014325
OrientationDeg,1676594913625,31970447182628,12.0,6.0,-11.0
UncalGyro,1676594913629,31970451424694,0.46089783,-0.02397646,-0.7771733,-0.0003678383,-0.0017186713,-0.0003239105
UncalMag,1676594913629,31970451428264,-174.3868,785.3262,386.7156,-177.00775,769.7961,430.15182
UncalAccel,1676594913633,31970455656434,-1.3800604,1.1712867,8.346764,0.037048545,-0.031444572,0.0098014325
OrientationDeg,1676594913633,31970455656434,12.0,6.0,-11.0
UncalGyro,1676594913637,31970459908773,0.49296826,-0.03848451,-0.77198094,-0.0003678383,-0.0017186713,-0.0003239105
UncalMag,1676594913639,31970461418458,-174.6064,785.1432,386.557,-177.00775,769.7961,430.15182
UncalAccel,1676594913642,31970464148215,-1.2107682,0.93320084,8.239685,0.037048545,-0.031444572,0.0098014325
OrientationDeg,1676594913642,31970464148215,12.0,6.0,-11.0
UncalGyro,1676594913646,31970468391012,0.54199016,-0.051465396,-0.7386888,-0.0003678383,-0.0017186713,-0.0003239105
UncalMag,1676594913649,31970471431113,-174.8992,785.3994,386.3862,-177.00775,769.7961,430.15182
UncalAccel,1676594913650,31970472625500,-1.0755738,0.78065836,8.164909,0.037048545,-0.031444572,0.0098014325
OrientationDeg,1676594913650,31970472625500,13.0,6.0,-12.0
UncalGyro,1676594913654,31970476859427,0.5919284,-0.07238753,-0.69043046,-0.0003678383,-0.0017186713,-0.0003239105
UncalAccel,1676594913659,31970481108044,-1.0504491,0.6801598,8.136793,0.037048545,-0.031444572,0.0098014325
OrientationDeg,1676594913659,31970481108044,13.0,6.0,-12.0
UncalMag,1676594913659,31970481421958,-175.4604,784.8504,385.9104,-177.00775,769.7961,430.15182
UncalGyro,1676594913664,31970485347984,0.6423248,-0.094225965,-0.6389651,-0.0003678383,-0.0017186713,-0.0003239105
UncalAccel,1676594913667,31970489587230,-1.0504491,0.6759724,8.098508,0.037048545,-0.031444572,0.0098014325
OrientationDeg,1676594913667,31970489587230,14.0,6.0,-12.0
UncalMag,1676594913669,31970491418581,-175.4604,784.8504,385.9104,-177.00775,769.7961,430.15182
UncalGyro,1676594913671,31970493833376,0.6899723,-0.10415252,-0.5885687,-0.0003678383,-0.0017186713,-0.0003239105
UncalAccel,1676594913676,31970498070304,-1.0169497,0.73818576,8.060223,0.037048545,-0.031444572,0.0098014325
OrientationDeg,1676594913676,31970498070304,14.0,6.0,-12.0
UncalMag,1676594913679,31970501415530,-175.0456,784.704,386.7034,-177.00775,769.7961,430.15182
UncalGyro,1676594913680,31970502311587,0.72494435,-0.106137834,-0.54000485,-0.0003678383,-0.0017186713,-0.0003239105
UncalAccel,1676594913684,31970506545260,-1.0313065,0.80518484,7.9740815,0.037048545,-0.031444572,0.0098014325
OrientationDeg,1676594913684,31970506545260,14.0,6.0,-13.0
UncalGyro,1676594913688,31970510790387,0.73563445,-0.124005646,-0.4999932,-0.0003678383,-0.0017186713,-0.0003239105
UncalMag,1676594913689,31970511410851,-175.43599,783.5694,386.93518,-177.00775,769.7961,430.15182
UncalAccel,1676594913693,31970515029381,-1.0689936,0.8913264,7.906484,0.037048545,-0.031444572,0.0098014325
OrientationDeg,1676594913693,31970515029381,14.0,6.0,-13.0
UncalGyro,1676594913697,31970519271741,0.7189884,-0.16371189,-0.48258355,-0.0003678383,-0.0017186713,-0.0003239105
UncalMag,1676594913699,31970521408328,-175.5336,783.545,386.0812,-177.00775,769.7961,430.15182
UncalAccel,1676594913701,31970523510175,-1.1078769,1.0301101,7.881958,0.037048545,-0.031444572,0.0098014325
OrientationDeg,1676594913701,31970523510175,15.0,6.0,-13.0
UncalGyro,1676594913705,31970527750409,0.68432176,-0.21731532,-0.48579058,-0.0003678383,-0.0017186713,-0.0003239105
UncalMag,1676594913709,31970531418419,-176.0704,783.3742,386.41058,-177.00775,769.7961,430.15182
UncalAccel,1676594913709,31970531983188,-1.0893325,1.1114662,7.84786,0.037048545,-0.031444572,0.0098014325
OrientationDeg,1676594913709,31970531983188,15.0,6.0,-14.0
UncalGyro,1676594913714,31970536221571,0.6435465,-0.29061913,-0.49739704,-0.0003678383,-0.0017186713,-0.0003239105
UncalAccel,1676594913718,31970540470991,-0.9942178,1.1264212,7.9346,0.037048545,-0.031444572,0.0098014325
UncalMag,1676594913719,31970541408247,-175.558,783.1058,385.8494,-177.00775,769.7961,430.15182
OrientationDeg,1676594913718,31970540470991,15.0,6.0,-14.0
UncalGyro,1676594913722,31970544713769,0.5992588,-0.3831652,-0.51053065,-0.0003678383,-0.0017186713,-0.0003239105
UncalAccel,1676594913726,31970548954064,-0.90089774,1.1312069,8.226524,0.037048545,-0.031444572,0.0098014325
OrientationDeg,1676594913726,31970548954064,16.0,6.0,-14.0
UncalMag,1676594913729,31970551400679,-175.802,782.6422,385.14178,-177.00775,769.7961,430.15182
