# 
# Header Description:
# 
# Version: v3.0.5.6 Platform: 13 Manufacturer: Google Model: Pixel 6
# 
# Raw,utcTimeMillis,TimeNanos,LeapSecond,TimeUncertaintyNanos,FullBiasNanos,BiasNanos,BiasUncertaintyNanos,DriftNanosPerSecond,DriftUncertaintyNanosPerSecond,HardwareClockDiscontinuityCount,Svid,TimeOffsetNanos,State,ReceivedSvTimeNanos,ReceivedSvTimeUncertaintyNanos,Cn0DbHz,PseudorangeRateMetersPerSecond,PseudorangeRateUncertaintyMetersPerSecond,AccumulatedDeltaRangeState,AccumulatedDeltaRangeMeters,AccumulatedDeltaRangeUncertaintyMeters,CarrierFrequencyHz,CarrierCycles,CarrierPhase,CarrierPhaseUncertainty,MultipathIndicator,SnrInDb,ConstellationType,AgcDb,BasebandCn0DbHz,FullInterSignalBiasNanos,FullInterSignalBiasUncertaintyNanos,SatelliteInterSignalBiasNanos,SatelliteInterSignalBiasUncertaintyNanos,CodeType,ChipsetElapsedRealtimeNanos
# 
# UncalAccel,utcTimeMillis,elapsedRealtimeNanos,UncalAccelXMps2,UncalAccelYMps2,UncalAccelZMps2,BiasXMps2,BiasYMps2,BiasZMps2
# 
# Accel,utcTimeMillis,elapsedRealtimeNanos,AccelXMps2,AccelYMps2,AccelZMps2
# 
# UncalGyro,utcTimeMillis,elapsedRealtimeNanos,UncalGyroXRadPerSec,UncalGyroYRadPerSec,UncalGyroZRadPerSec,DriftXRadPerSec,DriftYRadPerSec,DriftZRadPerSec
# 
# Gyro,utcTimeMillis,elapsedRealtimeNanos,GyroXRadPerSec,GyroYRadPerSec,GyroZRadPerSec
# 
# UncalMag,utcTimeMillis,elapsedRealtimeNanos,UncalMagXMicroT,UncalMagYMicroT,UncalMagZMicroT,BiasXMicroT,BiasYMicroT,BiasZMicroT
# 
# Mag,utcTimeMillis,elapsedRealtimeNanos,MagXMicroT,MagYMicroT,MagZMicroT
# 
# OrientationDeg,utcTimeMillis,elapsedRealtimeNanos,yawDeg,rollDeg,pitchDeg
# 
# Fix,Provider,LatitudeDegrees,LongitudeDegrees,AltitudeMeters,SpeedMps,AccuracyMeters,BearingDegrees,UnixTimeMillis,SpeedAccuracyMps,BearingAccuracyDegrees,elapsedRealtimeNanos,VerticalAccuracyMeters
# 
# Nav,Svid,Type,Status,MessageId,Sub-messageId,Data(Bytes)
# 
# Status,UnixTimeMillis,SignalCount,SignalIndex,ConstellationType,Svid,CarrierFrequencyHz,Cn0DbHz,AzimuthDegrees,ElevationDegrees,UsedInFix,HasAlmanacData,HasEphemerisData,BasebandCn0DbHz
# 
UncalGyro,1676594570214,122073845765819,0.11071932,-0.2443461,-0.032528576,0.0005823887,-0.001018099,-0.003144544
UncalAccel,1676594570214,122073845765819,1.7922242,1.5308083,11.194222,0.006110925,-0.043260336,-0.038735468
UncalMag,1676594570214,122073845855724,-77.738396,0.48799998,-113.8138,-45.491467,0.31409264,-60.09035
UncalGyro,1676594570223,122073854745434,0.31703907,-0.028252518,-0.13729197,0.0005823887,-0.001018099,-0.003144544
UncalAccel,1676594570223,122073854745434,2.2289143,0.91465646,11.693126,0.006110925,-0.043260336,-0.038735468
UncalMag,1676594570224,122073855855480,-76.042595,1.7324,-107.0672,-45.491467,0.31409264,-60.09035
UncalGyro,1676594570232,122073863725902,0.5325218,0.20922135,-0.22143865,0.0005823887,-0.001018099,-0.003144544
UncalAccel,1676594570232,122073863725902,2.3922246,0.573081,11.816357,0.006110925,-0.043260336,-0.038735468
UncalMag,1676594570234,122073865855968,-79.3366,0.24399999,-107.5674,-45.491467,0.31409264,-60.09035
OrientationDeg,1676594570224,122073854745434,70.0,-7.0,-10.0
OrientationDeg,1676594570232,122073863725902,71.0,-7.0,-10.0
Fix,FLP,37.4311472000,-122.1552202000,-16.200000762939453,0.16340363,5.148,239.74301,1676594569837,,,122073468649486,3.096336
UncalGyro,1676594570241,122073872704601,0.8003862,0.31780264,-0.29443705,0.0005823887,-0.001018099,-0.003144544
UncalAccel,1676594570241,122073872704601,2.7714868,0.7004988,11.528021,0.006110925,-0.043260336,-0.038735468
OrientationDeg,1676594570241,122073872704601,71.0,-6.0,-11.0
UncalMag,1676594570245,122073875856212,-75.261795,1.7567999,-107.8602,-45.491467,0.31409264,-60.09035
UncalGyro,1676594570250,122073881681102,1.1507174,0.3119994,-0.37415496,0.0005823887,-0.001018099,-0.003144544
UncalAccel,1676594570250,122073881681102,2.9365916,1.3034902,11.760723,0.006110925,-0.043260336,-0.038735468
OrientationDeg,1676594570251,122073881681102,71.0,-6.0,-11.0
UncalMag,1676594570255,122073885856945,-76.372,0.109799996,-107.116,-45.491467,0.31409264,-60.09035
UncalGyro,1676594570260,122073890662059,1.5903877,0.23625213,-0.46731192,0.0005823887,-0.001018099,-0.003144544
UncalAccel,1676594570260,122073890662059,2.964109,2.0518453,12.178869,0.006110925,-0.043260336,-0.038735468
OrientationDeg,1676594570260,122073890662059,71.0,-6.0,-12.0
UncalMag,1676594570265,122073895855968,-75.5058,-0.3416,-105.603195,-45.491467,0.31409264,-60.09035
UncalGyro,1676594570268,122073899643199,2.0772474,0.15943582,-0.5859725,0.0005823887,-0.001018099,-0.003144544
UncalAccel,1676594570268,122073899643199,2.7912276,2.6620152,12.457633,0.006110925,-0.043260336,-0.038735468
OrientationDeg,1676594570268,122073899643199,71.0,-6.0,-13.0
UncalMag,1676594570275,122073905855968,-73.2854,-0.53679997,-105.1152,-45.491467,0.31409264,-60.09035
UncalGyro,1676594570277,122073908621227,2.540894,0.035888333,-0.7304421,0.0005823887,-0.001018099,-0.003144544
UncalAccel,1676594570277,122073908621227,2.4071796,3.1866415,11.853445,0.006110925,-0.043260336,-0.038735468
OrientationDeg,1676594570278,122073908621227,71.0,-6.0,-15.0
UncalMag,1676594570284,122073915860119,-71.9678,-1.0979999,-105.6276,-45.491467,0.31409264,-60.09035
UncalGyro,1676594570286,122073917612682,2.7362182,-0.5190827,-0.9045387,0.0005823887,-0.001018099,-0.003144544
UncalAccel,1676594570286,122073917612682,1.9100707,4.0941195,8.6345005,0.006110925,-0.043260336,-0.038735468
OrientationDeg,1676594570286,122073917612682,72.0,-6.0,-16.0
UncalMag,1676594570295,122073925867199,-74.5664,-3.3794,-104.1514,-45.491467,0.31409264,-60.09035
UncalGyro,1676594570296,122073926589672,2.4738514,-1.6261233,-1.1073459,0.0005823887,-0.001018099,-0.003144544
UncalAccel,1676594570296,122073926589672,1.9304097,4.7216372,6.526424,0.006110925,-0.043260336,-0.038735468
OrientationDeg,1676594570296,122073926589672,72.0,-7.0,-17.0
UncalGyro,1676594570304,122073935569225,2.154369,-2.4791965,-1.3084733,0.0005823887,-0.001018099,-0.003144544
UncalAccel,1676594570304,122073935569225,2.9365916,3.9535413,8.17149,0.006110925,-0.043260336,-0.038735468
UncalMag,1676594570304,122073935854015,-73.8954,-3.599,-103.5048,-45.491467,0.31409264,-60.09035
OrientationDeg,1676594570304,122073935569225,73.0,-8.0,-19.0
UncalGyro,1676594570313,122073944548534,1.9646953,-2.7560713,-1.4895949,0.0005823887,-0.001018099,-0.003144544
UncalAccel,1676594570313,122073944548534,3.7208393,3.101098,9.214162,0.006110925,-0.043260336,-0.038735468
UncalMag,1676594570314,122073945867443,-76.506195,-6.1243997,-102.187195,-45.491467,0.31409264,-60.09035
OrientationDeg,1676594570314,122073944548534,73.0,-9.0,-20.0
UncalGyro,1676594570322,122073953522838,1.8506162,-2.651766,-1.6513215,0.0005823887,-0.001018099,-0.003144544
UncalAccel,1676594570323,122073953522838,4.3651066,3.298506,9.332606,0.006110925,-0.043260336,-0.038735468
OrientationDeg,1676594570323,122073953522838,74.0,-10.0,-21.0
UncalMag,1676594570325,122073955867687,-75.2252,-6.1,-100.796394,-45.491467,0.31409264,-60.09035
UncalGyro,1676594570331,122073962506725,1.7647897,-2.3235786,-1.811979,0.0005823887,-0.001018099,-0.003144544
UncalAccel,1676594570331,122073962506725,4.2131624,3.63051,9.753145,0.006110925,-0.043260336,-0.038735468
OrientationDeg,1676594570331,122073962506725,75.0,-11.0,-22.0
UncalMag,1676594570335,122073965867443,-76.7258,-7.5274,-101.6138,-45.491467,0.31409264,-60.09035
UncalGyro,1676594570341,122073971483897,1.6554449,-1.8564194,-1.9543107,0.0005823887,-0.001018099,-0.003144544
UncalAccel,1676594570340,122073971483897,3.49053,3.8650067,9.745967,0.006110925,-0.043260336,-0.038735468
OrientationDeg,1676594570341,122073971483897,75.0,-12.0,-23.0
UncalMag,1676594570345,122073975867443,-76.738,-8.588799,-100.3938,-45.491467,0.31409264,-60.09035
UncalGyro,1676594570349,122073980453746,1.4094188,-1.2675453,-2.0674734,0.0005823887,-0.001018099,-0.003144544
UncalAccel,1676594570349,122073980453746,2.5902305,3.9756749,9.719048,0.006110925,-0.043260336,-0.038735468
OrientationDeg,1676594570349,122073980453746,76.0,-12.0,-24.0
UncalMag,1676594570355,122073985867443,-80.385796,-11.8462,-106.1034,-45.491467,0.31409264,-60.09035
UncalGyro,1676594570358,122073989447276,1.0961977,-0.60246587,-2.1148155,0.0005823887,-0.001018099,-0.003144544
UncalAccel,1676594570358,122073989447276,1.7216359,3.400201,9.049655,0.006110925,-0.043260336,-0.038735468
OrientationDeg,1676594570359,122073989447276,77.0,-12.0,-25.0
UncalMag,1676594570365,122073995867443,-77.6042,-10.809199,-100.6622,-45.491467,0.31409264,-60.09035
UncalGyro,1676594570368,122073998406383,0.7837401,0.05131268,-2.0352502,0.0005823887,-0.001018099,-0.003144544
UncalAccel,1676594570367,122073998406383,0.8362915,3.0215368,8.285747,0.006110925,-0.043260336,-0.038735468
OrientationDeg,1676594570367,122073998406383,78.0,-12.0,-25.0
UncalMag,1676594570374,122074005867687,-76.2622,-11.6754,-99.918,-45.491467,0.31409264,-60.09035
UncalGyro,1676594570376,122074007403209,0.4298964,0.5870415,-1.8399261,0.0005823887,-0.001018099,-0.003144544
UncalAccel,1676594570377,122074007403209,-0.32243285,2.8606195,7.1359954,0.006110925,-0.043260336,-0.038735468
OrientationDeg,1676594570376,122074007403209,78.0,-11.0,-26.0
UncalMag,1676594570385,122074015854015,-76.4574,-12.2366,-101.6748,-45.491467,0.31409264,-60.09035
UncalGyro,1676594570386,122074016379832,0.0013744468,1.0308352,-1.401783,0.0005823887,-0.001018099,-0.003144544
UncalAccel,1676594570386,122074016379832,-4.388437,3.0089746,6.2602224,0.006110925,-0.043260336,-0.038735468
OrientationDeg,1676594570386,122074016379832,79.0,-10.0,-26.0
UncalGyro,1676594570395,122074025361950,-0.48288897,1.3347405,-0.36453384,0.0005823887,-0.001018099,-0.003144544
UncalAccel,1676594570395,122074025361950,-11.156535,3.4522448,5.7696934,0.006110925,-0.043260336,-0.038735468
UncalMag,1676594570394,122074025855724,-76.4086,-12.773399,-101.869995,-45.491467,0.31409264,-60.09035
OrientationDeg,1676594570394,122074025361950,79.0,-9.0,-26.0
UncalGyro,1676594570404,122074034343334,-0.9460775,1.4164438,0.75732017,0.0005823887,-0.001018099,-0.003144544
UncalAccel,1676594570403,122074034343334,-8.247461,2.1834507,6.5342007,0.006110925,-0.043260336,-0.038735468
OrientationDeg,1676594570404,122074034343334,79.0,-8.0,-25.0
UncalMag,1676594570405,122074035867443,-75.1154,-12.0414,-102.1384,-45.491467,0.31409264,-60.09035
UncalGyro,1676594570412,122074043320446,-1.4359915,1.6552922,1.3663528,0.0005823887,-0.001018099,-0.003144544
UncalAccel,1676594570413,122074043320446,-1.599602,0.44207397,7.1365933,0.006110925,-0.043260336,-0.038735468
OrientationDeg,1676594570413,122074043320446,78.0,-8.0,-24.0
UncalMag,1676594570415,122074045867443,-74.8714,-11.3826,-101.7968,-45.491467,0.31409264,-60.09035
UncalGyro,1676594570422,122074052300060,-1.7910569,1.8431332,1.677436,0.0005823887,-0.001018099,-0.003144544
UncalAccel,1676594570422,122074052300060,1.6983058,0.72382885,6.8339014,0.006110925,-0.043260336,-0.038735468
OrientationDeg,1676594570422,122074052300060,78.0,-7.0,-23.0
UncalMag,1676594570424,122074055867687,-76.1158,-11.0166,-103.9196,-45.491467,0.31409264,-60.09035
UncalGyro,1676594570430,122074061279003,-1.9057468,1.6942347,1.7852536,0.0005823887,-0.001018099,-0.003144544
UncalAccel,1676594570430,122074061279003,3.2129626,1.5541383,7.3692956,0.006110925,-0.043260336,-0.038735468
OrientationDeg,1676594570430,122074061279003,77.0,-7.0,-22.0
UncalMag,1676594570434,122074065855480,-75.6888,-9.7234,-104.6394,-45.491467,0.31409264,-60.09035
UncalGyro,1676594570439,122074070258129,-1.7510452,1.1803443,1.8408424,0.0005823887,-0.001018099,-0.003144544
UncalAccel,1676594570439,122074070258129,2.6590242,2.2390838,8.609376,0.006110925,-0.043260336,-0.038735468
OrientationDeg,1676594570439,122074070258129,76.0,-6.0,-21.0
UncalMag,1676594570445,122074075867199,-75.5302,-8.601,-104.4198,-45.491467,0.31409264,-60.09035
UncalGyro,1676594570448,122074079237438,-1.3935363,0.66553766,1.8625281,0.0005823887,-0.001018099,-0.003144544
UncalAccel,1676594570449,122074079237438,1.6612171,2.097309,10.615159,0.006110925,-0.043260336,-0.038735468
OrientationDeg,1676594570449,122074079237438,75.0,-6.0,-20.0
UncalMag,1676594570455,122074085867443,-76.4696,-8.7962,-105.908195,-45.491467,0.31409264,-60.09035
UncalGyro,1676594570458,122074088216686,-0.8897252,0.4016439,1.87444,0.0005823887,-0.001018099,-0.003144544
UncalAccel,1676594570458,122074088216686,1.5248263,2.2899313,11.549557,0.006110925,-0.043260336,-0.038735468
OrientationDeg,1676594570458,122074088216686,74.0,-6.0,-19.0
UncalMag,1676594570465,122074095867687,-74.7006,-6.8929996,-104.7004,-45.491467,0.31409264,-60.09035
UncalGyro,1676594570466,122074097195934,-0.33643404,0.37415496,1.8005253,0.0005823887,-0.001018099,-0.003144544
UncalAccel,1676594570467,122074097195934,1.5936198,3.3493536,11.793625,0.006110925,-0.043260336,-0.038735468
OrientationDeg,1676594570467,122074097195934,73.0,-7.0,-19.0
UncalMag,1676594570475,122074105867687,-74.8348,-6.466,-103.8586,-45.491467,0.31409264,-60.09035
UncalGyro,1676594570475,122074106172008,0.18478674,0.3735441,1.5920676,0.0005823887,-0.001018099,-0.003144544
UncalAccel,1676594570475,122074106172008,1.3686945,3.8297126,10.756336,0.006110925,-0.043260336,-0.038735468
OrientationDeg,1676594570476,122074106172008,72.0,-7.0,-19.0
UncalGyro,1676594570485,122074115154430,0.6383542,0.3043636,1.288773,0.0005823887,-0.001018099,-0.003144544
UncalAccel,1676594570485,122074115154430,1.2005987,3.3553355,9.342177,0.006110925,-0.043260336,-0.038735468
UncalMag,1676594570484,122074115856701,-73.81,-5.2826,-104.615,-45.491467,0.31409264,-60.09035
OrientationDeg,1676594570484,122074115154430,71.0,-7.0,-19.0
UncalGyro,1676594570493,122074124137095,1.0227411,0.10567969,0.9807441,0.0005823887,-0.001018099,-0.003144544
UncalAccel,1676594570494,122074124137095,1.4871392,3.0897322,7.783852,0.006110925,-0.043260336,-0.038735468
UncalMag,1676594570495,122074125867687,-77.896996,-6.8441997,-106.054596,-45.491467,0.31409264,-60.09035
OrientationDeg,1676594570494,122074124137095,71.0,-7.0,-20.0
UncalGyro,1676594570503,122074133112926,1.3526083,-0.17577648,0.75640386,0.0005823887,-0.001018099,-0.003144544
UncalAccel,1676594570502,122074133112926,1.1365907,2.8037899,6.9326053,0.006110925,-0.043260336,-0.038735468
OrientationDeg,1676594570502,122074133112926,70.0,-7.0,-21.0
UncalMag,1676594570505,122074135867443,-78.4704,-7.1247997,-107.8724,-45.491467,0.31409264,-60.09035
UncalGyro,1676594570512,122074142080455,1.58321,-0.56505036,0.659429,0.0005823887,-0.001018099,-0.003144544
UncalAccel,1676594570512,122074142080455,0.76271224,2.2827528,5.5890355,0.006110925,-0.043260336,-0.038735468
OrientationDeg,1676594570511,122074142080455,70.0,-8.0,-21.0
UncalMag,1676594570514,122074145867443,-80.4224,-8.5156,-106.213196,-45.491467,0.31409264,-60.09035
UncalGyro,1676594570520,122074151071422,1.6878207,-0.9860892,0.6272059,0.0005823887,-0.001018099,-0.003144544
UncalAccel,1676594570520,122074151071422,1.1599208,2.030908,4.922036,0.006110925,-0.043260336,-0.038735468
UncalMag,1676594570524,122074155855236,-79.446396,-8.1862,-104.9566,-45.491467,0.31409264,-60.09035
OrientationDeg,1676594570520,122074151071422,69.0,-8.0,-22.0
UncalGyro,1676594570529,122074160050914,1.6621643,-1.4899004,0.6206391,0.0005823887,-0.001018099,-0.003144544
UncalAccel,1676594570529,122074160050914,1.9890338,1.4931214,4.165306,0.006110925,-0.043260336,-0.038735468
OrientationDeg,1676594570530,122074160050914,69.0,-9.0,-23.0
UncalMag,1676594570535,122074165867687,-80.4102,-8.5766,-105.3226,-45.491467,0.31409264,-60.09035
UncalGyro,1676594570539,122074169030224,1.5512923,-1.9359847,0.65133506,0.0005823887,-0.001018099,-0.003144544
UncalAccel,1676594570539,122074169030224,1.4847465,1.3046865,4.5768714,0.006110925,-0.043260336,-0.038735468
OrientationDeg,1676594570539,122074169030224,68.0,-11.0,-24.0
UncalMag,1676594570545,122074175867443,-81.3008,-8.8938,-104.505196,-45.491467,0.31409264,-60.09035
UncalGyro,1676594570546,122074177997752,1.3707817,-2.0712914,0.7012733,0.0005823887,-0.001018099,-0.003144544
UncalAccel,1676594570546,122074177997752,1.2490535,1.4697913,6.3158555,0.006110925,-0.043260336,-0.038735468
OrientationDeg,1676594570546,122074177997752,68.0,-12.0,-24.0
UncalMag,1676594570554,122074185867687,-84.0336,-9.7234,-105.0054,-45.491467,0.31409264,-60.09035
UncalGyro,1676594570555,122074186988170,1.1780536,-1.8877263,0.81413066,0.0005823887,-0.001018099,-0.003144544
UncalAccel,1676594570555,122074186988170,0.8171489,1.1132607,7.2508507,0.006110925,-0.043260336,-0.038735468
OrientationDeg,1676594570555,122074186988170,67.0,-13.0,-25.0
UncalMag,1676594570565,122074195867687,-80.385796,-8.174,-102.2726,-45.491467,0.31409264,-60.09035
UncalGyro,1676594570564,122074195964916,1.0737484,-1.6084082,1.0076222,0.0005823887,-0.001018099,-0.003144544
UncalAccel,1676594570564,122074195964916,0.8021938,1.2472588,7.585248,0.006110925,-0.043260336,-0.038735468
OrientationDeg,1676594570564,122074195964916,66.0,-14.0,-25.0
UncalGyro,1676594570574,122074204944957,1.0647382,-1.4285084,1.1931726,0.0005823887,-0.001018099,-0.003144544
UncalAccel,1676594570574,122074204944957,1.7377875,1.6205392,6.929016,0.006110925,-0.043260336,-0.038735468
UncalMag,1676594570575,122074205857677,-80.6542,-8.235,-100.4914,-45.491467,0.31409264,-60.09035
OrientationDeg,1676594570573,122074204944957,65.0,-15.0,-25.0
UncalGyro,1676594570582,122074213926220,1.1255192,-1.2961034,1.3121386,0.0005823887,-0.001018099,-0.003144544
UncalAccel,1676594570583,122074213926220,2.4538395,2.1487548,7.535597,0.006110925,-0.043260336,-0.038735468
OrientationDeg,1676594570583,122074213926220,65.0,-16.0,-26.0
UncalMag,1676594570585,122074215862072,-79.2512,-8.1008,-98.8688,-45.491467,0.31409264,-60.09035
UncalGyro,1676594570591,122074222907787,1.236544,-1.2292136,1.377043,0.0005823887,-0.001018099,-0.003144544
UncalAccel,1676594570591,122074222907787,2.728416,2.4155545,7.3381886,0.006110925,-0.043260336,-0.038735468
OrientationDeg,1676594570591,122074222907787,64.0,-17.0,-26.0
UncalMag,1676594570595,122074225867443,-81.0446,-8.2838,-99.7106,-45.491467,0.31409264,-60.09035
UncalGyro,1676594570600,122074231876842,1.3231341,-1.1053606,1.4124732,0.0005823887,-0.001018099,-0.003144544
UncalAccel,1676594570600,122074231876842,2.6548367,2.3485553,7.689934,0.006110925,-0.043260336,-0.038735468
OrientationDeg,1676594570600,122074231876842,63.0,-18.0,-27.0
UncalMag,1676594570605,122074235867443,-79.3488,-6.6489997,-99.979,-45.491467,0.31409264,-60.09035
UncalGyro,1676594570609,122074240864208,1.3313808,-0.8315403,1.4472924,0.0005823887,-0.001018099,-0.003144544
UncalAccel,1676594570609,122074240864208,2.7086751,1.9986051,7.8646097,0.006110925,-0.043260336,-0.038735468
OrientationDeg,1676594570609,122074240864208,62.0,-19.0,-27.0
UncalMag,1676594570615,122074245857921,-83.326,-8.9426,-98.4052,-45.491467,0.31409264,-60.09035
UncalGyro,1676594570619,122074249843151,1.2611313,-0.41996986,1.4853189,0.0005823887,-0.001018099,-0.003144544
UncalAccel,1676594570618,122074249843151,3.0299118,1.6223338,7.85444,0.006110925,-0.043260336,-0.038735468
OrientationDeg,1676594570618,122074249843151,60.0,-20.0,-27.0
UncalMag,1676594570625,122074255867687,-83.2894,-8.3448,-94.854996,-45.491467,0.31409264,-60.09035
UncalGyro,1676594570628,122074258822643,1.1424707,-0.011911872,1.5703819,0.0005823887,-0.001018099,-0.003144544
UncalAccel,1676594570627,122074258822643,3.3056846,1.3040884,7.496713,0.006110925,-0.043260336,-0.038735468
OrientationDeg,1676594570628,122074258822643,59.0,-21.0,-27.0
UncalMag,1676594570635,122074265867443,-86.1686,-9.3452,-95.3552,-45.491467,0.31409264,-60.09035
UncalGyro,1676594570636,122074267802196,1.0297661,0.24327709,1.6920967,0.0005823887,-0.001018099,-0.003144544
UncalAccel,1676594570636,122074267802196,4.045665,1.0504491,6.869794,0.006110925,-0.043260336,-0.038735468
OrientationDeg,1676594570636,122074267802196,58.0,-21.0,-28.0
UncalMag,1676594570645,122074275867199,-84.5582,-7.4542,-93.9644,-45.491467,0.31409264,-60.09035
UncalGyro,1676594570646,122074276781139,0.9427178,0.2499966,1.7895297,0.0005823887,-0.001018099,-0.003144544
UncalAccel,1676594570645,122074276781139,4.686343,0.87338024,6.309275,0.006110925,-0.043260336,-0.038735468
OrientationDeg,1676594570645,122074276781139,57.0,-21.0,-28.0
UncalGyro,1676594570654,122074285760631,0.84116143,0.21563543,1.8541287,0.0005823887,-0.001018099,-0.003144544
UncalAccel,1676594570654,122074285760631,4.743771,0.5814559,6.741778,0.006110925,-0.043260336,-0.038735468
UncalMag,1676594570655,122074285855480,-82.410995,-6.4416,-93.756996,-45.491467,0.31409264,-60.09035
OrientationDeg,1676594570655,122074285760631,56.0,-22.0,-28.0
UncalGyro,1676594570663,122074294739696,0.6986771,0.31413746,1.9126191,0.0005823887,-0.001018099,-0.003144544
UncalAccel,1676594570663,122074294739696,4.7988057,0.18305093,7.564909,0.006110925,-0.043260336,-0.038735468
OrientationDeg,1676594570663,122074294739696,55.0,-22.0,-28.0
UncalMag,1676594570664,122074295856212,-79.9466,-5.551,-92.5858,-45.491467,0.31409264,-60.09035
UncalGyro,1676594570672,122074303718822,0.5198463,0.51159966,2.0379992,0.0005823887,-0.001018099,-0.003144544
UncalAccel,1676594570672,122074303718822,4.847859,-0.028115666,7.85444,0.006110925,-0.043260336,-0.038735468
OrientationDeg,1676594570672,122074303718822,53.0,-23.0,-27.0
UncalMag,1676594570675,122074305863048,-82.9478,-5.9902,-92.9152,-45.491467,0.31409264,-60.09035
UncalGyro,1676594570682,122074312698253,0.3199407,0.6122397,2.2007947,0.0005823887,-0.001018099,-0.003144544
UncalAccel,1676594570682,122074312698253,5.2019963,-0.15493527,7.393224,0.006110925,-0.043260336,-0.038735468
OrientationDeg,1676594570682,122074312698253,52.0,-23.0,-27.0
UncalMag,1676594570684,122074315871593,-82.472,-5.429,-92.1588,-45.491467,0.31409264,-60.09035
UncalGyro,1676594570691,122074321677379,0.10705414,0.5349652,2.317928,0.0005823887,-0.001018099,-0.003144544
UncalAccel,1676594570691,122074321677379,5.432306,-0.15672988,7.0845494,0.006110925,-0.043260336,-0.038735468
OrientationDeg,1676594570690,122074321677379,51.0,-23.0,-27.0
UncalMag,1676594570695,122074325867687,-82.2768,-4.4652,-93.622795,-45.491467,0.31409264,-60.09035
UncalGyro,1676594570700,122074330647228,-0.07941248,0.36636642,2.3839016,0.0005823887,-0.001018099,-0.003144544
UncalAccel,1676594570700,122074330647228,5.703891,-0.047856454,7.32443,0.006110925,-0.043260336,-0.038735468
OrientationDeg,1676594570700,122074330647228,50.0,-24.0,-26.0
UncalMag,1676594570705,122074335859142,-83.8506,-3.8186,-94.379196,-45.491467,0.31409264,-60.09035
UncalGyro,1676594570709,122074339635997,-0.16432275,0.116217114,2.4156666,0.0005823887,-0.001018099,-0.003144544
UncalAccel,1676594570708,122074339635997,6.285945,-0.25244278,7.893324,0.006110925,-0.043260336,-0.038735468
OrientationDeg,1676594570708,122074339635997,48.0,-24.0,-25.0
UncalMag,1676594570715,122074345867443,-84.0946,-2.6596,-96.2214,-45.491467,0.31409264,-60.09035
UncalGyro,1676594570718,122074348615307,-0.0926988,-0.076358154,2.4584272,0.0005823887,-0.001018099,-0.003144544
UncalAccel,1676594570718,122074348615307,6.302695,-0.79860455,9.482158,0.006110925,-0.043260336,-0.038735468
OrientationDeg,1676594570718,122074348615307,47.0,-25.0,-25.0
UncalMag,1676594570725,122074355867443,-86.071,-2.3058,-96.257996,-45.491467,0.31409264,-60.09035
UncalGyro,1676594570727,122074357594555,0.11056661,-0.101556346,2.5147796,0.0005823887,-0.001018099,-0.003144544
UncalAccel,1676594570727,122074357594555,6.712466,-1.2269198,10.711471,0.006110925,-0.043260336,-0.038735468
OrientationDeg,1676594570727,122074357594555,46.0,-25.0,-24.0
UncalMag,1676594570734,122074365867443,-82.35,-0.53679997,-93.769196,-45.491467,0.31409264,-60.09035
UncalGyro,1676594570735,122074366573925,0.35811976,-0.10216721,2.562885,0.0005823887,-0.001018099,-0.003144544
UncalAccel,1676594570735,122074366573925,6.98106,-1.4015958,10.087543,0.006110925,-0.043260336,-0.038735468
OrientationDeg,1676594570735,122074366573925,44.0,-26.0,-24.0
UncalGyro,1676594570745,122074375541149,0.54076844,-0.20173825,2.559831,0.0005823887,-0.001018099,-0.003144544
UncalAccel,1676594570745,122074375541149,6.9786673,-0.99003035,8.416754,0.006110925,-0.043260336,-0.038735468
UncalMag,1676594570745,122074375851085,-83.3016,0.183,-93.513,-45.491467,0.31409264,-60.09035
OrientationDeg,1676594570744,122074375541149,43.0,-27.0,-23.0
UncalGyro,1676594570753,122074384532421,0.61315596,-0.4915938,2.5146267,0.0005823887,-0.001018099,-0.003144544
UncalAccel,1676594570753,122074384532421,6.8967133,-1.105484,6.48096,0.006110925,-0.043260336,-0.038735468
UncalMag,1676594570754,122074385867199,-82.581795,0.61,-93.317795,-45.491467,0.31409264,-60.09035
OrientationDeg,1676594570754,122074384532421,42.0,-28.0,-23.0
UncalGyro,1676594570762,122074393511058,0.59773165,-0.87781334,2.5318837,0.0005823887,-0.001018099,-0.003144544
UncalAccel,1676594570762,122074393511058,6.667002,-1.8376877,5.5369916,0.006110925,-0.043260336,-0.038735468
OrientationDeg,1676594570762,122074393511058,40.0,-29.0,-22.0
UncalMag,1676594570765,122074395867687,-83.8872,1.1712,-92.695595,-45.491467,0.31409264,-60.09035
UncalGyro,1676594570772,122074402490795,0.5403103,-1.2452488,2.651766,0.0005823887,-0.001018099,-0.003144544
UncalAccel,1676594570772,122074402490795,6.6574306,-2.6243281,5.30429,0.006110925,-0.043260336,-0.038735468
OrientationDeg,1676594570772,122074402490795,39.0,-30.0,-22.0
UncalMag,1676594570774,122074405867687,-84.0336,1.7811999,-91.5732,-45.491467,0.31409264,-60.09035
UncalGyro,1676594570781,122074411470653,0.46028697,-1.5015068,2.8409815,0.0005823887,-0.001018099,-0.003144544
UncalAccel,1676594570780,122074411470653,7.0025954,-3.3164523,5.802595,0.006110925,-0.043260336,-0.038735468
OrientationDeg,1676594570780,122074411470653,37.0,-31.0,-21.0
UncalMag,1676594570785,122074415856212,-84.4118,2.9157999,-90.9388,-45.491467,0.31409264,-60.09035
UncalGyro,1676594570790,122074420437450,0.38087448,-1.505172,3.0505083,0.0005823887,-0.001018099,-0.003144544
UncalAccel,1676594570789,122074420437450,7.431509,-4.1431723,7.4015985,0.006110925,-0.043260336,-0.038735468
OrientationDeg,1676594570789,122074420437450,36.0,-33.0,-21.0
UncalMag,1676594570795,122074425867687,-85.7172,3.2452,-92.0978,-45.491467,0.31409264,-60.09035
UncalGyro,1676594570798,122074429428661,0.33628133,-1.2388347,3.2340734,0.0005823887,-0.001018099,-0.003144544
UncalAccel,1676594570798,122074429428661,7.8311105,-4.006183,8.781659,0.006110925,-0.043260336,-0.038735468
OrientationDeg,1676594570798,122074429428661,34.0,-34.0,-20.0
UncalMag,1676594570804,122074435867199,-85.5586,5.1605997,-90.645996,-45.491467,0.31409264,-60.09035
UncalGyro,1676594570808,122074438406810,0.2996294,-0.8958339,3.3092098,0.0005823887,-0.001018099,-0.003144544
UncalAccel,1676594570808,122074438406810,8.796016,-3.182454,8.69492,0.006110925,-0.043260336,-0.038735468
OrientationDeg,1676594570808,122074438406810,32.0,-35.0,-19.0
UncalMag,1676594570814,122074445867443,-86.2418,6.1,-90.0604,-45.491467,0.31409264,-60.09035
UncalGyro,1676594570816,122074447387340,0.24938573,-0.68584895,3.265533,0.0005823887,-0.001018099,-0.003144544
UncalAccel,1676594570817,122074447387340,9.102896,-2.4269204,7.4847493,0.006110925,-0.043260336,-0.038735468
OrientationDeg,1676594570817,122074447387340,31.0,-36.0,-18.0
UncalMag,1676594570825,122074455867687,-85.826996,7.381,-88.937996,-45.491467,0.31409264,-60.09035
UncalGyro,1676594570825,122074456367320,0.1611157,-0.6055202,3.193756,0.0005823887,-0.001018099,-0.003144544
UncalAccel,1676594570825,122074456367320,8.737391,-2.3581266,6.2775702,0.006110925,-0.043260336,-0.038735468
OrientationDeg,1676594570826,122074456367320,30.0,-36.0,-17.0
UncalGyro,1676594570834,122074465333813,0.010995574,-0.54382277,3.1587842,0.0005823887,-0.001018099,-0.003144544
UncalAccel,1676594570834,122074465333813,7.925029,-3.106482,5.541179,0.006110925,-0.043260336,-0.038735468
UncalMag,1676594570834,122074465855968,-86.2174,8.3326,-88.7062,-45.491467,0.31409264,-60.09035
OrientationDeg,1676594570835,122074465333813,28.0,-37.0,-16.0
UncalGyro,1676594570844,122074474324901,-0.19746219,-0.44318274,3.201392,0.0005823887,-0.001018099,-0.003144544
UncalAccel,1676594570843,122074474324901,7.3028946,-3.7597225,5.1200423,0.006110925,-0.043260336,-0.038735468
OrientationDeg,1676594570843,122074474324901,27.0,-38.0,-15.0
UncalMag,1676594570845,122074475867443,-86.6566,8.9548,-88.962395,-45.491467,0.31409264,-60.09035
UncalGyro,1676594570853,122074483304637,-0.44700065,-0.35155296,3.3232596,0.0005823887,-0.001018099,-0.003144544
UncalAccel,1676594570853,122074483304637,7.3429747,-4.2394834,4.8843493,0.006110925,-0.043260336,-0.038735468
OrientationDeg,1676594570852,122074483304637,26.0,-38.0,-14.0
UncalMag,1676594570855,122074485867687,-86.2296,10.4798,-87.901,-45.491467,0.31409264,-60.09035
UncalGyro,1676594570862,122074492283275,-0.68737614,-0.3494149,3.4193182,0.0005823887,-0.001018099,-0.003144544
UncalAccel,1676594570862,122074492283275,7.9513497,-3.7016966,4.1892343,0.006110925,-0.043260336,-0.038735468
OrientationDeg,1676594570861,122074492283275,24.0,-39.0,-12.0
UncalMag,1676594570865,122074495867687,-85.826996,12.0048,-87.1568,-45.491467,0.31409264,-60.09035
UncalGyro,1676594570871,122074501262829,-0.8790351,-0.5748242,3.4333682,0.0005823887,-0.001018099,-0.003144544
UncalAccel,1676594570871,122074501262829,8.800203,-3.0358937,3.229114,0.006110925,-0.043260336,-0.038735468
OrientationDeg,1676594570871,122074501262829,23.0,-39.0,-11.0
UncalMag,1676594570874,122074505853771,-85.216995,13.627399,-88.2426,-45.491467,0.31409264,-60.09035
UncalGyro,1676594570879,122074510242077,-0.9877691,-0.98349303,3.3738089,0.0005823887,-0.001018099,-0.003144544
UncalAccel,1676594570879,122074510242077,9.61496,-2.9353952,3.4480574,0.006110925,-0.043260336,-0.038735468
OrientationDeg,1676594570880,122074510242077,22.0,-40.0,-9.0
UncalMag,1676594570885,122074515858165,-84.973,15.6404,-87.7546,-45.491467,0.31409264,-60.09035
UncalGyro,1676594570888,122074519221325,-1.0207558,-1.3067935,3.2736268,0.0005823887,-0.001018099,-0.003144544
UncalAccel,1676594570888,122074519221325,9.879965,-2.6536403,5.180461,0.006110925,-0.043260336,-0.038735468
OrientationDeg,1676594570889,122074519221325,21.0,-41.0,-7.0
UncalMag,1676594570894,122074525867199,-86.302795,16.6408,-87.229996,-45.491467,0.31409264,-60.09035
UncalGyro,1676594570897,122074528200634,-1.0899363,-1.3548992,3.1125112,0.0005823887,-0.001018099,-0.003144544
UncalAccel,1676594570898,122074528200634,10.238888,-2.2187448,6.619146,0.006110925,-0.043260336,-0.038735468
OrientationDeg,1676594570898,122074528200634,21.0,-42.0,-6.0
UncalMag,1676594570904,122074535867687,-84.5094,18.1048,-85.9246,-45.491467,0.31409264,-60.09035
UncalGyro,1676594570907,122074537179576,-1.2896893,-1.1505647,2.9275718,0.0005823887,-0.001018099,-0.003144544
UncalAccel,1676594570906,122074537179576,10.592427,-2.1822543,7.4787674,0.006110925,-0.043260336,-0.038735468
OrientationDeg,1676594570906,122074537179576,20.0,-42.0,-4.0
UncalMag,1676594570915,122074545867443,-83.5578,19.9104,-84.1434,-45.491467,0.31409264,-60.09035
UncalGyro,1676594570915,122074546156139,-1.5705346,-0.8892671,2.731484,0.0005823887,-0.001018099,-0.003144544
UncalAccel,1676594570915,122074546156139,10.696515,-1.8855443,7.085148,0.006110925,-0.043260336,-0.038735468
OrientationDeg,1676594570916,122074546156139,19.0,-43.0,-3.0
UncalGyro,1676594570925,122074555138561,-1.8787161,-0.8367327,2.46927,0.0005823887,-0.001018099,-0.003144544
UncalAccel,1676594570925,122074555138561,10.450055,-1.3040884,5.7667027,0.006110925,-0.043260336,-0.038735468
UncalMag,1676594570924,122074555855968,-82.777,21.594,-83.448,-45.491467,0.31409264,-60.09035
OrientationDeg,1676594570924,122074555138561,19.0,-43.0,-1.0
UncalGyro,1676594570933,122074564102672,-2.11451,-0.9990701,2.2149973,0.0005823887,-0.001018099,-0.003144544
UncalAccel,1676594570934,122074564102672,9.726226,-1.7222341,5.8803616,0.006110925,-0.043260336,-0.038735468
OrientationDeg,1676594570934,122074564102672,19.0,-44.0,0.0
UncalMag,1676594570935,122074565867443,-83.203995,23.3508,-85.1438,-45.491467,0.31409264,-60.09035
UncalGyro,1676594570942,122074573096874,-2.2554672,-1.15255,2.0760255,0.0005823887,-0.001018099,-0.003144544
UncalAccel,1676594570943,122074573096874,8.889935,-3.054438,7.1898336,0.006110925,-0.043260336,-0.038735468
OrientationDeg,1676594570943,122074573096874,19.0,-45.0,1.0
UncalMag,1676594570944,122074575867931,-83.5578,24.8514,-82.9722,-45.491467,0.31409264,-60.09035
UncalGyro,1676594570951,122074582075999,-2.3561072,-1.153619,2.025171,0.0005823887,-0.001018099,-0.003144544
UncalAccel,1676594570951,122074582075999,8.368897,-4.1294136,8.749954,0.006110925,-0.043260336,-0.038735468
OrientationDeg,1676594570952,122074582075999,19.0,-45.0,3.0
UncalMag,1676594570955,122074585867687,-83.5944,25.9616,-83.5456,-45.491467,0.31409264,-60.09035
UncalGyro,1676594570961,122074591055248,-2.454762,-0.97219205,2.0476203,0.0005823887,-0.001018099,-0.003144544
UncalAccel,1676594570960,122074591055248,8.088937,-5.2438707,10.630115,0.006110925,-0.043260336,-0.038735468
OrientationDeg,1676594570960,122074591055248,20.0,-46.0,4.0
UncalMag,1676594570965,122074595855968,-84.8266,26.6936,-84.5704,-45.491467,0.31409264,-60.09035
UncalGyro,1676594570969,122074600034374,-2.5497515,-0.6582073,2.1343632,0.0005823887,-0.001018099,-0.003144544
UncalAccel,1676594570970,122074600034374,7.440482,-5.3449674,11.513066,0.006110925,-0.043260336,-0.038735468
OrientationDeg,1676594570970,122074600034374,20.0,-46.0,6.0
UncalMag,1676594570975,122074605855724,-83.2284,28.035599,-84.5704,-45.491467,0.31409264,-60.09035
UncalGyro,1676594570979,122074609008434,-2.6752844,-0.42119157,2.2124012,0.0005823887,-0.001018099,-0.003144544
UncalAccel,1676594570979,122074609008434,7.536793,-4.9292145,10.89153,0.006110925,-0.043260336,-0.038735468
OrientationDeg,1676594570979,122074609008434,20.0,-46.0,8.0
UncalMag,1676594570984,122074615855724,-80.7884,29.511799,-81.374,-45.491467,0.31409264,-60.09035
UncalGyro,1676594570987,122074617991160,-2.8200593,-0.29932398,2.220037,0.0005823887,-0.001018099,-0.003144544
UncalAccel,1676594570987,122074617991160,7.530811,-4.651049,10.6307125,0.006110925,-0.043260336,-0.038735468
OrientationDeg,1676594570987,122074617991160,20.0,-46.0,10.0
UncalMag,1676594570995,122074625867443,-82.569595,30.5854,-82.7038,-45.491467,0.31409264,-60.09035
UncalGyro,1676594570995,122074626968699,-2.9451342,-0.25381452,2.1528418,0.0005823887,-0.001018099,-0.003144544
UncalAccel,1676594570995,122074626968699,7.515856,-4.262215,10.460822,0.006110925,-0.043260336,-0.038735468
OrientationDeg,1676594570996,122074626968699,21.0,-46.0,11.0
UncalMag,1676594571005,122074635867443,-79.6416,32.1958,-78.214195,-45.491467,0.31409264,-60.09035
UncalGyro,1676594571004,122074635953014,-3.0141618,-0.33582318,2.0599904,0.0005823887,-0.001018099,-0.003144544
UncalAccel,1676594571004,122074635953014,7.678568,-4.6564326,10.688739,0.006110925,-0.043260336,-0.038735468
OrientationDeg,1676594571004,122074635953014,21.0,-47.0,13.0
UncalGyro,1676594571014,122074644935130,-2.956435,-0.3996586,1.9984456,0.0005823887,-0.001018099,-0.003144544
UncalAccel,1676594571014,122074644935130,7.3956165,-5.536393,12.546167,0.006110925,-0.043260336,-0.038735468
UncalMag,1676594571014,122074645856212,-80.825,32.3178,-78.6534,-45.491467,0.31409264,-60.09035
OrientationDeg,1676594571013,122074644935130,21.0,-47.0,15.0
UncalGyro,1676594571022,122074653908763,-2.839149,-0.30772337,1.9798143,0.0005823887,-0.001018099,-0.003144544
UncalAccel,1676594571022,122074653908763,6.884749,-6.1322064,13.674981,0.006110925,-0.043260336,-0.038735468
OrientationDeg,1676594571022,122074653908763,22.0,-47.0,17.0
UncalMag,1676594571024,122074655867443,-81.154396,33.5988,-78.043396,-45.491467,0.31409264,-60.09035
UncalGyro,1676594571032,122074662889415,-2.7844765,-0.10842858,2.0199788,0.0005823887,-0.001018099,-0.003144544
UncalAccel,1676594571032,122074662889415,6.27099,-6.478567,13.889737,0.006110925,-0.043260336,-0.038735468
OrientationDeg,1676594571032,122074662889415,22.0,-47.0,19.0
UncalMag,1676594571034,122074665867443,-80.4102,34.3918,-76.5184,-45.491467,0.31409264,-60.09035
UncalGyro,1676594571040,122074671871470,-2.7794368,0.051465396,2.1006129,0.0005823887,-0.001018099,-0.003144544
UncalAccel,1676594571041,122074671871470,6.052047,-6.0173507,13.528421,0.006110925,-0.043260336,-0.038735468
OrientationDeg,1676594571041,122074671871470,23.0,-47.0,20.0
UncalMag,1676594571045,122074675867687,-81.8498,34.6114,-78.0068,-45.491467,0.31409264,-60.09035
UncalGyro,1676594571050,122074680847667,-2.7601945,0.07284568,2.1397083,0.0005823887,-0.001018099,-0.003144544
UncalAccel,1676594571049,122074680847667,6.222535,-5.322834,12.918251,0.006110925,-0.043260336,-0.038735468
OrientationDeg,1676594571049,122074680847667,23.0,-47.0,22.0
UncalMag,1676594571055,122074685861583,-80.276,36.295,-75.8352,-45.491467,0.31409264,-60.09035
UncalGyro,1676594571059,122074689827282,-2.707202,-0.046883907,2.1239784,0.0005823887,-0.001018099,-0.003144544
UncalAccel,1676594571058,122074689827282,6.726823,-5.0099726,12.68854,0.006110925,-0.043260336,-0.038735468
OrientationDeg,1676594571058,122074689827282,23.0,-48.0,24.0
UncalMag,1676594571065,122074695867687,-79.5562,36.722,-75.64,-45.491467,0.31409264,-60.09035
Raw,1676594570000,73836000000,,,-1360629714164369043,0.0,7.964245342972376,299.0,1.0,21,2,0.0,16431,434587918908831,21,37.52103805541992,-559.891531310946,0.15,16,-41328.59346140109,340282346638528860000000000000000000000,1575420030,,,,0,,1,,33.32103729248047,0.0,1.0,0.0,1.0,C,122074602822000
Raw,1676594570000,73836000000,,,-1360629714164369043,0.0,7.964245342972376,299.0,1.0,21,6,0.0,16431,434587928387042,26,34.75907897949219,544.8592252843648,0.5759523100780979,16,39957.36752087934,340282346638528860000000000000000000000,1575420030,,,,0,,1,,30.559080123901367,0.320142130558394,1.0,0.320142130558394,1.0,C,122074602822000
Raw,1676594570000,73836000000,,,-1360629714164369043,0.0,7.964245342972376,299.0,1.0,21,11,0.0,16431,434587932365516,20,37.97752380371094,22.00535509518079,0.15,16,1270.7702134809979,340282346638528860000000000000000000000,1575420030,,,,0,,1,,33.777523040771484,-0.20372681261465636,1.0,-0.20372681261465636,1.0,C,122074602822000
Raw,1676594570000,73836000000,,,-1360629714164369043,0.0,7.964245342972376,299.0,1.0,21,12,0.0,16431,434587931786082,17,39.74073791503906,-179.0238287387574,0.15,16,-13351.491495508222,340282346638528860000000000000000000000,1575420030,,,,0,,1,,35.54073715209961,-0.6984919076624261,1.0,-0.6984919076624261,1.0,C,122074602822000
Raw,1676594570000,73836000000,,,-1360629714164369043,0.0,7.964245342972376,299.0,1.0,21,19,0.0,16431,434587924002261,16,40.807945251464844,596.9641780743286,0.15,16,43822.40640021511,340282346638528860000000000000000000000,1575420030,,,,0,,1,,36.60794448852539,0.0,1.0,0.0,1.0,C,122074602822000
Raw,1676594570000,73836000000,,,-1360629714164369043,0.0,7.964245342972376,299.0,1.0,21,20,0.0,16431,434587923356997,23,36.359153747558594,-450.0294593061885,0.15,16,-33117.680551612284,340282346638528860000000000000000000000,1575420030,,,,0,,1,,32.15915298461914,0.0,1.0,0.0,1.0,C,122074602822000
Raw,1676594570000,73836000000,,,-1360629714164369043,0.0,7.964245342972376,299.0,1.0,21,24,0.0,16431,434587925771289,24,35.50664520263672,599.988859760902,0.5418646945897005,16,43994.95615276614,340282346638528860000000000000000000000,1575420030,,,,0,,1,,31.306644439697266,-0.20372681261465636,1.0,-0.20372681261465636,1.0,C,122074602822000
Raw,1676594570000,73836000000,,,-1360629714164369043,0.0,7.964245342972376,299.0,1.0,21,25,0.0,16431,434587926919129,13,45.507572174072266,-443.58842034268173,0.15,16,-32802.14986164928,340282346638528860000000000000000000000,1575420030,,,,0,,1,,41.30757141113281,-2.0372682255564105,1.0,-2.0372682255564105,1.0,C,122074602822000
Raw,1676594570000,73836000000,,,-1360629714164369043,0.0,7.964245342972376,299.0,1.0,21,29,0.0,16431,434587918852172,34,31.34674835205078,-407.4501100424154,0.7312834385172957,16,-30040.094780523792,340282346638528860000000000000000000000,1575420030,,,,0,,1,,27.14674949645996,-0.6984919076624261,1.0,-0.6984919076624261,1.0,C,122074602822000
Raw,1676594570000,73836000000,,,-1360629714164369043,0.0,7.964245342972376,299.0,1.0,21,6,0.0,81921,434587928387591,8,33.900455474853516,545.9086241207021,0.6100669186057921,16,41596.033043703355,340282346638528860000000000000000000000,1176450050,,,,0,,1,,29.80045509338379,1.9208527336454408,2.458936429627448,1.9208527336454408,1.0,Q,122074602822000
Raw,1676594570000,73836000000,,,-1360629714164369043,0.0,7.964245342972376,299.0,1.0,21,11,0.0,81921,434587932366035,8,36.90631103515625,21.651977535184628,0.15,16,1303.4705771419228,340282346638528860000000000000000000000,1176450050,,,,0,,1,,32.806312561035156,0.0,2.458936429627448,0.0,1.0,Q,122074602822000
Raw,1676594570000,73836000000,,,-1360629714164369043,0.0,7.964245342972376,299.0,1.0,21,24,0.0,81921,434587925771831,21,30.486291885375977,599.9544364798139,0.7631274365137535,16,45793.84393925331,340282346638528860000000000000000000000,1176450050,,,,0,,1,,26.38629150390625,3.5215636101095664,2.458936429627448,3.5215636101095664,1.0,Q,122074602822000
Raw,1676594570000,73836000000,,,-1360629714164369043,0.0,7.964245342972376,299.0,1.0,21,25,0.0,81921,434587926919656,9,45.99335861206055,-443.6278196624221,0.15,16,-34174.12741912584,340282346638528860000000000000000000000,1176450050,,,,0,,1,,41.89336013793945,1.0186341127782053,2.458936429627448,1.0186341127782053,1.0,Q,122074602822000
Raw,1676594570000,73836000000,,,-1360629714164369043,0.0,7.964245342972376,299.0,1.0,21,14,0.0,32867,13369931878159,36,39.47593307495117,655.6209037290419,0.15,16,48492.99216407743,340282346638528860000000000000000000000,1598062460,,,,0,,3,,35.27593231201172,50.29141902923584,2.0000000474974513,50.29141902923584,2.0000000474974513,C,122074602822000
Raw,1676594570000,73836000000,,,-1360629714164369043,0.0,7.964245342972376,299.0,1.0,21,18,0.0,32867,13369929624950,61,32.78500747680664,-408.41092857424997,0.6649467963083917,16,-30556.541478145642,340282346638528860000000000000000000000,1600312450,,,,0,,3,,28.585006713867188,50.29141902923584,2.0000000474974513,50.29141902923584,2.0000000474974513,C,122074602822000
Raw,1676594570000,73836000000,,,-1360629714164369043,0.0,7.964245342972376,299.0,1.0,21,16,0.0,32995,13369925296200,33,40.51778793334961,-649.212583923797,0.15,16,-47315.7270694444,340282346638528860000000000000000000000,1601437440,,,,0,,3,,36.317787170410156,50.29141902923584,2.0000000474974513,50.29141902923584,2.0000000474974513,C,122074602822000
Raw,1676594570000,73836000000,,,-1360629714164369043,0.0,7.964245342972376,299.0,1.0,21,15,0.0,32867,13369936121302,36,39.22654342651367,-85.15725854375813,0.15,16,-6681.27904680959,340282346638528860000000000000000000000,1602000000,,,,0,,3,,35.02654266357422,50.29141902923584,2.0000000474974513,50.29141902923584,2.0000000474974513,C,122074602822000
Raw,1676594570000,73836000000,,,-1360629714164369043,0.0,7.964245342972376,299.0,1.0,21,24,0.0,32995,13369928116593,39,38.215267181396484,726.5017795700523,0.15,16,53053.227544719084,340282346638528860000000000000000000000,1603124990,,,,0,,3,,34.01526641845703,50.29141902923584,2.0000000474974513,50.29141902923584,2.0000000474974513,C,122074602822000
Raw,1676594570000,73836000000,,,-1360629714164369043,0.0,7.964245342972376,299.0,1.0,21,17,0.0,32995,13369936358473,43,37.235958099365234,178.9794533803647,0.15,16,13030.618576031924,340282346638528860000000000000000000000,1604249980,,,,0,,3,,33.03595733642578,50.29141902923584,2.0000000474974513,50.29141902923584,2.0000000474974513,C,122074602822000
Raw,1676594570000,73836000000,,,-1360629714164369043,0.0,7.964245342972376,299.0,1.0,21,2,0.0,85026,434587922395646,23,35.940223693847656,178.28200703131017,0.5224794320674795,16,13270.56476155057,340282346638528860000000000000000000000,1575420030,,,,0,,6,,31.740222930908203,-6.024492904543876,1.5000000237487257,-6.024492904543876,1.5000000237487257,C,122074602822000
Raw,1676594570000,73836000000,,,-1360629714164369043,0.0,7.964245342972376,299.0,1.0,21,11,0.0,85026,434587909852331,49,28.503475189208984,618.9294351594103,299.793513799249,16,45370.60581558904,340282346638528860000000000000000000000,1575420030,,,,0,,6,,24.303476333618164,-6.024492904543876,1.5000000237487257,-6.024492904543876,1.5000000237487257,C,122074602822000
Raw,1676594570000,73836000000,,,-1360629714164369043,0.0,7.964245342972376,299.0,1.0,21,25,0.0,85026,434587912100822,27,34.376739501953125,528.88089251208,0.5923746621709629,16,38905.70733797912,340282346638528860000000000000000000000,1575420030,,,,0,,6,,30.176740646362305,-6.024492904543876,1.5000000237487257,-6.024492904543876,1.5000000237487257,C,122074602822000
Raw,1676594570000,73836000000,,,-1360629714164369043,0.0,7.964245342972376,299.0,1.0,21,30,0.0,85026,434587916709553,17,39.699913024902344,-276.3846942681437,0.15,16,-20324.551791842918,340282346638528860000000000000000000000,1575420030,,,,0,,6,,35.49991226196289,-6.024492904543876,1.5000000237487257,-6.024492904543876,1.5000000237487257,C,122074602822000
Raw,1676594570000,73836000000,,,-1360629714164369043,0.0,7.964245342972376,299.0,1.0,21,34,0.0,85026,434587920429564,34,31.518779754638672,-222.25747596162716,0.7209530592586915,16,-16555.524457091546,340282346638528860000000000000000000000,1575420030,,,,0,,6,,27.31878089904785,-6.024492904543876,1.5000000237487257,-6.024492904543876,1.5000000237487257,C,122074602822000
Raw,1676594570000,73836000000,,,-1360629714164369043,0.0,7.964245342972376,299.0,1.0,21,36,0.0,85026,434587920979986,22,36.52738571166992,309.9178097567194,0.15,16,22892.47944383357,340282346638528860000000000000000000000,1575420030,,,,0,,6,,32.32738494873047,-6.024492904543876,1.5000000237487257,-6.024492904543876,1.5000000237487257,C,122074602822000
Raw,1676594570000,73836000000,,,-1360629714164369043,0.0,7.964245342972376,299.0,1.0,21,2,0.0,84003,434587922396174,10,33.21158981323242,178.31830484750697,0.6435641820127977,16,13159.418711373157,340282346638528860000000000000000000000,1176450050,,,,0,,6,,29.111589431762695,-4.362151958048344,2.9589364533761735,-4.362151958048344,1.5000000237487257,Q,122074602822000
Raw,1676594570000,73836000000,,,-1360629714164369043,0.0,7.964245342972376,299.0,1.0,21,11,0.0,16384,434587909852878,1000000000,19.083839416503906,619.7128545050437,299792458,16,44758.567561141026,340282346638528860000000000000000000000,1176450050,,,,0,,6,,14.983839988708496,4.134257324039933,2.9589364533761735,4.134257324039933,1.5000000237487257,Q,122074602822000
Raw,1676594570000,73836000000,,,-1360629714164369043,0.0,7.964245342972376,299.0,1.0,21,25,0.0,84003,434587912101372,11,34.26264190673828,528.9207008212986,0.5944478340966395,16,40447.34340778777,340282346638528860000000000000000000000,1176450050,,,,0,,6,,30.162641525268555,-8.795061148703097,2.9589364533761735,-8.795061148703097,1.5000000237487257,Q,122074602822000
Raw,1676594570000,73836000000,,,-1360629714164369043,0.0,7.964245342972376,299.0,1.0,21,30,0.0,84003,434587916710088,10,41.655799865722656,-276.35374739762096,0.15,16,-20097.300033235475,340282346638528860000000000000000000000,1176450050,,,,0,,6,,37.55580139160156,-8.425652049481869,2.9589364533761735,-8.425652049481869,1.5000000237487257,Q,122074602822000
Raw,1676594570000,73836000000,,,-1360629714164369043,0.0,7.964245342972376,299.0,1.0,21,34,0.0,84003,434587920430107,26,28.44890785217285,-221.8375971384944,0.8573830025659688,16,-17014.318732631564,340282346638528860000000000000000000000,1176450050,,,,0,,6,,24.348907470703125,-11.011515744030472,2.9589364533761735,-11.011515744030472,1.5000000237487257,Q,122074602822000
Raw,1676594570000,73836000000,,,-1360629714164369043,0.0,7.964245342972376,299.0,1.0,21,36,0.0,84003,434587920980505,11,32.43437957763672,310.0488568020496,0.678259923051125,16,23228.5192912129,340282346638528860000000000000000000000,1176450050,,,,0,,6,,28.334379196166992,-11.011515744030472,2.9589364533761735,-11.011515744030472,1.5000000237487257,Q,122074602822000
UncalGyro,1676594571067,122074698794872,-2.6241243,-0.24083363,2.0822868,0.0005823887,-0.001018099,-0.003144544
UncalAccel,1676594571067,122074698794872,7.3286176,-4.7401814,12.787843,0.006110925,-0.043260336,-0.038735468
OrientationDeg,1676594571067,122074698794872,24.0,-48.0,26.0
Status,0,30,0,3,15,1602000000,41.88,318.0,76.0,1,1,1,37.681854
Status,0,30,1,1,11,1176450050,42.42,125.0,76.0,1,1,1,38.322582
Status,0,30,2,1,11,1575420030,40.01,125.0,76.0,1,1,1,35.81024
Status,0,30,3,6,2,1176450050,38.85,106.0,76.0,1,1,1,34.752117
Status,0,30,4,6,2,1575420030,39.01,106.0,76.0,1,1,1,34.813107
Status,0,30,5,3,17,1604249980,40.16,318.0,73.0,1,1,1,35.964554
Status,0,30,6,1,12,1575420030,41.52,327.0,65.0,1,1,1,37.32299
Status,0,30,7,6,36,1575420030,41.04,51.0,63.0,1,1,1,36.835747
Status,0,30,8,6,36,1176450050,39.10,51.0,63.0,1,1,1,34.998817
Status,0,30,9,6,34,1575420030,37.22,206.0,59.0,1,1,1,33.016247
Status,0,30,10,6,34,1176450050,36.15,206.0,59.0,1,1,1,32.048412
Status,0,30,11,6,30,1176450050,44.13,315.0,46.0,1,1,1,40.03391
Status,0,30,12,6,30,1575420030,42.82,315.0,46.0,1,1,1,38.622562
Status,0,30,13,3,14,1598062460,41.93,152.0,46.0,1,1,1,37.731125
Status,0,30,14,1,6,1176450050,40.01,48.0,45.0,1,1,1,35.911777
Status,0,30,15,1,6,1575420030,43.03,48.0,45.0,1,1,1,38.82746
Status,0,30,16,1,24,1176450050,37.96,219.0,38.0,1,1,1,33.858467
Status,0,30,17,1,24,1575420030,37.83,219.0,38.0,1,1,1,33.63215
Status,0,30,18,3,18,1600312450,38.33,239.0,36.0,1,1,1,34.128906
Status,0,30,19,1,25,1176450050,47.06,312.0,35.0,1,1,1,42.95742
Status,0,30,20,1,25,1575420030,45.88,312.0,35.0,1,1,1,41.681404
Status,0,30,21,3,24,1603124990,42.60,34.0,31.0,1,1,1,38.40399
Status,0,30,22,1,20,1575420030,40.35,142.0,26.0,1,1,1,36.152824
Status,0,30,23,6,25,1575420030,40.27,126.0,26.0,1,1,1,36.06687
Status,0,30,24,6,25,1176450050,36.10,126.0,26.0,1,1,1,31.997782
Status,0,30,25,1,19,1575420030,45.17,60.0,25.0,1,1,1,40.972862
Status,0,30,26,3,16,1601437440,44.89,328.0,21.0,1,1,1,40.689667
Status,0,30,27,1,29,1575420030,40.82,264.0,15.0,1,1,1,36.623688
Status,0,30,28,6,11,1575420030,37.84,41.0,14.0,0,1,1,33.63801
Status,0,30,29,1,2,1575420030,39.92,217.0,11.0,1,1,1,35.724155
UncalMag,1676594571075,122074705867687,-81.6546,36.8196,-74.5664,-45.491467,0.31409264,-60.09035
Fix,GPS,37.4311282110,-122.1551735335,-10.95246597758606,0.0,3.8634996,85.3819,1676594570000,0.16117766,22.38643,122074602822000,3.0
UncalGyro,1676594571076,122074707785534,-2.5375342,-0.44959682,2.0282254,0.0005823887,-0.001018099,-0.003144544
UncalAccel,1676594571077,122074707785534,7.508079,-4.386044,12.786048,0.006110925,-0.043260336,-0.038735468
OrientationDeg,1676594571077,122074707785534,24.0,-48.0,27.0
Fix,FLP,37.4311417000,-122.1552163000,-16.200000762939453,0.15189265,4.87,236.94339,1676594570916,,,122074546156139,2.9541872
UncalMag,1676594571084,122074715864269,-81.6546,36.9416,-73.6148,-45.491467,0.31409264,-60.09035
UncalGyro,1676594571085,122074716764721,-2.435978,-0.6533204,1.9666806,0.0005823887,-0.001018099,-0.003144544
UncalAccel,1676594571085,122074716764721,7.366903,-4.625326,12.988839,0.006110925,-0.043260336,-0.038735468
OrientationDeg,1676594571085,122074716764721,24.0,-49.0,29.0
UncalGyro,1676594571094,122074725743786,-2.304642,-0.8330675,1.9963076,0.0005823887,-0.001018099,-0.003144544
UncalAccel,1676594571094,122074725743786,6.9535427,-5.5669017,13.130016,0.006110925,-0.043260336,-0.038735468
UncalMag,1676594571094,122074725867687,-82.728195,37.5882,-71.979996,-45.491467,0.31409264,-60.09035
OrientationDeg,1676594571095,122074725743786,25.0,-49.0,30.0
UncalGyro,1676594571103,122074734723583,-2.1482604,-1.1345295,2.2133174,0.0005823887,-0.001018099,-0.003144544
UncalAccel,1676594571104,122074734723583,6.1471615,-6.4163537,12.059228,0.006110925,-0.043260336,-0.038735468
OrientationDeg,1676594571103,122074734723583,25.0,-50.0,32.0
UncalMag,1676594571104,122074735857189,-75.4448,40.8456,-70.113396,-45.491467,0.31409264,-60.09035
UncalGyro,1676594571112,122074743690807,-1.951409,-1.6870571,2.5648704,0.0005823887,-0.001018099,-0.003144544
UncalAccel,1676594571112,122074743690807,5.7876396,-7.0378895,10.543973,0.006110925,-0.043260336,-0.038735468
OrientationDeg,1676594571113,122074743690807,25.0,-51.0,34.0
UncalMag,1676594571114,122074745867687,-72.6632,42.0412,-67.954,-45.491467,0.31409264,-60.09035
UncalGyro,1676594571121,122074752681713,-1.7171422,-2.40742,3.0897565,0.0005823887,-0.001018099,-0.003144544
UncalAccel,1676594571121,122074752681713,6.2931237,-7.636095,9.580264,0.006110925,-0.043260336,-0.038735468
OrientationDeg,1676594571121,122074752681713,25.0,-52.0,35.0
UncalMag,1676594571125,122074755867199,-76.6038,41.3946,-67.7222,-45.491467,0.31409264,-60.09035
UncalGyro,1676594571131,122074761661327,-1.4828753,-3.1137328,3.6141841,0.0005823887,-0.001018099,-0.003144544
UncalAccel,1676594571131,122074761661327,7.132406,-8.614759,8.98804,0.006110925,-0.043260336,-0.038735468
OrientationDeg,1676594571130,122074761661327,24.0,-53.0,37.0
UncalMag,1676594571135,122074765867443,-74.725,42.09,-65.2334,-45.491467,0.31409264,-60.09035
UncalGyro,1676594571139,122074770629344,-1.2744176,-3.5627189,3.9854376,0.0005823887,-0.001018099,-0.003144544
UncalAccel,1676594571139,122074770629344,7.6103725,-9.489935,9.338589,0.006110925,-0.043260336,-0.038735468
OrientationDeg,1676594571140,122074770629344,24.0,-54.0,39.0
UncalMag,1676594571144,122074775867443,-74.8714,42.9684,-66.4412,-45.491467,0.31409264,-60.09035
UncalGyro,1676594571148,122074779619518,-1.0919216,-3.6285396,4.223217,0.0005823887,-0.001018099,-0.003144544
UncalAccel,1676594571148,122074779619518,7.8550386,-10.488339,10.4159565,0.006110925,-0.043260336,-0.038735468
OrientationDeg,1676594571149,122074779619518,23.0,-55.0,41.0
UncalMag,1676594571155,122074785867443,-70.6746,44.3714,-63.000797,-45.491467,0.31409264,-60.09035
UncalGyro,1676594571158,122074788599010,-0.9815077,-3.2305608,4.455498,0.0005823887,-0.001018099,-0.003144544
UncalAccel,1676594571157,122074788599010,8.320442,-11.842677,12.56531,0.006110925,-0.043260336,-0.038735468
OrientationDeg,1676594571157,122074788599010,22.0,-56.0,44.0
UncalMag,1676594571165,122074795863781,-70.638,44.347,-60.1704,-45.491467,0.31409264,-60.09035
UncalGyro,1676594571167,122074797562266,-0.96837413,-2.5792258,4.7719264,0.0005823887,-0.001018099,-0.003144544
UncalAccel,1676594571166,122074797562266,9.235099,-13.094722,12.629916,0.006110925,-0.043260336,-0.038735468
OrientationDeg,1676594571166,122074797562266,20.0,-56.0,46.0
UncalMag,1676594571175,122074805867687,-69.027596,45.4694,-62.073597,-45.491467,0.31409264,-60.09035
UncalGyro,1676594571175,122074806557506,-0.7840455,-2.1836905,5.1885366,0.0005823887,-0.001018099,-0.003144544
UncalAccel,1676594571176,122074806557506,10.133006,-14.308481,12.384652,0.006110925,-0.043260336,-0.038735468
OrientationDeg,1676594571176,122074806557506,19.0,-56.0,48.0
UncalGyro,1676594571184,122074815540965,-0.48197266,-1.8272507,5.637981,0.0005823887,-0.001018099,-0.003144544
UncalAccel,1676594571185,122074815540965,11.002198,-14.672789,13.411173,0.006110925,-0.043260336,-0.038735468
UncalMag,1676594571185,122074815861339,-64.0622,47.763,-59.2798,-45.491467,0.31409264,-60.09035
OrientationDeg,1676594571185,122074815540965,17.0,-55.0,51.0
UncalGyro,1676594571194,122074824515697,-0.06352998,-1.4143058,5.9049287,0.0005823887,-0.001018099,-0.003144544
UncalAccel,1676594571193,122074824515697,12.346965,-13.467404,14.267205,0.006110925,-0.043260336,-0.038735468
OrientationDeg,1676594571193,122074824515697,14.0,-54.0,53.0
UncalMag,1676594571194,122074825867687,-61.3904,49.2514,-60.1338,-45.491467,0.31409264,-60.09035
UncalGyro,1676594571203,122074833495311,0.48624873,-0.98624194,5.9592957,0.0005823887,-0.001018099,-0.003144544
UncalAccel,1676594571203,122074833495311,13.392629,-12.025728,14.21217,0.006110925,-0.043260336,-0.038735468
OrientationDeg,1676594571202,122074833495311,11.0,-51.0,56.0
UncalMag,1676594571205,122074835867443,-61.3782,48.8976,-60.5974,-45.491467,0.31409264,-60.09035
UncalGyro,1676594571211,122074842474620,1.086882,-0.57619864,5.8632374,0.0005823887,-0.001018099,-0.003144544
UncalAccel,1676594571211,122074842474620,13.856836,-11.17508,13.103695,0.006110925,-0.043260336,-0.038735468
OrientationDeg,1676594571211,122074842474620,7.0,-48.0,58.0
UncalMag,1676594571215,122074845867443,-56.376198,50.203,-58.438,-45.491467,0.31409264,-60.09035
UncalGyro,1676594571221,122074851453686,1.6494889,-0.33460143,5.6671495,0.0005823887,-0.001018099,-0.003144544
UncalAccel,1676594571220,122074851453686,14.144573,-11.00519,11.190035,0.006110925,-0.043260336,-0.038735468
OrientationDeg,1676594571220,122074851453686,2.0,-44.0,59.0
UncalMag,1676594571225,122074855867443,-54.0338,51.325397,-60.267998,-45.491467,0.31409264,-60.09035
UncalGyro,1676594571230,122074860415477,2.1394029,-0.35460728,5.4597607,0.0005823887,-0.001018099,-0.003144544
UncalAccel,1676594571230,122074860415477,13.609777,-10.940583,9.443872,0.006110925,-0.043260336,-0.038735468
OrientationDeg,1676594571229,122074860415477,356.0,-39.0,60.0
UncalMag,1676594571235,122074865867443,-49.8248,51.2766,-59.5238,-45.491467,0.31409264,-60.09035
UncalGyro,1676594571239,122074869412059,2.589916,-0.63453627,5.3829446,0.0005823887,-0.001018099,-0.003144544
UncalAccel,1676594571239,122074869412059,12.696317,-10.925629,8.210373,0.006110925,-0.043260336,-0.038735468
OrientationDeg,1676594571238,122074869412059,351.0,-34.0,61.0
UncalMag,1676594571245,122074875867443,-43.0172,52.9846,-58.084198,-45.491467,0.31409264,-60.09035
UncalGyro,1676594571248,122074878395824,3.073263,-1.0567969,5.3785157,0.0005823887,-0.001018099,-0.003144544
UncalAccel,1676594571248,122074878395824,12.409178,-10.833505,7.537391,0.006110925,-0.043260336,-0.038735468
OrientationDeg,1676594571248,122074878395824,344.0,-29.0,61.0
UncalMag,1676594571255,122074885867687,-41.443398,52.960197,-58.987,-45.491467,0.31409264,-60.09035
UncalGyro,1676594571257,122074887356090,3.596011,-1.504103,5.336213,0.0005823887,-0.001018099,-0.003144544
UncalAccel,1676594571257,122074887356090,12.57847,-10.7431755,7.243074,0.006110925,-0.043260336,-0.038735468
OrientationDeg,1676594571257,122074887356090,338.0,-24.0,60.0
UncalMag,1676594571265,122074895867443,-37.759,53.3018,-62.5616,-45.491467,0.31409264,-60.09035
UncalGyro,1676594571265,122074896349681,4.157549,-1.8947513,5.250234,0.0005823887,-0.001018099,-0.003144544
UncalAccel,1676594571266,122074896349681,12.904492,-10.678569,6.9732833,0.006110925,-0.043260336,-0.038735468
OrientationDeg,1676594571266,122074896349681,331.0,-19.0,59.0
UncalGyro,1676594571275,122074905329174,4.754975,-2.25394,5.1253123,0.0005823887,-0.001018099,-0.003144544
UncalAccel,1676594571274,122074905329174,12.7292185,-10.332209,6.297311,0.006110925,-0.043260336,-0.038735468
UncalMag,1676594571274,122074905855968,-42.3584,51.483997,-66.4534,-45.491467,0.31409264,-60.09035
OrientationDeg,1676594571274,122074905329174,325.0,-15.0,58.0
UncalGyro,1676594571284,122074914308483,5.361564,-2.6057985,4.9626694,0.0005823887,-0.001018099,-0.003144544
UncalAccel,1676594571284,122074914308483,12.200404,-9.61496,5.4125648,0.006110925,-0.043260336,-0.038735468
OrientationDeg,1676594571284,122074914308483,320.0,-11.0,56.0
UncalMag,1676594571284,122074915867199,-39.528,50.690998,-67.624596,-45.491467,0.31409264,-60.09035
UncalGyro,1676594571293,122074923287487,5.921575,-2.8736627,4.756808,0.0005823887,-0.001018099,-0.003144544
UncalAccel,1676594571293,122074923287487,11.904293,-9.019147,4.4799623,0.006110925,-0.043260336,-0.038735468
OrientationDeg,1676594571292,122074923287487,315.0,-9.0,53.0
UncalMag,1676594571294,122074925867443,-37.392998,49.849197,-73.0536,-45.491467,0.31409264,-60.09035
UncalGyro,1676594571301,122074932266674,6.3766694,-3.037222,4.5039096,0.0005823887,-0.001018099,-0.003144544
UncalAccel,1676594571302,122074932266674,11.609976,-8.356335,3.3816566,0.006110925,-0.043260336,-0.038735468
