# 
# Header Description:
# 
# Version: v3.0.5.6 Platform: 13 Manufacturer: Google Model: Pixel 6
# 
# Raw,utcTimeMillis,TimeNanos,LeapSecond,TimeUncertaintyNanos,FullBiasNanos,BiasNanos,BiasUncertaintyNanos,DriftNanosPerSecond,DriftUncertaintyNanosPerSecond,HardwareClockDiscontinuityCount,Svid,TimeOffsetNanos,State,ReceivedSvTimeNanos,ReceivedSvTimeUncertaintyNanos,Cn0DbHz,PseudorangeRateMetersPerSecond,PseudorangeRateUncertaintyMetersPerSecond,AccumulatedDeltaRangeState,AccumulatedDeltaRangeMeters,AccumulatedDeltaRangeUncertaintyMeters,CarrierFrequencyHz,CarrierCycles,CarrierPhase,CarrierPhaseUncertainty,MultipathIndicator,SnrInDb,ConstellationType,AgcDb,BasebandCn0DbHz,FullInterSignalBiasNanos,FullInterSignalBiasUncertaintyNanos,SatelliteInterSignalBiasNanos,SatelliteInterSignalBiasUncertaintyNanos,CodeType,ChipsetElapsedRealtimeNanos
# 
# UncalAccel,utcTimeMillis,elapsedRealtimeNanos,UncalAccelXMps2,UncalAccelYMps2,UncalAccelZMps2,BiasXMps2,BiasYMps2,BiasZMps2
# 
# Accel,utcTimeMillis,elapsedRealtimeNanos,AccelXMps2,AccelYMps2,AccelZMps2
# 
# UncalGyro,utcTimeMillis,elapsedRealtimeNanos,UncalGyroXRadPerSec,UncalGyroYRadPerSec,UncalGyroZRadPerSec,DriftXRadPerSec,DriftYRadPerSec,DriftZRadPerSec
# 
# Gyro,utcTimeMillis,elapsedRealtimeNanos,GyroXRadPerSec,GyroYRadPerSec,GyroZRadPerSec
# 
# UncalMag,utcTimeMillis,elapsedRealtimeNanos,UncalMagXMicroT,UncalMagYMicroT,UncalMagZMicroT,BiasXMicroT,BiasYMicroT,BiasZMicroT
# 
# Mag,utcTimeMillis,elapsedRealtimeNanos,MagXMicroT,MagYMicroT,MagZMicroT
# 
# OrientationDeg,utcTimeMillis,elapsedRealtimeNanos,yawDeg,rollDeg,pitchDeg
# 
# Fix,Provider,LatitudeDegrees,LongitudeDegrees,AltitudeMeters,SpeedMps,AccuracyMeters,BearingDegrees,UnixTimeMillis,SpeedAccuracyMps,BearingAccuracyDegrees,elapsedRealtimeNanos,VerticalAccuracyMeters
# 
# Nav,Svid,Type,Status,MessageId,Sub-messageId,Data(Bytes)
# 
# Status,UnixTimeMillis,SignalCount,SignalIndex,ConstellationType,Svid,CarrierFrequencyHz,Cn0DbHz,AzimuthDegrees,ElevationDegrees,UsedInFix,HasAlmanacData,HasEphemerisData,BasebandCn0DbHz
# 
UncalAccel,1676592654663,120158294040233,0.8362915,2.3503501,9.990633,0.006110925,-0.043260336,-0.038735468
UncalMag,1676592654666,120158297864513,-57.6694,-29.951,-98.8444,-47.646854,1.2478232,-64.42538
UncalGyro,1676592654672,120158303010814,0.12721269,-0.68310004,-0.34132096,0.00064016436,-0.0009768492,-0.0033557685
UncalAccel,1676592654672,120158303010814,0.83389866,1.9764715,10.77488,0.006110925,-0.043260336,-0.038735468
OrientationDeg,1676592654673,120158303010814,175.0,-4.0,-15.0
UncalMag,1676592654677,120158307864513,-57.4132,-29.6582,-99.1738,-47.646854,1.2478232,-64.42538
UncalGyro,1676592654681,120158311993846,0.21227567,-0.5737552,-0.23258694,0.00064016436,-0.0009768492,-0.0033557685
UncalAccel,1676592654680,120158311993846,0.5988039,1.1491531,11.755938,0.006110925,-0.043260336,-0.038735468
OrientationDeg,1676592654680,120158311993846,175.0,-4.0,-15.0
UncalMag,1676592654687,120158317864513,-54.6072,-28.4382,-98.4174,-47.646854,1.2478232,-64.42538
UncalGyro,1676592654690,120158320971508,0.09285152,-0.14477506,0.0050396384,0.00064016436,-0.0009768492,-0.0033557685
UncalAccel,1676592654689,120158320971508,0.18185452,0.39900318,12.08854,0.006110925,-0.043260336,-0.038735468
OrientationDeg,1676592654690,120158320971508,175.0,-4.0,-15.0
UncalMag,1676592654697,120158327875744,-54.899998,-29.121399,-97.478,-47.646854,1.2478232,-64.42538
UncalGyro,1676592654699,120158329963145,-0.10170906,0.3791946,0.29336804,0.00064016436,-0.0009768492,-0.0033557685
UncalAccel,1676592654698,120158329963145,-0.07477571,0.8362915,11.61835,0.006110925,-0.043260336,-0.038735468
OrientationDeg,1676592654699,120158329963145,175.0,-4.0,-15.0
UncalMag,1676592654707,120158337875988,-54.839,-28.4748,-97.7098,-47.646854,1.2478232,-64.42538
UncalGyro,1676592654707,120158338942699,-0.24373524,0.783282,0.5323691,0.00064016436,-0.0009768492,-0.0033557685
UncalAccel,1676592654708,120158338942699,0.11066805,1.6019948,10.898709,0.006110925,-0.043260336,-0.038735468
OrientationDeg,1676592654708,120158338942699,175.0,-4.0,-15.0
UncalMag,1676592654716,120158347875988,-54.3144,-28.4504,-96.929,-47.646854,1.2478232,-64.42538
UncalGyro,1676592654716,120158347918590,-0.34666604,1.0769554,0.66706485,0.00064016436,-0.0009768492,-0.0033557685
UncalAccel,1676592654717,120158347918590,0.5138587,2.2325034,10.341181,0.006110925,-0.043260336,-0.038735468
OrientationDeg,1676592654717,120158347918590,174.0,-3.0,-15.0
UncalGyro,1676592654725,120158356901439,-0.43233988,1.2347114,0.68600166,0.00064016436,-0.0009768492,-0.0033557685
UncalAccel,1676592654726,120158356901439,1.0073783,2.6943183,9.659825,0.006110925,-0.043260336,-0.038735468
UncalMag,1676592654727,120158357864513,-52.2038,-27.4012,-96.099396,-47.646854,1.2478232,-64.42538
OrientationDeg,1676592654726,120158356901439,174.0,-3.0,-15.0
UncalGyro,1676592654734,120158365884960,-0.48640144,1.1943942,0.6094908,0.00064016436,-0.0009768492,-0.0033557685
UncalAccel,1676592654734,120158365884960,1.3609179,3.12383,9.120243,0.006110925,-0.043260336,-0.038735468
OrientationDeg,1676592654735,120158365884960,174.0,-2.0,-14.0
UncalMag,1676592654737,120158367875988,-53.033398,-27.8648,-96.416595,-47.646854,1.2478232,-64.42538
UncalGyro,1676592654743,120158374863475,-0.48609602,0.9663888,0.45769078,0.00064016436,-0.0009768492,-0.0033557685
UncalAccel,1676592654743,120158374863475,1.5888343,3.3810585,8.774481,0.006110925,-0.043260336,-0.038735468
OrientationDeg,1676592654744,120158374863475,173.0,-2.0,-14.0
UncalMag,1676592654746,120158377876232,-53.3262,-27.5964,-97.8562,-47.646854,1.2478232,-64.42538
UncalGyro,1676592654753,120158383839427,-0.39080104,0.59757894,0.24740042,0.00064016436,-0.0009768492,-0.0033557685
UncalAccel,1676592654752,120158383839427,1.8442681,3.7968113,8.7780695,0.006110925,-0.043260336,-0.038735468
OrientationDeg,1676592654753,120158383839427,173.0,-2.0,-14.0
UncalMag,1676592654756,120158387876232,-53.582397,-27.7184,-97.343796,-47.646854,1.2478232,-64.42538
UncalGyro,1676592654762,120158392822643,-0.17547104,0.20265454,0.004276057,0.00064016436,-0.0009768492,-0.0033557685
UncalAccel,1676592654762,120158392822643,1.7300107,4.1808596,9.3511505,0.006110925,-0.043260336,-0.038735468
UncalMag,1676592654767,120158397864269,-53.8386,-27.6208,-98.515,-47.646854,1.2478232,-64.42538
OrientationDeg,1676592654762,120158392822643,173.0,-1.0,-14.0
UncalGyro,1676592654771,120158401806041,0.1684461,-0.099571034,-0.24358252,0.00064016436,-0.0009768492,-0.0033557685
UncalAccel,1676592654771,120158401806041,1.7108682,4.28734,10.524232,0.006110925,-0.043260336,-0.038735468
OrientationDeg,1676592654771,120158401806041,173.0,-2.0,-14.0
UncalMag,1676592654777,120158407867443,-52.216,-26.522799,-97.9172,-47.646854,1.2478232,-64.42538
UncalGyro,1676592654779,120158410784373,0.6047566,-0.1994475,-0.48517972,0.00064016436,-0.0009768492,-0.0033557685
UncalAccel,1676592654779,120158410784373,1.6390835,3.7800615,11.707483,0.006110925,-0.043260336,-0.038735468
OrientationDeg,1676592654780,120158410784373,174.0,-2.0,-14.0
UncalMag,1676592654786,120158417870617,-54.277798,-28.194199,-102.174995,-47.646854,1.2478232,-64.42538
UncalGyro,1676592654788,120158419763378,1.0074695,-0.21533,-0.6595817,0.00064016436,-0.0009768492,-0.0033557685
UncalAccel,1676592654788,120158419763378,1.6133606,2.7870402,11.531013,0.006110925,-0.043260336,-0.038735468
OrientationDeg,1676592654788,120158419763378,174.0,-2.0,-15.0
UncalMag,1676592654797,120158427875988,-52.9846,-28.4016,-96.6118,-47.646854,1.2478232,-64.42538
UncalGyro,1676592654798,120158428743419,1.1823297,-0.5670357,-0.7367035,0.00064016436,-0.0009768492,-0.0033557685
UncalAccel,1676592654798,120158428743419,1.585245,2.0578275,9.325428,0.006110925,-0.043260336,-0.038735468
OrientationDeg,1676592654798,120158428743419,174.0,-2.0,-15.0
UncalGyro,1676592654806,120158437723705,1.0300715,-1.3681854,-0.743423,0.00064016436,-0.0009768492,-0.0033557685
UncalAccel,1676592654806,120158437723705,1.4650056,1.7557336,8.227122,0.006110925,-0.043260336,-0.038735468
UncalMag,1676592654807,120158437864269,-52.9724,-28.7554,-96.9656,-47.646854,1.2478232,-64.42538
OrientationDeg,1676592654807,120158437723705,175.0,-2.0,-16.0
UncalGyro,1676592654815,120158446705577,0.9596693,-2.0280726,-0.75411314,0.00064016436,-0.0009768492,-0.0033557685
UncalAccel,1676592654816,120158446705577,2.1397817,1.5224334,10.163514,0.006110925,-0.043260336,-0.038735468
UncalMag,1676592654817,120158447864025,-52.484398,-28.8774,-96.0506,-47.646854,1.2478232,-64.42538
OrientationDeg,1676592654816,120158446705577,175.0,-3.0,-16.0
UncalGyro,1676592654825,120158455684032,1.1305588,-2.291661,-0.87369,0.00064016436,-0.0009768492,-0.0033557685
UncalAccel,1676592654824,120158455684032,2.966502,1.7910278,11.131411,0.006110925,-0.043260336,-0.038735468
UncalMag,1676592654826,120158457875988,-52.582,-28.914,-95.965195,-47.646854,1.2478232,-64.42538
OrientationDeg,1676592654824,120158455684032,175.0,-5.0,-17.0
UncalGyro,1676592654833,120158464664745,1.3901765,-2.4410176,-1.0549643,0.00064016436,-0.0009768492,-0.0033557685
UncalAccel,1676592654833,120158464664745,3.4971104,2.2289143,10.521241,0.006110925,-0.043260336,-0.038735468
OrientationDeg,1676592654833,120158464664745,176.0,-6.0,-18.0
UncalMag,1676592654836,120158467876232,-52.874798,-29.2922,-96.1726,-47.646854,1.2478232,-64.42538
UncalGyro,1676592654842,120158473645701,1.588097,-2.6145031,-1.2647965,0.00064016436,-0.0009768492,-0.0033557685
UncalAccel,1676592654842,120158473645701,3.5766716,2.7990043,9.728619,0.006110925,-0.043260336,-0.038735468
OrientationDeg,1676592654843,120158473645701,177.0,-7.0,-19.0
UncalMag,1676592654846,120158477876232,-54.9488,-30.329199,-96.3556,-47.646854,1.2478232,-64.42538
UncalGyro,1676592654852,120158482614879,1.6696475,-2.7401888,-1.4802792,0.00064016436,-0.0009768492,-0.0033557685
UncalAccel,1676592654851,120158482614879,3.3960135,3.231507,9.367901,0.006110925,-0.043260336,-0.038735468
OrientationDeg,1676592654852,120158482614879,177.0,-8.0,-20.0
UncalMag,1676592654856,120158487876232,-54.131397,-30.5122,-94.5866,-47.646854,1.2478232,-64.42538
UncalGyro,1676592654860,120158491604564,1.6595682,-2.67055,-1.6632334,0.00064016436,-0.0009768492,-0.0033557685
UncalAccel,1676592654861,120158491604564,2.986841,3.5503507,9.744172,0.006110925,-0.043260336,-0.038735468
UncalMag,1676592654866,120158497864269,-54.6072,-30.951399,-94.5012,-47.646854,1.2478232,-64.42538
OrientationDeg,1676592654861,120158491604564,178.0,-9.0,-21.0
UncalGyro,1676592654870,120158500573558,1.605812,-2.3617578,-1.7794504,0.00064016436,-0.0009768492,-0.0033557685
UncalAccel,1676592654870,120158500573558,2.2534406,3.7513478,9.923036,0.006110925,-0.043260336,-0.038735468
OrientationDeg,1676592654869,120158500573558,179.0,-10.0,-22.0
UncalMag,1676592654877,120158507876232,-53.7776,-31.5492,-92.7566,-47.646854,1.2478232,-64.42538
UncalGyro,1676592654878,120158509565807,1.4906639,-1.902998,-1.8035797,0.00064016436,-0.0009768492,-0.0033557685
UncalAccel,1676592654879,120158509565807,1.3639089,3.94397,9.772287,0.006110925,-0.043260336,-0.038735468
OrientationDeg,1676592654879,120158509565807,180.0,-11.0,-22.0
UncalMag,1676592654886,120158517864025,-54.168,-32.391,-93.208,-47.646854,1.2478232,-64.42538
UncalGyro,1676592654888,120158518544200,1.2692252,-1.3367258,-1.7434094,0.00064016436,-0.0009768492,-0.0033557685
UncalAccel,1676592654888,120158518544200,0.67417777,4.5038905,9.333803,0.006110925,-0.043260336,-0.038735468
OrientationDeg,1676592654887,120158518544200,180.0,-11.0,-23.0
UncalGyro,1676592654897,120158527526500,0.99005985,-0.88346386,-1.617724,0.00064016436,-0.0009768492,-0.0033557685
UncalAccel,1676592654897,120158527526500,0.35473597,4.538586,7.5026956,0.006110925,-0.043260336,-0.038735468
UncalMag,1676592654896,120158527864025,-55.876,-34.1478,-94.1108,-47.646854,1.2478232,-64.42538
OrientationDeg,1676592654896,120158527526500,181.0,-11.0,-24.0
UncalGyro,1676592654905,120158536509533,0.7405214,-0.6995934,-1.4274393,0.00064016436,-0.0009768492,-0.0033557685
UncalAccel,1676592654905,120158536509533,-0.21595225,4.5128636,6.189036,0.006110925,-0.043260336,-0.038735468
UncalMag,1676592654906,120158537864757,-52.9968,-32.757,-95.001396,-47.646854,1.2478232,-64.42538
OrientationDeg,1676592654905,120158536509533,182.0,-11.0,-25.0
UncalGyro,1676592654914,120158545486949,0.4625777,-0.72402805,-1.2063061,0.00064016436,-0.0009768492,-0.0033557685
UncalAccel,1676592654915,120158545486949,-0.88354975,4.6169515,5.510072,0.006110925,-0.043260336,-0.038735468
OrientationDeg,1676592654915,120158545486949,183.0,-11.0,-25.0
UncalMag,1676592654917,120158547876232,-52.826,-33.367,-95.5748,-47.646854,1.2478232,-64.42538
UncalGyro,1676592654924,120158554468456,0.20387627,-0.8367327,-0.99128157,0.00064016436,-0.0009768492,-0.0033557685
UncalAccel,1676592654924,120158554468456,-1.2131611,4.5613184,5.5465627,0.006110925,-0.043260336,-0.038735468
OrientationDeg,1676592654923,120158554468456,183.0,-11.0,-25.0
UncalMag,1676592654926,120158557876232,-53.814198,-34.208797,-94.4402,-47.646854,1.2478232,-64.42538
UncalGyro,1676592654933,120158563447460,0.03436117,-0.9024007,-0.7901542,0.00064016436,-0.0009768492,-0.0033557685
UncalAccel,1676592654933,120158563447460,-1.2705889,4.29392,6.169295,0.006110925,-0.043260336,-0.038735468
OrientationDeg,1676592654932,120158563447460,184.0,-12.0,-25.0
UncalMag,1676592654937,120158567876232,-53.960598,-33.6476,-95.1478,-47.646854,1.2478232,-64.42538
UncalGyro,1676592654942,120158572412487,-0.04917465,-0.87796605,-0.57879484,0.00064016436,-0.0009768492,-0.0033557685
UncalAccel,1676592654942,120158572412487,-1.1431711,3.9481573,6.8542404,0.006110925,-0.043260336,-0.038735468
OrientationDeg,1676592654941,120158572412487,184.0,-12.0,-25.0
UncalMag,1676592654947,120158577864269,-54.412,-34.1844,-97.4048,-47.646854,1.2478232,-64.42538
UncalGyro,1676592654950,120158581411510,-0.06246097,-0.7704538,-0.3407101,0.00064016436,-0.0009768492,-0.0033557685
UncalAccel,1676592654950,120158581411510,-0.93978107,3.5635111,7.496115,0.006110925,-0.043260336,-0.038735468
OrientationDeg,1676592654951,120158581411510,184.0,-12.0,-25.0
UncalMag,1676592654957,120158587875988,-52.826,-33.6964,-98.5272,-47.646854,1.2478232,-64.42538
UncalGyro,1676592654959,120158590389232,-0.020158553,-0.6382015,-0.08475755,0.00064016436,-0.0009768492,-0.0033557685
UncalAccel,1676592654960,120158590389232,-0.3475575,3.3296127,7.9076805,0.006110925,-0.043260336,-0.038735468
OrientationDeg,1676592654960,120158590389232,184.0,-13.0,-25.0
UncalMag,1676592654966,120158597876476,-53.3872,-33.8672,-98.7346,-47.646854,1.2478232,-64.42538
UncalGyro,1676592654969,120158599361461,0.049632803,-0.45570546,0.14721853,0.00064016436,-0.0009768492,-0.0033557685
UncalAccel,1676592654969,120158599361461,0.48035914,3.1956146,8.944969,0.006110925,-0.043260336,-0.038735468
OrientationDeg,1676592654969,120158599361461,184.0,-13.0,-25.0
UncalMag,1676592654977,120158607876232,-53.1554,-34.099,-97.2218,-47.646854,1.2478232,-64.42538
UncalGyro,1676592654977,120158608348583,0.1337795,-0.19303341,0.28893927,0.00064016436,-0.0009768492,-0.0033557685
UncalAccel,1676592654977,120158608348583,1.570888,3.290131,9.393623,0.006110925,-0.043260336,-0.038735468
OrientationDeg,1676592654977,120158608348583,184.0,-13.0,-25.0
UncalGyro,1676592654987,120158617328685,0.23747386,-0.08078693,0.29458976,0.00064016436,-0.0009768492,-0.0033557685
UncalAccel,1676592654987,120158617328685,2.5226333,3.6340995,8.34138,0.006110925,-0.043260336,-0.038735468
UncalMag,1676592654987,120158617864513,-56.0346,-34.648,-99.3324,-47.646854,1.2478232,-64.42538
OrientationDeg,1676592654986,120158617328685,184.0,-13.0,-25.0
UncalGyro,1676592654995,120158626310191,0.36957347,-0.111635625,0.17821993,0.00064016436,-0.0009768492,-0.0033557685
UncalAccel,1676592654996,120158626310191,2.984448,4.0390844,8.078768,0.006110925,-0.043260336,-0.038735468
OrientationDeg,1676592654996,120158626310191,184.0,-13.0,-26.0
UncalMag,1676592654997,120158627876232,-56.5836,-34.3186,-99.8692,-47.646854,1.2478232,-64.42538
UncalGyro,1676592655005,120158635289501,0.48181996,-0.17363845,0.032223143,0.00064016436,-0.0009768492,-0.0033557685
UncalAccel,1676592655005,120158635289501,3.0239296,4.110271,7.8460655,0.006110925,-0.043260336,-0.038735468
OrientationDeg,1676592655005,120158635289501,183.0,-13.0,-26.0
UncalMag,1676592655007,120158637876232,-56.791,-35.3556,-98.1856,-47.646854,1.2478232,-64.42538
UncalGyro,1676592655014,120158644251171,0.536187,-0.27122417,-0.06093381,0.00064016436,-0.0009768492,-0.0033557685
UncalAccel,1676592655013,120158644251171,2.8929226,3.6987057,7.7383885,0.006110925,-0.043260336,-0.038735468
OrientationDeg,1676592655013,120158644251171,183.0,-13.0,-26.0
Status,0,29,0,6,2,1575420030,41.00,45.0,79.0,1,1,1,36.804817
Status,0,29,1,6,2,1176450050,37.26,45.0,79.0,1,1,1,33.16118
Status,0,29,2,6,36,1176450050,37.20,76.0,71.0,1,1,1,33.09646
Status,0,29,3,3,17,1604249980,39.23,253.0,71.0,1,1,1,35.027355
Status,0,29,4,6,36,1575420030,43.62,76.0,71.0,1,1,1,39.415653
Status,0,29,5,1,11,1575420030,42.30,160.0,64.0,1,1,1,38.10413
Status,0,29,6,1,11,1176450050,43.80,160.0,64.0,1,1,1,39.701035
Status,0,29,7,3,14,1598062460,43.86,136.0,63.0,1,1,1,39.6633
Status,0,29,8,3,15,1602000000,32.58,331.0,59.0,1,1,1,28.378283
Status,0,29,9,1,6,1176450050,37.97,61.0,56.0,1,1,1,33.86753
Status,0,29,10,1,6,1575420030,45.11,61.0,56.0,1,1,1,40.91243
Status,0,29,11,1,12,1575420030,36.19,318.0,51.0,1,1,1,31.989344
Status,0,29,12,1,24,1176450050,40.10,233.0,49.0,1,1,1,35.99813
Status,0,29,13,1,24,1575420030,42.93,233.0,49.0,1,1,1,38.730038
Status,0,29,14,3,24,1603124990,46.51,28.0,46.0,1,1,1,42.311413
Status,0,29,15,6,34,1176450050,30.49,199.0,46.0,1,1,1,26.385782
Status,0,29,16,6,34,1575420030,40.34,199.0,46.0,1,1,1,36.144127
Status,0,29,17,1,19,1575420030,49.09,51.0,37.0,1,1,1,44.89034
Status,0,29,18,6,30,1176450050,31.14,312.0,35.0,1,1,1,27.038359
Status,0,29,19,6,30,1575420030,35.48,312.0,35.0,1,1,1,31.281927
Status,0,29,20,6,25,1575420030,41.71,116.0,35.0,1,1,1,37.51349
Status,0,29,21,6,25,1176450050,36.09,116.0,35.0,1,1,1,31.98562
Status,0,29,22,6,11,1575420030,42.48,41.0,24.0,1,1,1,38.283806
Status,0,29,23,6,11,1176450050,39.45,41.0,24.0,1,1,1,35.350517
Status,0,29,24,3,18,1600312450,40.88,225.0,22.0,1,1,1,36.67546
Status,0,29,25,1,25,1575420030,41.62,308.0,22.0,1,1,1,37.420162
Status,0,29,26,1,25,1176450050,29.69,308.0,22.0,1,1,1,25.59211
Status,0,29,27,1,20,1575420030,38.39,151.0,15.0,1,1,1,34.193676
Status,0,29,28,1,17,1575420030,41.68,62.0,10.0,1,1,1,37.475433
UncalMag,1676592655016,120158647875988,-58.133,-36.0876,-98.7834,-47.646854,1.2478232,-64.42538
UncalGyro,1676592655023,120158653249706,0.5523749,-0.30069843,-0.07376198,0.00064016436,-0.0009768492,-0.0033557685
UncalAccel,1676592655023,120158653249706,2.8145576,3.1244283,8.302496,0.006110925,-0.043260336,-0.038735468
OrientationDeg,1676592655023,120158653249706,183.0,-14.0,-26.0
Fix,GPS,37.4307880403,-122.1550527982,-16.05488379194523,0.12388229,3.3819637,158.1555,1676592654000,0.13644838,78.761055,120158571086000,3.0
UncalMag,1676592655027,120158657864269,-57.400997,-35.9656,-99.8204,-47.646854,1.2478232,-64.42538
Fix,FLP,37.4307915000,-122.1550270000,-16.100000381469727,0.21007329,4.107,157.40895,1676592654690,,,120158320971508,3.8608081
Raw,1676592654000,613697000000,,,-1360627258303421094,0.0,8.06057109889896,287.0,1.0,15,6,0.0,16431,432671930783572,22,36.74795150756836,354.31903673391935,0.15,16,195395.95347888576,340282346638528860000000000000000000000,1575420030,,,,0,,1,,32.547950744628906,0.320142130558394,1.0,0.320142130558394,1.0,C,120158571086000
Raw,1676592654000,613697000000,,,-1360627258303421094,0.0,8.06057109889896,287.0,1.0,15,11,0.0,16431,432671931251898,21,37.22432327270508,-208.67391291446108,0.15,16,-148640.27885532647,340282346638528860000000000000000000000,1575420030,,,,0,,1,,33.024322509765625,-0.20372681261465636,1.0,-0.20372681261465636,1.0,C,120158571086000
Raw,1676592654000,613697000000,,,-1360627258303421094,0.0,8.06057109889896,287.0,1.0,15,12,0.0,16431,432671929701614,30,32.90867233276367,-306.38175489247783,0.659399410538219,16,-196960.13676203403,340282346638528860000000000000000000000,1575420030,,,,0,,1,,28.70867347717285,-0.6984919076624261,1.0,-0.6984919076624261,1.0,C,120158571086000
Raw,1676592654000,613697000000,,,-1360627258303421094,0.0,8.06057109889896,287.0,1.0,15,17,0.0,16431,432671917843778,19,38.69162368774414,591.1727507321466,0.15,16,364471.2809633687,340282346638528860000000000000000000000,1575420030,,,,0,,1,,34.49162292480469,-0.7858034271858065,1.0,-0.7858034271858065,1.0,C,120158571086000
Raw,1676592654000,613697000000,,,-1360627258303421094,0.0,8.06057109889896,287.0,1.0,15,19,0.0,16431,432671927172718,11,47.58795166015625,550.4756051298457,0.15,16,332071.32227543974,340282346638528860000000000000000000000,1575420030,,,,0,,1,,43.3879508972168,0.0,1.0,0.0,1.0,C,120158571086000
Raw,1676592654000,613697000000,,,-1360627258303421094,0.0,8.06057109889896,287.0,1.0,15,20,0.0,16431,432671919802479,20,37.72308349609375,-490.5367656256574,0.15,16,-299845.04608742066,340282346638528860000000000000000000000,1575420030,,,,0,,1,,33.5230827331543,0.0,1.0,0.0,1.0,C,120158571086000
Raw,1676592654000,613697000000,,,-1360627258303421094,0.0,8.06057109889896,287.0,1.0,15,24,0.0,16431,432671928602804,15,41.55636978149414,434.8724796536469,0.15,16,247281.71984127397,340282346638528860000000000000000000000,1575420030,,,,0,,1,,37.35636901855469,-0.20372681261465636,1.0,-0.20372681261465636,1.0,C,120158571086000
Raw,1676592654000,613697000000,,,-1360627258303421094,0.0,8.06057109889896,287.0,1.0,15,25,0.0,16431,432671923353323,22,36.681819915771484,-504.4453730606815,0.15,16,-312412.1299413206,340282346638528860000000000000000000000,1575420030,,,,0,,1,,32.48181915283203,-2.0372682255564105,1.0,-2.0372682255564105,1.0,C,120158571086000
Raw,1676592654000,613697000000,,,-1360627258303421094,0.0,8.06057109889896,287.0,1.0,15,6,0.0,81921,432671930784166,16,33.72016525268555,353.3964587183034,0.6186054393396287,16,196251.8668257087,340282346638528860000000000000000000000,1176450050,,,,0,,1,,29.62016487121582,1.9208527336454408,1.4180171640983341,1.9208527336454408,1.0,Q,120158571086000
Raw,1676592654000,613697000000,,,-1360627258303421094,0.0,8.06057109889896,287.0,1.0,15,11,0.0,81921,432671931252427,9,42.86482238769531,-208.83681001541186,0.15,16,-149519.9268898205,340282346638528860000000000000000000000,1176450050,,,,0,,1,,38.76482391357422,0.0,1.4180171640983341,0.0,1.0,Q,120158571086000
Raw,1676592654000,613697000000,,,-1360627258303421094,0.0,8.06057109889896,287.0,1.0,15,24,0.0,81921,432671928603348,11,39.224700927734375,434.44566505061175,0.15,16,248414.11652900992,340282346638528860000000000000000000000,1176450050,,,,0,,1,,35.12470245361328,3.5215636101095664,1.4180171640983341,3.5215636101095664,1.0,Q,120158571086000
Raw,1676592654000,613697000000,,,-1360627258303421094,0.0,8.06057109889896,287.0,1.0,15,25,0.0,81921,432671923353846,21,29.692110061645508,-504.9583140313498,0.7984059742451612,16,-313995.7417191593,340282346638528860000000000000000000000,1176450050,,,,0,,1,,25.59210968017578,1.0186341127782053,1.4180171640983341,1.0186341127782053,1.0,Q,120158571086000
Raw,1676592654000,613697000000,,,-1360627258303421094,0.0,8.06057109889896,287.0,1.0,15,14,0.0,32995,11453934814353,33,43.52720260620117,416.4915381912431,0.15,16,230601.1735725669,340282346638528860000000000000000000000,1598062460,,,,0,,3,,39.32720184326172,50.29141902923584,2.0000000474974513,50.29141902923584,2.0000000474974513,C,120158571086000
Raw,1676592654000,613697000000,,,-1360627258303421094,0.0,8.06057109889896,287.0,1.0,15,18,0.0,32995,11453925964415,50,35.199073791503906,-570.6552823176974,0.5557306627414611,16,-363121.392272315,340282346638528860000000000000000000000,1600312450,,,,0,,3,,30.999073028564453,50.29141902923584,2.0000000474974513,50.29141902923584,2.0000000474974513,C,120158571086000
Raw,1676592654000,613697000000,,,-1360627258303421094,0.0,8.06057109889896,287.0,1.0,15,15,0.0,32995,11453934235987,107,25.86933135986328,-332.28503533403114,0.976766525362605,16,-222846.99194550578,340282346638528860000000000000000000000,1602000000,,,,0,,3,,21.669330596923828,50.29141902923584,2.0000000474974513,50.29141902923584,2.0000000474974513,C,120158571086000
Raw,1676592654000,613697000000,,,-1360627258303421094,0.0,8.06057109889896,287.0,1.0,15,24,0.0,32995,11453931986552,33,45.656280517578125,629.9862612098013,0.15,16,372908.1752324606,340282346638528860000000000000000000000,1603124990,,,,0,,3,,41.45627975463867,50.29141902923584,2.0000000474974513,50.29141902923584,2.0000000474974513,C,120158571086000
Raw,1676592654000,613697000000,,,-1360627258303421094,0.0,8.06057109889896,287.0,1.0,15,17,0.0,32995,11453936249190,38,38.69917678833008,-60.211780336637105,0.15,16,-61629.684943683475,340282346638528860000000000000000000000,1604249980,,,,0,,3,,34.499176025390625,50.29141902923584,2.0000000474974513,50.29141902923584,2.0000000474974513,C,120158571086000
Raw,1676592654000,613697000000,,,-1360627258303421094,0.0,8.06057109889896,287.0,1.0,15,2,0.0,85026,432671922655641,23,36.252567291259766,65.02683902619606,0.15,16,31185.76766233625,340282346638528860000000000000000000000,1575420030,,,,0,,6,,32.05256652832031,-6.024492904543876,1.5000000237487257,-6.024492904543876,1.5000000237487257,C,120158571086000
Raw,1676592654000,613697000000,,,-1360627258303421094,0.0,8.06057109889896,287.0,1.0,15,11,0.0,85026,432671913164051,14,42.48380661010742,568.6177989843072,0.15,16,341408.78218681784,340282346638528860000000000000000000000,1575420030,,,,0,,6,,38.28380584716797,-6.024492904543876,1.5000000237487257,-6.024492904543876,1.5000000237487257,C,120158571086000
Raw,1676592654000,613697000000,,,-1360627258303421094,0.0,8.06057109889896,287.0,1.0,15,25,0.0,85026,432671914717083,26,34.52311325073242,448.91588320421874,0.5862631851184186,16,267270.05346599105,340282346638528860000000000000000000000,1575420030,,,,1,,6,,30.32311248779297,-6.024492904543876,1.5000000237487257,-6.024492904543876,1.5000000237487257,C,120158571086000
Raw,1676592654000,613697000000,,,-1360627258303421094,0.0,8.06057109889896,287.0,1.0,15,30,0.0,85026,432671914271723,26,34.78661346435547,-321.91527752468346,0.5743335930951581,16,-199500.796374425,340282346638528860000000000000000000000,1575420030,,,,0,,6,,30.58661460876465,-6.024492904543876,1.5000000237487257,-6.024492904543876,1.5000000237487257,C,120158571086000
Raw,1676592654000,613697000000,,,-1360627258303421094,0.0,8.06057109889896,287.0,1.0,15,34,0.0,85026,432671918073846,22,36.7459831237793,-352.4083401387941,0.15,16,-226653.61716204905,340282346638528860000000000000000000000,1575420030,,,,0,,6,,32.545982360839844,-6.024492904543876,1.5000000237487257,-6.024492904543876,1.5000000237487257,C,120158571086000
Raw,1676592654000,613697000000,,,-1360627258303421094,0.0,8.06057109889896,287.0,1.0,15,36,0.0,85026,432671921982540,13,43.51505661010742,158.32609821175902,0.15,16,81228.11479887032,340282346638528860000000000000000000000,1575420030,,,,0,,6,,39.31505584716797,-6.024492904543876,1.5000000237487257,-6.024492904543876,1.5000000237487257,C,120158571086000
Raw,1676592654000,613697000000,,,-1360627258303421094,0.0,8.06057109889896,287.0,1.0,15,2,0.0,84003,432671922656142,35,30.036623001098633,66.29411848646959,0.7863857175621662,16,31151.994861910203,340282346638528860000000000000000000000,1176450050,,,,0,,6,,25.936622619628906,-4.362151958048344,1.9180171878470598,-4.362151958048344,1.5000000237487257,Q,120158571086000
Raw,1676592654000,613697000000,,,-1360627258303421094,0.0,8.06057109889896,287.0,1.0,15,11,0.0,84003,432671913164601,11,38.97588348388672,568.3988873660612,0.15,16,342610.35793965874,340282346638528860000000000000000000000,1176450050,,,,0,,6,,34.875885009765625,4.134257324039933,1.9180171878470598,4.134257324039933,1.5000000237487257,Q,120158571086000
Raw,1676592654000,613697000000,,,-1360627258303421094,0.0,8.06057109889896,287.0,1.0,15,25,0.0,84003,432671914717623,15,31.840068817138672,448.1000173599757,0.7038587768608631,16,266909.9043266108,340282346638528860000000000000000000000,1176450050,,,,0,,6,,27.740068435668945,-8.795061148703097,1.9180171878470598,-8.795061148703097,1.5000000237487257,Q,120158571086000
Raw,1676592654000,613697000000,,,-1360627258303421094,0.0,8.06057109889896,287.0,1.0,15,30,0.0,84003,432671914272251,25,28.665603637695312,-321.89285126829145,0.846530735691859,16,-199184.60762474098,340282346638528860000000000000000000000,1176450050,,,,0,,6,,24.565603256225586,-8.425652049481869,1.9180171878470598,-8.425652049481869,1.5000000237487257,Q,120158571086000
Raw,1676592654000,613697000000,,,-1360627258303421094,0.0,8.06057109889896,287.0,1.0,15,34,0.0,84003,432671918074396,62,24.397056579589844,-352.47227882723087,1.0391663775739328,16,-227770.65112965938,340282346638528860000000000000000000000,1176450050,,,,0,,6,,20.297056198120117,-10.0879929959774,1.9180171878470598,-10.0879929959774,1.5000000237487257,Q,120158571086000
Raw,1676592654000,613697000000,,,-1360627258303421094,0.0,8.06057109889896,287.0,1.0,15,36,0.0,84003,432671921983086,15,33.14262008666992,158.13711099034003,0.6465913298846235,16,81392.70683209073,340282346638528860000000000000000000000,1176450050,,,,0,,6,,29.042621612548828,-11.011515744030472,1.9180171878470598,-11.011515744030472,1.5000000237487257,Q,120158571086000
UncalGyro,1676592655031,120158662228038,0.52366424,-0.26511553,-0.013133603,0.00064016436,-0.0009768492,-0.0033557685
UncalAccel,1676592655031,120158662228038,2.4729822,2.7906294,8.408379,0.006110925,-0.043260336,-0.038735468
OrientationDeg,1676592655031,120158662228038,183.0,-14.0,-27.0
UncalMag,1676592655037,120158667875988,-59.255398,-36.929398,-99.4178,-47.646854,1.2478232,-64.42538
UncalGyro,1676592655041,120158671210277,0.43020186,-0.25305092,0.08368854,0.00064016436,-0.0009768492,-0.0033557685
UncalAccel,1676592655041,120158671210277,2.1649063,2.9216363,8.198408,0.006110925,-0.043260336,-0.038735468
OrientationDeg,1676592655040,120158671210277,183.0,-14.0,-27.0
UncalMag,1676592655047,120158677875988,-60.451,-36.929398,-98.8566,-47.646854,1.2478232,-64.42538
UncalGyro,1676592655049,120158680193615,0.31703907,-0.3231477,0.19807306,0.00064016436,-0.0009768492,-0.0033557685
UncalAccel,1676592655050,120158680193615,1.7449659,2.6027927,7.832307,0.006110925,-0.043260336,-0.038735468
OrientationDeg,1676592655050,120158680193615,182.0,-14.0,-27.0
UncalMag,1676592655057,120158687876476,-58.7796,-36.6366,-96.2336,-47.646854,1.2478232,-64.42538
UncalGyro,1676592655059,120158689161571,0.23060162,-0.58551437,0.34162638,0.00064016436,-0.0009768492,-0.0033557685
UncalAccel,1676592655058,120158689161571,1.6546369,2.3347967,7.3920274,0.006110925,-0.043260336,-0.038735468
OrientationDeg,1676592655059,120158689161571,182.0,-15.0,-27.0
UncalMag,1676592655067,120158697875988,-55.9004,-35.5874,-94.3426,-47.646854,1.2478232,-64.42538
UncalGyro,1676592655067,120158698149363,0.20234911,-0.9262244,0.4662429,0.00064016436,-0.0009768492,-0.0033557685
UncalAccel,1676592655067,120158698149363,2.3300111,2.5274189,7.9968133,0.006110925,-0.043260336,-0.038735468
OrientationDeg,1676592655068,120158698149363,182.0,-15.0,-27.0
UncalGyro,1676592655076,120158707132090,0.268628,-1.1876748,0.5271767,0.00064016436,-0.0009768492,-0.0033557685
UncalAccel,1676592655076,120158707132090,3.2805598,2.9922247,9.214162,0.006110925,-0.043260336,-0.038735468
UncalMag,1676592655077,120158707864513,-52.216,-33.611,-94.1718,-47.646854,1.2478232,-64.42538
OrientationDeg,1676592655076,120158707132090,182.0,-16.0,-27.0
UncalGyro,1676592655085,120158716114024,0.43890667,-1.2428054,0.50686544,0.00064016436,-0.0009768492,-0.0033557685
UncalAccel,1676592655086,120158716114024,3.9170506,3.842873,11.036895,0.006110925,-0.043260336,-0.038735468
OrientationDeg,1676592655086,120158716114024,181.0,-17.0,-27.0
UncalMag,1676592655087,120158717875988,-49.41,-32.6594,-91.0852,-47.646854,1.2478232,-64.42538
UncalGyro,1676592655094,120158725090832,0.7096727,-1.181108,0.44165558,0.00064016436,-0.0009768492,-0.0033557685
UncalAccel,1676592655095,120158725090832,4.066602,4.470391,11.641082,0.006110925,-0.043260336,-0.038735468
OrientationDeg,1676592655095,120158725090832,181.0,-18.0,-27.0
UncalMag,1676592655097,120158727876232,-52.655197,-34.3308,-90.8778,-47.646854,1.2478232,-64.42538
UncalGyro,1676592655103,120158734073192,0.96593064,-0.9848675,0.32528573,0.00064016436,-0.0009768492,-0.0033557685
UncalAccel,1676592655103,120158734073192,4.197011,5.0159545,12.087942,0.006110925,-0.043260336,-0.038735468
OrientationDeg,1676592655104,120158734073192,181.0,-18.0,-28.0
UncalMag,1676592655107,120158737876232,-51.6914,-33.5622,-89.8408,-47.646854,1.2478232,-64.42538
UncalGyro,1676592655112,120158743052196,1.1429288,-0.6209445,0.14523321,0.00064016436,-0.0009768492,-0.0033557685
UncalAccel,1676592655113,120158743052196,4.0977087,5.5537415,11.742179,0.006110925,-0.043260336,-0.038735468
OrientationDeg,1676592655113,120158743052196,181.0,-19.0,-28.0
UncalMag,1676592655116,120158747864269,-53.740997,-35.0384,-89.8042,-47.646854,1.2478232,-64.42538
UncalGyro,1676592655121,120158752032421,1.1841623,-0.25595254,-0.045356743,0.00064016436,-0.0009768492,-0.0033557685
UncalAccel,1676592655121,120158752032421,3.6699917,5.4837513,10.434502,0.006110925,-0.043260336,-0.038735468
OrientationDeg,1676592655122,120158752032421,181.0,-19.0,-29.0
UncalMag,1676592655126,120158757875988,-53.7654,-34.7212,-90.8534,-47.646854,1.2478232,-64.42538
UncalGyro,1676592655130,120158761012584,1.1238394,0.06734789,-0.16890424,0.00064016436,-0.0009768492,-0.0033557685
UncalAccel,1676592655130,120158761012584,3.086143,5.098507,9.319446,0.006110925,-0.043260336,-0.038735468
OrientationDeg,1676592655131,120158761012584,181.0,-19.0,-29.0
UncalMag,1676592655137,120158767876232,-53.009,-34.3674,-89.560196,-47.646854,1.2478232,-64.42538
UncalGyro,1676592655139,120158769994518,1.0001391,0.3921755,-0.19043724,0.00064016436,-0.0009768492,-0.0033557685
UncalAccel,1676592655138,120158769994518,2.5680969,4.755735,8.5525465,0.006110925,-0.043260336,-0.038735468
OrientationDeg,1676592655138,120158769994518,181.0,-19.0,-30.0
UncalMag,1676592655147,120158777875988,-55.680798,-36.453598,-91.280396,-47.646854,1.2478232,-64.42538
UncalGyro,1676592655148,120158778973277,0.81321436,0.68493265,-0.12385293,0.00064016436,-0.0009768492,-0.0033557685
UncalAccel,1676592655148,120158778973277,2.2444677,4.9399824,7.68455,0.006110925,-0.043260336,-0.038735468
OrientationDeg,1676592655148,120158778973277,181.0,-19.0,-30.0
UncalMag,1676592655157,120158787876232,-51.557198,-34.4894,-90.353195,-47.646854,1.2478232,-64.42538
UncalGyro,1676592655156,120158787952465,0.5830709,1.014189,-0.03436117,0.00064016436,-0.0009768492,-0.0033557685
UncalAccel,1676592655157,120158787952465,2.0991037,5.108078,7.513463,0.006110925,-0.043260336,-0.038735468
OrientationDeg,1676592655156,120158787952465,181.0,-18.0,-31.0
UncalGyro,1676592655166,120158796933788,0.3211624,1.2947289,0.03604105,0.00064016436,-0.0009768492,-0.0033557685
UncalAccel,1676592655166,120158796933788,2.0338993,4.835296,6.7537417,0.006110925,-0.043260336,-0.038735468
UncalMag,1676592655167,120158797864269,-51.252197,-34.9164,-91.1584,-47.646854,1.2478232,-64.42538
OrientationDeg,1676592655165,120158796933788,181.0,-17.0,-31.0
UncalGyro,1676592655174,120158805915904,0.06963864,1.4077389,0.07788532,0.00064016436,-0.0009768492,-0.0033557685
UncalAccel,1676592655175,120158805915904,1.9525433,5.0368915,6.15434,0.006110925,-0.043260336,-0.038735468
UncalMag,1676592655177,120158807867443,-54.0582,-36.5024,-92.695595,-47.646854,1.2478232,-64.42538
OrientationDeg,1676592655174,120158805915904,181.0,-17.0,-31.0
UncalGyro,1676592655183,120158814894054,-0.14508049,1.4187346,0.11728613,0.00064016436,-0.0009768492,-0.0033557685
UncalAccel,1676592655183,120158814894054,1.5840486,5.048856,6.4480586,0.006110925,-0.043260336,-0.038735468
OrientationDeg,1676592655184,120158814894054,181.0,-16.0,-31.0
UncalMag,1676592655186,120158817881359,-55.1806,-36.905,-93.000595,-47.646854,1.2478232,-64.42538
UncalGyro,1676592655192,120158823877636,-0.27397305,1.4046847,0.17379116,0.00064016436,-0.0009768492,-0.0033557685
UncalAccel,1676592655192,120158823877636,1.1240284,4.8885365,6.735796,0.006110925,-0.043260336,-0.038735468
OrientationDeg,1676592655193,120158823877636,181.0,-15.0,-31.0
UncalMag,1676592655197,120158827875988,-53.1432,-35.8192,-91.9636,-47.646854,1.2478232,-64.42538
Fix,NLP,37.4311839000,-122.1538835000,-16.100000381469727,,90.731,,1676592654966,,,120158597000000,2.7305195
UncalGyro,1676592655201,120158832844676,-0.2950479,1.3249667,0.23701571,0.00064016436,-0.0009768492,-0.0033557685
UncalAccel,1676592655202,120158832844676,1.1300105,5.0368915,6.674779,0.006110925,-0.043260336,-0.038735468
OrientationDeg,1676592655202,120158832844676,181.0,-15.0,-30.0
UncalMag,1676592655206,120158837864025,-56.851997,-37.4052,-93.9522,-47.646854,1.2478232,-64.42538
UncalGyro,1676592655210,120158841836375,-0.24663684,1.2098186,0.29000828,0.00064016436,-0.0009768492,-0.0033557685
UncalAccel,1676592655210,120158841836375,1.2442678,5.055436,6.7130637,0.006110925,-0.043260336,-0.038735468
OrientationDeg,1676592655210,120158841836375,181.0,-14.0,-30.0
UncalMag,1676592655216,120158847875988,-55.8028,-36.8562,-92.841995,-47.646854,1.2478232,-64.42538
UncalGyro,1676592655220,120158850812754,-0.13133603,1.0567969,0.3481932,0.00064016436,-0.0009768492,-0.0033557685
UncalAccel,1676592655219,120158850812754,1.5433706,4.775476,6.6275206,0.006110925,-0.043260336,-0.038735468
OrientationDeg,1676592655219,120158850812754,180.0,-14.0,-30.0
UncalMag,1676592655226,120158857868175,-56.388397,-37.21,-94.2084,-47.646854,1.2478232,-64.42538
UncalGyro,1676592655228,120158859795299,0.041233405,0.73655075,0.39584067,0.00064016436,-0.0009768492,-0.0033557685
UncalAccel,1676592655228,120158859795299,1.9435701,4.485346,6.2321067,0.006110925,-0.043260336,-0.038735468
OrientationDeg,1676592655229,120158859795299,180.0,-13.0,-30.0
UncalMag,1676592655237,120158867875988,-58.194,-37.637,-94.9892,-47.646854,1.2478232,-64.42538
UncalGyro,1676592655238,120158868778088,0.22357668,0.18295415,0.42058071,0.00064016436,-0.0009768492,-0.0033557685
UncalAccel,1676592655238,120158868778088,2.0620148,4.2352962,5.964709,0.006110925,-0.043260336,-0.038735468
OrientationDeg,1676592655237,120158868778088,180.0,-13.0,-30.0
UncalGyro,1676592655247,120158877749828,0.40454552,-0.3501785,0.43035457,0.00064016436,-0.0009768492,-0.0033557685
UncalAccel,1676592655246,120158877749828,1.7527425,4.069593,6.5677,0.006110925,-0.043260336,-0.038735468
UncalMag,1676592655246,120158877858410,-54.778,-36.4292,-93.2202,-47.646854,1.2478232,-64.42538
OrientationDeg,1676592655246,120158877749828,180.0,-14.0,-30.0
UncalGyro,1676592655256,120158886736278,0.60139686,-0.6421721,0.43127087,0.00064016436,-0.0009768492,-0.0033557685
UncalAccel,1676592655255,120158886736278,1.6821543,3.720241,7.7425756,0.006110925,-0.043260336,-0.038735468
OrientationDeg,1676592655255,120158886736278,179.0,-14.0,-31.0
UncalMag,1676592655256,120158887875988,-54.6438,-37.3076,-97.965996,-47.646854,1.2478232,-64.42538
UncalGyro,1676592655265,120158895713573,0.8098546,-0.7490735,0.47510046,0.00064016436,-0.0009768492,-0.0033557685
UncalAccel,1676592655265,120158895713573,2.1649063,3.0323045,8.398808,0.006110925,-0.043260336,-0.038735468
OrientationDeg,1676592655264,120158895713573,179.0,-15.0,-31.0
UncalMag,1676592655266,120158897876232,-55.302597,-37.7224,-96.624,-47.646854,1.2478232,-64.42538
UncalGyro,1676592655274,120158904696666,1.0076222,-0.7509061,0.58123827,0.00064016436,-0.0009768492,-0.0033557685
UncalAccel,1676592655273,120158904696666,2.7643085,2.501098,8.737391,0.006110925,-0.043260336,-0.038735468
OrientationDeg,1676592655273,120158904696666,178.0,-16.0,-31.0
UncalMag,1676592655276,120158907876232,-54.0216,-36.1364,-91.146194,-47.646854,1.2478232,-64.42538
UncalGyro,1676592655283,120158913680980,1.1685852,-0.6272059,0.71761394,0.00064016436,-0.0009768492,-0.0033557685
UncalAccel,1676592655282,120158913680980,3.0855448,2.187638,8.889337,0.006110925,-0.043260336,-0.038735468
OrientationDeg,1676592655282,120158913680980,178.0,-16.0,-32.0
UncalMag,1676592655287,120158917864513,-55.1684,-36.6732,-90.768,-47.646854,1.2478232,-64.42538
UncalGyro,1676592655292,120158922645397,1.2814425,-0.44791695,0.8414669,0.00064016436,-0.0009768492,-0.0033557685
UncalAccel,1676592655292,120158922645397,3.196811,2.0428724,8.288737,0.006110925,-0.043260336,-0.038735468
OrientationDeg,1676592655291,120158922645397,177.0,-17.0,-32.0
UncalMag,1676592655296,120158927864269,-55.1074,-36.966,-90.6948,-47.646854,1.2478232,-64.42538
UncalGyro,1676592655301,120158931637157,1.349096,-0.3559817,0.9567677,0.00064016436,-0.0009768492,-0.0033557685
UncalAccel,1676592655300,120158931637157,3.3397822,1.8735801,7.0779696,0.006110925,-0.043260336,-0.038735468
OrientationDeg,1676592655300,120158931637157,176.0,-18.0,-33.0
UncalMag,1676592655307,120158937876232,-57.156998,-37.2588,-90.816795,-47.646854,1.2478232,-64.42538
UncalGyro,1676592655310,120158940617565,1.3570372,-0.3819435,1.0694723,0.00064016436,-0.0009768492,-0.0033557685
UncalAccel,1676592655309,120158940617565,3.8703907,1.9519451,6.02752,0.006110925,-0.043260336,-0.038735468
OrientationDeg,1676592655309,120158940617565,175.0,-18.0,-33.0
UncalMag,1676592655317,120158947875988,-58.3038,-37.7956,-90.5484,-47.646854,1.2478232,-64.42538
UncalGyro,1676592655318,120158949598766,1.2959507,-0.56306505,1.1204796,0.00064016436,-0.0009768492,-0.0033557685
UncalAccel,1676592655318,120158949598766,4.9399824,2.4717858,4.4434714,0.006110925,-0.043260336,-0.038735468
OrientationDeg,1676592655318,120158949598766,174.0,-19.0,-34.0
UncalMag,1676592655326,120158957875988,-55.131798,-36.5512,-88.8404,-47.646854,1.2478232,-64.42538
UncalGyro,1676592655327,120158958577770,1.1748465,-0.94134337,1.1061243,0.00064016436,-0.0009768492,-0.0033557685
UncalAccel,1676592655327,120158958577770,4.875376,2.28036,3.775276,0.006110925,-0.043260336,-0.038735468
OrientationDeg,1676592655328,120158958577770,173.0,-20.0,-34.0
UncalGyro,1676592655336,120158967558238,0.97600996,-1.244027,1.0525209,0.00064016436,-0.0009768492,-0.0033557685
UncalAccel,1676592655337,120158967558238,5.4723854,2.056631,4.1054854,0.006110925,-0.043260336,-0.038735468
UncalMag,1676592655337,120158967870128,-56.364,-37.027,-87.4252,-47.646854,1.2478232,-64.42538
OrientationDeg,1676592655337,120158967558238,172.0,-21.0,-34.0
UncalGyro,1676592655346,120158976544139,0.7328856,-1.365742,0.99387777,0.00064016436,-0.0009768492,-0.0033557685
UncalAccel,1676592655345,120158976544139,5.6578293,1.302892,4.9980083,0.006110925,-0.043260336,-0.038735468
UncalMag,1676592655347,120158977864513,-58.0354,-37.4784,-86.8762,-47.646854,1.2478232,-64.42538
OrientationDeg,1676592655346,120158976544139,172.0,-23.0,-34.0
UncalGyro,1676592655354,120158985520213,0.5319109,-1.3281738,1.0261009,0.00064016436,-0.0009768492,-0.0033557685
UncalAccel,1676592655354,120158985520213,4.9459643,0.87158567,6.617949,0.006110925,-0.043260336,-0.038735468
OrientationDeg,1676592655354,120158985520213,171.0,-24.0,-34.0
UncalMag,1676592655356,120158987876232,-58.377,-37.6736,-87.5716,-47.646854,1.2478232,-64.42538
UncalGyro,1676592655364,120158994495372,0.40393466,-1.0772609,1.2247849,0.00064016436,-0.0009768492,-0.0033557685
UncalAccel,1676592655364,120158994495372,4.1222353,0.11485548,8.116454,0.006110925,-0.043260336,-0.038735468
OrientationDeg,1676592655364,120158994495372,170.0,-25.0,-34.0
UncalMag,1676592655367,120158997864757,-60.2558,-37.9664,-87.4374,-47.646854,1.2478232,-64.42538
UncalGyro,1676592655372,120159003479076,0.35414913,-0.61559945,1.5508342,0.00064016436,-0.0009768492,-0.0033557685
UncalAccel,1676592655372,120159003479076,3.2488549,-0.2632105,8.791828,0.006110925,-0.043260336,-0.038735468
OrientationDeg,1676592655373,120159003479076,169.0,-26.0,-34.0
UncalMag,1676592655376,120159007875988,-61.134197,-38.320198,-88.1206,-47.646854,1.2478232,-64.42538
UncalGyro,1676592655381,120159012453807,0.30909783,-0.2507602,1.8385516,0.00064016436,-0.0009768492,-0.0033557685
UncalAccel,1676592655382,120159012453807,3.7190447,-0.8422736,7.242476,0.006110925,-0.043260336,-0.038735468
OrientationDeg,1676592655381,120159012453807,168.0,-26.0,-34.0
UncalMag,1676592655387,120159017875011,-61.4026,-38.0762,-86.8396,-47.646854,1.2478232,-64.42538
UncalGyro,1676592655391,120159021429149,0.2733622,-0.19639318,2.1096232,0.00064016436,-0.0009768492,-0.0033557685
UncalAccel,1676592655391,120159021429149,4.1892343,-1.550549,5.534599,0.006110925,-0.043260336,-0.038735468
OrientationDeg,1676592655390,120159021429149,167.0,-27.0,-33.0
UncalMag,1676592655396,120159027869884,-62.9032,-37.6614,-85.5708,-47.646854,1.2478232,-64.42538
UncalGyro,1676592655399,120159030420116,0.2771801,-0.36545014,2.3393085,0.00064016436,-0.0009768492,-0.0033557685
UncalAccel,1676592655399,120159030420116,4.3178487,-1.7676977,4.2568316,0.006110925,-0.043260336,-0.038735468
OrientationDeg,1676592655400,120159030420116,165.0,-28.0,-33.0
UncalMag,1676592655407,120159037875988,-63.2814,-37.3808,-85.3024,-47.646854,1.2478232,-64.42538
UncalGyro,1676592655408,120159039399974,0.31978795,-0.7464773,2.5326474,0.00064016436,-0.0009768492,-0.0033557685
UncalAccel,1676592655409,120159039399974,4.5092745,-1.8029919,3.1232316,0.006110925,-0.043260336,-0.038735468
OrientationDeg,1676592655408,120159039399974,164.0,-29.0,-32.0
UncalMag,1676592655417,120159047876232,-63.257,-36.697598,-84.899796,-47.646854,1.2478232,-64.42538
UncalGyro,1676592655417,120159048380748,0.39003745,-1.2266175,2.7159069,0.00064016436,-0.0009768492,-0.0033557685
UncalAccel,1676592655417,120159048380748,4.909474,-1.8580267,3.062813,0.006110925,-0.043260336,-0.038735468
OrientationDeg,1676592655417,120159048380748,162.0,-31.0,-31.0
UncalGyro,1676592655427,120159057362254,0.48365256,-1.6256652,2.904206,0.00064016436,-0.0009768492,-0.0033557685
UncalAccel,1676592655427,120159057362254,5.53759,-2.2307088,3.6831522,0.006110925,-0.043260336,-0.038735468
UncalMag,1676592655426,120159057865490,-62.7446,-35.8192,-83.8872,-47.646854,1.2478232,-64.42538
OrientationDeg,1676592655427,120159057362254,161.0,-33.0,-31.0
UncalGyro,1676592655435,120159066327342,0.5839872,-1.918575,3.082426,0.00064016436,-0.0009768492,-0.0033557685
UncalAccel,1676592655435,120159066327342,6.047859,-2.4783661,4.2801614,0.006110925,-0.043260336,-0.038735468
OrientationDeg,1676592655436,120159066327342,159.0,-35.0,-30.0
UncalMag,1676592655436,120159067876232,-65.904396,-36.1242,-85.156,-47.646854,1.2478232,-64.42538
UncalGyro,1676592655445,120159075320995,0.6772968,-2.1346686,3.2545373,0.00064016436,-0.0009768492,-0.0033557685
UncalAccel,1676592655445,120159075320995,6.398408,-2.475375,4.6965127,0.006110925,-0.043260336,-0.038735468
OrientationDeg,1676592655444,120159075320995,158.0,-37.0,-29.0
UncalMag,1676592655447,120159077875744,-68.2834,-36.453598,-83.4114,-47.646854,1.2478232,-64.42538
UncalGyro,1676592655453,120159084298595,0.68019843,-2.225382,3.4324517,0.00064016436,-0.0009768492,-0.0033557685
UncalAccel,1676592655453,120159084298595,6.707082,-2.5202405,4.916652,0.006110925,-0.043260336,-0.038735468
OrientationDeg,1676592655454,120159084298595,156.0,-39.0,-28.0
UncalMag,1676592655457,120159087876232,-71.4432,-35.831398,-84.7778,-47.646854,1.2478232,-64.42538
UncalGyro,1676592655462,120159093282787,0.5401576,-2.193617,3.6180022,0.00064016436,-0.0009768492,-0.0033557685
UncalAccel,1676592655462,120159093282787,7.0002027,-2.8576283,4.854439,0.006110925,-0.043260336,-0.038735468
OrientationDeg,1676592655463,120159093282787,154.0,-41.0,-27.0
UncalMag,1676592655466,120159097862804,-73.3342,-34.3796,-80.4956,-47.646854,1.2478232,-64.42538
UncalGyro,1676592655471,120159102254162,0.28512135,-2.0555615,3.8191295,0.00064016436,-0.0009768492,-0.0033557685
UncalAccel,1676592655472,120159102254162,7.42792,-3.4307094,5.2103715,0.006110925,-0.043260336,-0.038735468
OrientationDeg,1676592655472,120159102254162,152.0,-43.0,-26.0
UncalMag,1676592655477,120159107875988,-76.176796,-33.818398,-81.5448,-47.646854,1.2478232,-64.42538
UncalGyro,1676592655480,120159111242320,0.00992656,-1.856114,4.0149117,0.00064016436,-0.0009768492,-0.0033557685
UncalAccel,1676592655481,120159111242320,8.003992,-3.726223,5.8265233,0.006110925,-0.043260336,-0.038735468
OrientationDeg,1676592655481,120159111242320,151.0,-44.0,-25.0
UncalMag,1676592655487,120159117876232,-74.908,-32.0738,-79.5562,-47.646854,1.2478232,-64.42538
UncalGyro,1676592655490,120159120223461,-0.2041817,-1.6982054,4.184274,0.00064016436,-0.0009768492,-0.0033557685
UncalAccel,1676592655489,120159120223461,8.621938,-3.758526,6.1387863,0.006110925,-0.043260336,-0.038735468
OrientationDeg,1676592655489,120159120223461,149.0,-46.0,-23.0
UncalMag,1676592655497,120159127875744,-77.6652,-31.293,-80.532196,-47.646854,1.2478232,-64.42538
UncalGyro,1676592655498,120159129204295,-0.3155119,-1.6690365,4.3336306,0.00064016436,-0.0009768492,-0.0033557685
UncalAccel,1676592655499,120159129204295,9.273384,-3.9684963,6.221937,0.006110925,-0.043260336,-0.038735468
OrientationDeg,1676592655498,120159129204295,148.0,-47.0,-21.0
UncalMag,1676592655506,120159137875988,-77.9458,-29.706999,-77.3968,-47.646854,1.2478232,-64.42538
UncalGyro,1676592655508,120159138178416,-0.34238997,-1.6937766,4.4584,0.00064016436,-0.0009768492,-0.0033557685
UncalAccel,1676592655508,120159138178416,9.70828,-4.0719857,6.74776,0.006110925,-0.043260336,-0.038735468
OrientationDeg,1676592655508,120159138178416,146.0,-49.0,-19.0
UncalGyro,1676592655517,120159147162670,-0.31795537,-1.7151569,4.558582,0.00064016436,-0.0009768492,-0.0033557685
UncalAccel,1676592655516,120159147162670,9.87458,-4.2885365,6.6041903,0.006110925,-0.043260336,-0.038735468
UncalMag,1676592655516,120159147865490,-80.690796,-28.8042,-77.2016,-47.646854,1.2478232,-64.42538
OrientationDeg,1676592655517,120159147162670,145.0,-50.0,-17.0
UncalGyro,1676592655526,120159156146312,-0.2939789,-1.8170186,4.7224464,0.00064016436,-0.0009768492,-0.0033557685
UncalAccel,1676592655526,120159156146312,9.84467,-4.801797,6.081957,0.006110925,-0.043260336,-0.038735468
UncalMag,1676592655527,120159157876232,-81.496,-27.2304,-76.7868,-47.646854,1.2478232,-64.42538
OrientationDeg,1676592655526,120159156146312,143.0,-51.0,-15.0
UncalGyro,1676592655534,120159165124950,-0.2948952,-1.9567541,4.948772,0.00064016436,-0.0009768492,-0.0033557685
UncalAccel,1676592655535,120159165124950,10.1802635,-5.3503513,5.718248,0.006110925,-0.043260336,-0.038735468
OrientationDeg,1676592655535,120159165124950,142.0,-53.0,-13.0
UncalMag,1676592655537,120159167876232,-85.1804,-26.046999,-76.2378,-47.646854,1.2478232,-64.42538
UncalGyro,1676592655544,120159174103771,-0.35262197,-2.0286834,5.1976995,0.00064016436,-0.0009768492,-0.0033557685
UncalAccel,1676592655544,120159174103771,10.5487585,-5.7744794,5.784649,0.006110925,-0.043260336,-0.038735468
OrientationDeg,1676592655543,120159174103771,140.0,-54.0,-11.0
UncalMag,1676592655547,120159177876232,-85.851395,-23.9608,-76.982,-47.646854,1.2478232,-64.42538
UncalGyro,1676592655552,120159183084056,-0.51083606,-1.9827158,5.43441,0.00064016436,-0.0009768492,-0.0033557685
UncalAccel,1676592655553,120159183084056,11.041081,-5.7009,5.5920267,0.006110925,-0.043260336,-0.038735468
OrientationDeg,1676592655552,120159183084056,139.0,-56.0,-8.0
UncalMag,1676592655557,120159187864269,-89.1942,-22.448,-76.969795,-47.646854,1.2478232,-64.42538
UncalGyro,1676592655561,120159192064525,-0.7458665,-1.8961257,5.572313,0.00064016436,-0.0009768492,-0.0033557685
UncalAccel,1676592655561,120159192064525,12.47199,-5.368896,6.009574,0.006110925,-0.043260336,-0.038735468
OrientationDeg,1676592655562,120159192064525,138.0,-57.0,-5.0
UncalMag,1676592655566,120159197876232,-90.4142,-20.374,-75.1398,-47.646854,1.2478232,-64.42538
UncalGyro,1676592655570,120159201046397,-1.0042624,-1.6282613,5.615684,0.00064016436,-0.0009768492,-0.0033557685
UncalAccel,1676592655571,120159201046397,13.444673,-4.788636,7.8233337,0.006110925,-0.043260336,-0.038735468
OrientationDeg,1676592655571,120159201046397,137.0,-58.0,-3.0
UncalMag,1676592655577,120159207876232,-90.4386,-17.604599,-73.8222,-47.646854,1.2478232,-64.42538
UncalGyro,1676592655579,120159210024547,-1.2415836,-1.2933544,5.6094227,0.00064016436,-0.0009768492,-0.0033557685
UncalAccel,1676592655579,120159210024547,14.588442,-4.72403,7.9908314,0.006110925,-0.043260336,-0.038735468
OrientationDeg,1676592655580,120159210024547,136.0,-58.0,0.0
UncalMag,1676592655586,120159217864513,-91.317,-15.4939995,-68.1248,-47.646854,1.2478232,-64.42538
UncalGyro,1676592655588,120159219004772,-1.5065464,-1.0247264,5.451056,0.00064016436,-0.0009768492,-0.0033557685
UncalAccel,1676592655588,120159219004772,16.39203,-4.6432724,7.765906,0.006110925,-0.043260336,-0.038735468
OrientationDeg,1676592655589,120159219004772,135.0,-59.0,2.0
UncalMag,1676592655597,120159227875988,-92.073395,-13.2736,-68.2712,-47.646854,1.2478232,-64.42538
UncalGyro,1676592655596,120159227982616,-1.7418822,-0.81306165,5.253899,0.00064016436,-0.0009768492,-0.0033557685
UncalAccel,1676592655597,120159227982616,16.043877,-5.0674,10.006784,0.006110925,-0.043260336,-0.038735468
OrientationDeg,1676592655597,120159227982616,134.0,-59.0,5.0
UncalGyro,1676592655606,120159236966869,-1.771051,-0.5128214,5.2859697,0.00064016436,-0.0009768492,-0.0033557685
UncalAccel,1676592655606,120159236966869,14.189438,-6.5030937,12.693326,0.006110925,-0.043260336,-0.038735468
UncalMag,1676592655607,120159237866466,-93.781395,-11.0532,-69.845,-47.646854,1.2478232,-64.42538
OrientationDeg,1676592655605,120159236966869,134.0,-59.0,8.0
UncalGyro,1676592655614,120159245946666,-1.7259997,0.12950343,5.2940636,0.00064016436,-0.0009768492,-0.0033557685
UncalAccel,1676592655615,120159245946666,15.664015,-6.1232333,13.945969,0.006110925,-0.043260336,-0.038735468
OrientationDeg,1676592655615,120159245946666,133.0,-59.0,10.0
UncalMag,1676592655617,120159247875988,-93.391,-8.2472,-68.7592,-47.646854,1.2478232,-64.42538
UncalGyro,1676592655624,120159254921581,-1.6085609,0.5710063,5.3183455,0.00064016436,-0.0009768492,-0.0033557685
UncalAccel,1676592655624,120159254921581,13.907683,-6.361917,13.993825,0.006110925,-0.043260336,-0.038735468
OrientationDeg,1676592655624,120159254921581,132.0,-59.0,13.0
UncalMag,1676592655627,120159257875988,-95.6724,-6.3318,-69.7596,-47.646854,1.2478232,-64.42538
UncalGyro,1676592655632,120159263908580,-1.3272575,0.7713701,5.4197493,0.00064016436,-0.0009768492,-0.0033557685
UncalAccel,1676592655632,120159263908580,13.9782715,-5.6578293,13.282558,0.006110925,-0.043260336,-0.038735468
OrientationDeg,1676592655633,120159263908580,131.0,-58.0,16.0
UncalMag,1676592655637,120159267875988,-95.940796,-4.026,-70.4428,-47.646854,1.2478232,-64.42538
UncalGyro,1676592655642,120159272886302,-1.0073168,0.7454083,5.369353,0.00064016436,-0.0009768492,-0.0033557685
UncalAccel,1676592655642,120159272886302,15.062819,-5.5016975,12.020943,0.006110925,-0.043260336,-0.038735468
OrientationDeg,1676592655641,120159272886302,130.0,-57.0,19.0
UncalMag,1676592655646,120159277863781,-95.404,-1.4518,-69.3692,-47.646854,1.2478232,-64.42538
UncalGyro,1676592655650,120159281867076,-0.65179324,0.505491,5.253594,0.00064016436,-0.0009768492,-0.0033557685
UncalAccel,1676592655650,120159281867076,14.241482,-4.6486564,10.753943,0.006110925,-0.043260336,-0.038735468
OrientationDeg,1676592655651,120159281867076,129.0,-57.0,21.0
UncalMag,1676592655657,120159287875744,-94.184,1.525,-69.296,-47.646854,1.2478232,-64.42538
UncalGyro,1676592655659,120159290848339,-0.3454443,0.13591751,5.137071,0.00064016436,-0.0009768492,-0.0033557685
UncalAccel,1676592655659,120159290848339,13.829917,-4.1431723,8.9724865,0.006110925,-0.043260336,-0.038735468
OrientationDeg,1676592655659,120159290848339,128.0,-56.0,23.0
UncalMag,1676592655666,120159297875255,-96.416595,2.7206,-70.881996,-47.646854,1.2478232,-64.42538
UncalGyro,1676592655668,120159299817821,-0.13622294,-0.2835942,5.0388746,0.00064016436,-0.0009768492,-0.0033557685
UncalAccel,1676592655668,120159299817821,13.350156,-4.5003014,8.05783,0.006110925,-0.043260336,-0.038735468
OrientationDeg,1676592655669,120159299817821,126.0,-55.0,25.0
UncalMag,1676592655677,120159307876232,-94.0376,6.0146,-66.9048,-47.646854,1.2478232,-64.42538
UncalGyro,1676592655677,120159308808483,0.0041233404,-0.59589905,5.007873,0.00064016436,-0.0009768492,-0.0033557685
UncalAccel,1676592655677,120159308808483,12.927822,-4.776074,8.178668,0.006110925,-0.043260336,-0.038735468
OrientationDeg,1676592655677,120159308808483,125.0,-55.0,28.0
UncalGyro,1676592655686,120159317787731,0.09666943,-0.74220127,5.0258937,0.00064016436,-0.0009768492,-0.0033557685
UncalAccel,1676592655686,120159317787731,13.036098,-4.651647,8.708678,0.006110925,-0.043260336,-0.038735468
UncalMag,1676592655686,120159317875499,-96.111595,7.3932,-68.2834,-47.646854,1.2478232,-64.42538
OrientationDeg,1676592655687,120159317787731,123.0,-55.0,30.0
UncalGyro,1676592655696,120159326767955,0.124005646,-0.7703011,5.014135,0.00064016436,-0.0009768492,-0.0033557685
UncalAccel,1676592655696,120159326767955,13.325031,-4.341777,8.592627,0.006110925,-0.043260336,-0.038735468
OrientationDeg,1676592655695,120159326767955,121.0,-54.0,32.0
UncalMag,1676592655696,120159327864025,-95.6846,9.3818,-68.722595,-47.646854,1.2478232,-64.42538
UncalGyro,1676592655704,120159335748363,0.1160644,-0.75747293,4.970916,0.00064016436,-0.0009768492,-0.0033557685
UncalAccel,1676592655705,120159335748363,13.960325,-4.3411784,8.319246,0.006110925,-0.043260336,-0.038735468
OrientationDeg,1676592655705,120159335748363,119.0,-53.0,34.0
UncalMag,1676592655706,120159337876232,-93.9034,12.6392,-67.2708,-47.646854,1.2478232,-64.42538
UncalGyro,1676592655713,120159344730174,0.15515977,-0.77411896,4.909524,0.00064016436,-0.0009768492,-0.0033557685
UncalAccel,1676592655713,120159344730174,13.411771,-4.0648074,7.8317084,0.006110925,-0.043260336,-0.038735468
OrientationDeg,1676592655714,120159344730174,117.0,-53.0,36.0
UncalMag,1676592655717,120159347876232,-94.3182,14.444799,-67.344,-47.646854,1.2478232,-64.42538
UncalGyro,1676592655722,120159353708873,0.2706133,-0.9763154,4.83958,0.00064016436,-0.0009768492,-0.0033557685
UncalAccel,1676592655722,120159353708873,13.0875435,-3.9290147,6.110671,0.006110925,-0.043260336,-0.038735468
OrientationDeg,1676592655722,120159353708873,115.0,-52.0,38.0
UncalMag,1676592655727,120159357876232,-93.622795,16.7262,-67.783195,-47.646854,1.2478232,-64.42538
UncalGyro,1676592655732,120159362677379,0.45097128,-1.3390167,4.7481027,0.00064016436,-0.0009768492,-0.0033557685
UncalAccel,1676592655732,120159362677379,13.184453,-4.2035913,5.3946185,0.006110925,-0.043260336,-0.038735468
OrientationDeg,1676592655731,120159362677379,113.0,-51.0,39.0
UncalMag,1676592655737,120159367875988,-93.134796,18.2024,-64.6356,-47.646854,1.2478232,-64.42538
UncalGyro,1676592655741,120159371666392,0.6968445,-1.6757561,4.6347876,0.00064016436,-0.0009768492,-0.0033557685
UncalAccel,1676592655740,120159371666392,13.000205,-4.1353955,5.1846485,0.006110925,-0.043260336,-0.038735468
OrientationDeg,1676592655740,120159371666392,111.0,-51.0,41.0
UncalMag,1676592655747,120159377875988,-91.988,20.3496,-65.0504,-47.646854,1.2478232,-64.42538
UncalGyro,1676592655750,120159380650768,0.96944314,-1.9816469,4.536133,0.00064016436,-0.0009768492,-0.0033557685
UncalAccel,1676592655750,120159380650768,12.64188,-3.7974095,4.8652067,0.006110925,-0.043260336,-0.038735468
OrientationDeg,1676592655749,120159380650768,108.0,-50.0,42.0
UncalMag,1676592655756,120159387876232,-92.695595,21.7892,-65.1114,-47.646854,1.2478232,-64.42538
UncalGyro,1676592655758,120159389632518,1.278541,-2.3402247,4.450764,0.00064016436,-0.0009768492,-0.0033557685
UncalAccel,1676592655759,120159389632518,12.756138,-3.5724843,5.2438707,0.006110925,-0.043260336,-0.038735468
OrientationDeg,1676592655759,120159389632518,106.0,-50.0,44.0
