# 
# Header Description:
# 
# Version: v3.0.5.6 Platform: 13 Manufacturer: Google Model: Pixel 6
# 
# Raw,utcTimeMillis,TimeNanos,LeapSecond,TimeUncertaintyNanos,FullBiasNanos,BiasNanos,BiasUncertaintyNanos,DriftNanosPerSecond,DriftUncertaintyNanosPerSecond,HardwareClockDiscontinuityCount,Svid,TimeOffsetNanos,State,ReceivedSvTimeNanos,ReceivedSvTimeUncertaintyNanos,Cn0DbHz,PseudorangeRateMetersPerSecond,PseudorangeRateUncertaintyMetersPerSecond,AccumulatedDeltaRangeState,AccumulatedDeltaRangeMeters,AccumulatedDeltaRangeUncertaintyMeters,CarrierFrequencyHz,CarrierCycles,CarrierPhase,CarrierPhaseUncertainty,MultipathIndicator,SnrInDb,ConstellationType,AgcDb,BasebandCn0DbHz,FullInterSignalBiasNanos,FullInterSignalBiasUncertaintyNanos,SatelliteInterSignalBiasNanos,SatelliteInterSignalBiasUncertaintyNanos,CodeType,ChipsetElapsedRealtimeNanos
# 
# UncalAccel,utcTimeMillis,elapsedRealtimeNanos,UncalAccelXMps2,UncalAccelYMps2,UncalAccelZMps2,BiasXMps2,BiasYMps2,BiasZMps2
# 
# Accel,utcTimeMillis,elapsedRealtimeNanos,AccelXMps2,AccelYMps2,AccelZMps2
# 
# UncalGyro,utcTimeMillis,elapsedRealtimeNanos,UncalGyroXRadPerSec,UncalGyroYRadPerSec,UncalGyroZRadPerSec,DriftXRadPerSec,DriftYRadPerSec,DriftZRadPerSec
# 
# Gyro,utcTimeMillis,elapsedRealtimeNanos,GyroXRadPerSec,GyroYRadPerSec,GyroZRadPerSec
# 
# UncalMag,utcTimeMillis,elapsedRealtimeNanos,UncalMagXMicroT,UncalMagYMicroT,UncalMagZMicroT,BiasXMicroT,BiasYMicroT,BiasZMicroT
# 
# Mag,utcTimeMillis,elapsedRealtimeNanos,MagXMicroT,MagYMicroT,MagZMicroT
# 
# OrientationDeg,utcTimeMillis,elapsedRealtimeNanos,yawDeg,rollDeg,pitchDeg
# 
# Fix,Provider,LatitudeDegrees,LongitudeDegrees,AltitudeMeters,SpeedMps,AccuracyMeters,BearingDegrees,UnixTimeMillis,SpeedAccuracyMps,BearingAccuracyDegrees,elapsedRealtimeNanos,VerticalAccuracyMeters
# 
# Nav,Svid,Type,Status,MessageId,Sub-messageId,Data(Bytes)
# 
# Status,UnixTimeMillis,SignalCount,SignalIndex,ConstellationType,Svid,CarrierFrequencyHz,Cn0DbHz,AzimuthDegrees,ElevationDegrees,UsedInFix,HasAlmanacData,HasEphemerisData,BasebandCn0DbHz
# 
UncalAccel,1676593756099,121259729524059,-0.20398813,0.10827523,10.154541,0.006110925,-0.043260336,-0.038735468
UncalMag,1676593756099,121259730001232,-45.506,20.874199,-112.1058,-47.771046,2.9698257,-64.15999
UncalGyro,1676593756103,121259734003246,0.07727446,-0.7673995,-0.07086037,0.0004699729,-0.0010100363,-0.0032424598
UncalAccel,1676593756107,121259738490795,0.093918286,-0.0424726,10.374083,0.006110925,-0.043260336,-0.038735468
UncalMag,1676593756109,121259740005138,-45.5792,21.2768,-111.4592,-47.771046,2.9698257,-64.15999
UncalGyro,1676593756111,121259742982921,0.08231409,-0.6722572,-0.032223143,0.0004699729,-0.0010100363,-0.0032424598
OrientationDeg,1676593756107,121259738490795,348.0,0.0,-10.0
Fix,FLP,37.4312956000,-122.1550580000,-16.5,0.3092894,4.275,333.09662,1676593755610,,,121259240129467,2.8106048
UncalAccel,1676593756117,121259747470226,0.24466611,-0.10049855,10.683953,0.006110925,-0.043260336,-0.038735468
OrientationDeg,1676593756117,121259747470226,348.0,-1.0,-10.0
UncalMag,1676593756118,121259749999523,-45.75,20.5814,-111.678795,-47.771046,2.9698257,-64.15999
UncalGyro,1676593756121,121259751961864,0.025350908,-0.4622723,0.0036651916,0.0004699729,-0.0010100363,-0.0032424598
UncalAccel,1676593756125,121259756451610,0.23988047,-0.09092726,10.736595,0.006110925,-0.043260336,-0.038735468
OrientationDeg,1676593756126,121259756451610,348.0,-1.0,-10.0
UncalMag,1676593756130,121259760009289,-43.8346,21.4842,-110.3124,-47.771046,2.9698257,-64.15999
UncalGyro,1676593756130,121259760942455,-0.07925977,-0.21426098,0.053603426,0.0004699729,-0.0010100363,-0.0032424598
UncalAccel,1676593756135,121259765431530,0.20219351,-0.023330022,10.736595,0.006110925,-0.043260336,-0.038735468
OrientationDeg,1676593756135,121259765431530,348.0,-1.0,-9.0
UncalGyro,1676593756138,121259769920238,-0.2134974,0.022449298,0.12308934,0.0004699729,-0.0010100363,-0.0032424598
UncalMag,1676593756139,121259770008800,-42.151,21.6306,-109.922,-47.771046,2.9698257,-64.15999
UncalAccel,1676593756143,121259774412547,0.27038896,0.148355,10.647463,0.006110925,-0.043260336,-0.038735468
OrientationDeg,1676593756144,121259774412547,348.0,-1.0,-9.0
UncalGyro,1676593756148,121259778905346,-0.3465133,0.21380283,0.18585575,0.0004699729,-0.0010100363,-0.0032424598
UncalMag,1676593756149,121259780001476,-42.455997,21.5574,-108.6776,-47.771046,2.9698257,-64.15999
UncalAccel,1676593756153,121259783398631,0.4444668,0.28175488,10.391431,0.006110925,-0.043260336,-0.038735468
OrientationDeg,1676593756152,121259783398631,348.0,-1.0,-9.0
UncalGyro,1676593756157,121259787882274,-0.44089198,0.30848694,0.22220223,0.0004699729,-0.0010100363,-0.0032424598
UncalMag,1676593756158,121259789999279,-44.8838,21.1182,-110.8126,-47.771046,2.9698257,-64.15999
UncalAccel,1676593756162,121259792369945,0.76630145,0.42831525,10.160523,0.006110925,-0.043260336,-0.038735468
OrientationDeg,1676593756161,121259792369945,348.0,-1.0,-9.0
UncalGyro,1676593756165,121259796863598,-0.4700608,0.29840767,0.2012801,0.0004699729,-0.0010100363,-0.0032424598
UncalMag,1676593756169,121259799999767,-44.4202,22.0698,-111.666595,-47.771046,2.9698257,-64.15999
UncalAccel,1676593756170,121259801356456,1.0091729,0.4121637,10.109077,0.006110925,-0.043260336,-0.038735468
OrientationDeg,1676593756171,121259801356456,348.0,0.0,-9.0
UncalGyro,1676593756175,121259805846507,-0.45433104,0.25870144,0.123547494,0.0004699729,-0.0010100363,-0.0032424598
UncalMag,1676593756180,121259810007335,-45.261997,21.3744,-114.326195,-47.771046,2.9698257,-64.15999
UncalAccel,1676593756180,121259810342174,0.91106725,0.029312078,10.153943,0.006110925,-0.043260336,-0.038735468
OrientationDeg,1676593756179,121259810342174,348.0,0.0,-8.0
UncalGyro,1676593756184,121259814830456,-0.43279803,0.22036964,0.05009095,0.0004699729,-0.0010100363,-0.0032424598
UncalAccel,1676593756188,121259819322460,0.68075806,-0.55393845,10.454841,0.006110925,-0.043260336,-0.038735468
UncalMag,1676593756188,121259819999279,-44.1396,22.0088,-112.0204,-47.771046,2.9698257,-64.15999
OrientationDeg,1676593756188,121259819322460,348.0,0.0,-8.0
UncalGyro,1676593756192,121259823811168,-0.42287147,0.23548855,0.05024367,0.0004699729,-0.0010100363,-0.0032424598
UncalAccel,1676593756198,121259828300731,0.45403808,-1.2047862,10.99861,0.006110925,-0.043260336,-0.038735468
OrientationDeg,1676593756198,121259828300731,348.0,0.0,-8.0
UncalMag,1676593756200,121259830010753,-42.5658,22.2162,-111.1298,-47.771046,2.9698257,-64.15999
UncalGyro,1676593756202,121259832790294,-0.4176791,0.3089451,0.15134187,0.0004699729,-0.0010100363,-0.0032424598
UncalAccel,1676593756206,121259837277782,0.10887343,-1.7922242,11.504093,0.006110925,-0.043260336,-0.038735468
OrientationDeg,1676593756207,121259837277782,348.0,0.0,-8.0
UncalMag,1676593756209,121259840010998,-42.3218,22.8018,-110.3368,-47.771046,2.9698257,-64.15999
UncalGyro,1676593756211,121259841771862,-0.40225476,0.4005749,0.34223726,0.0004699729,-0.0010100363,-0.0032424598
OrientationDeg,1676593756215,121259846259716,348.0,0.0,-7.0
UncalAccel,1676593756215,121259846259716,-0.13758731,-2.0494525,11.773286,0.006110925,-0.043260336,-0.038735468
UncalMag,1676593756219,121259850010753,-43.5174,22.435799,-110.446594,-47.771046,2.9698257,-64.15999
UncalGyro,1676593756220,121259850751231,-0.36667186,0.4831944,0.5723807,0.0004699729,-0.0010100363,-0.0032424598
UncalAccel,1676593756225,121259855236400,-0.12921242,-2.0207388,12.073585,0.006110925,-0.043260336,-0.038735468
OrientationDeg,1676593756225,121259855236400,347.0,0.0,-7.0
UncalGyro,1676593756229,121259859719371,-0.2950479,0.5309946,0.78542,0.0004699729,-0.0010100363,-0.0032424598
UncalMag,1676593756230,121259860011486,-43.0172,21.3378,-110.6174,-47.771046,2.9698257,-64.15999
UncalAccel,1676593756234,121259864219127,0.18005991,-1.9740787,12.242279,0.006110925,-0.043260336,-0.038735468
OrientationDeg,1676593756234,121259864219127,347.0,0.0,-7.0
UncalGyro,1676593756238,121259868710094,-0.18478674,0.5702427,0.9611965,0.0004699729,-0.0010100363,-0.0032424598
UncalMag,1676593756240,121259870010753,-41.443398,22.704199,-107.8236,-47.771046,2.9698257,-64.15999
UncalAccel,1676593756243,121259873201794,0.6969096,-1.8095721,12.102299,0.006110925,-0.043260336,-0.038735468
OrientationDeg,1676593756242,121259873201794,346.0,0.0,-7.0
UncalGyro,1676593756247,121259877690563,-0.047647487,0.6160576,1.0786353,0.0004699729,-0.0010100363,-0.0032424598
UncalMag,1676593756250,121259880010753,-41.370197,22.692,-109.7512,-47.771046,2.9698257,-64.15999
UncalAccel,1676593756252,121259882178539,1.3166506,-1.3531412,11.812169,0.006110925,-0.043260336,-0.038735468
OrientationDeg,1676593756252,121259882178539,346.0,0.0,-7.0
UncalGyro,1676593756255,121259886669323,0.112399206,0.6603453,1.1158981,0.0004699729,-0.0010100363,-0.0032424598
UncalMag,1676593756259,121259890010998,-41.5288,22.3016,-108.396996,-47.771046,2.9698257,-64.15999
UncalAccel,1676593756260,121259891158153,1.9902302,-0.8105687,11.379666,0.006110925,-0.043260336,-0.038735468
OrientationDeg,1676593756261,121259891158153,345.0,0.0,-7.0
UncalGyro,1676593756265,121259895649242,0.3042109,0.6760751,1.0728321,0.0004699729,-0.0010100363,-0.0032424598
UncalMag,1676593756270,121259900011242,-39.1742,23.4728,-108.2872,-47.771046,2.9698257,-64.15999
UncalAccel,1676593756269,121259900134959,2.592025,-0.37806597,10.822139,0.006110925,-0.043260336,-0.038735468
OrientationDeg,1676593756270,121259900134959,344.0,1.0,-7.0
UncalGyro,1676593756273,121259904617321,0.547488,0.6227771,0.97081757,0.0004699729,-0.0010100363,-0.0032424598
UncalAccel,1676593756278,121259909118053,2.978466,-0.025722843,10.4159565,0.006110925,-0.043260336,-0.038735468
UncalMag,1676593756278,121259909999035,-37.149,22.9848,-106.1522,-47.771046,2.9698257,-64.15999
OrientationDeg,1676593756278,121259909118053,344.0,1.0,-8.0
UncalGyro,1676593756282,121259913609813,0.84849185,0.5345071,0.83291477,0.0004699729,-0.0010100363,-0.0032424598
UncalAccel,1676593756287,121259918100413,2.9802606,0.2620141,10.402797,0.006110925,-0.043260336,-0.038735468
OrientationDeg,1676593756287,121259918100413,344.0,1.0,-8.0
UncalMag,1676593756290,121259920010998,-37.3442,22.3626,-107.469795,-47.771046,2.9698257,-64.15999
UncalGyro,1676593756292,121259922588268,1.2041681,0.4822781,0.6575964,0.0004699729,-0.0010100363,-0.0032424598
UncalAccel,1676593756297,121259927077282,2.8893332,0.4977071,10.818549,0.006110925,-0.043260336,-0.038735468
OrientationDeg,1676593756297,121259927077282,343.0,1.0,-9.0
UncalMag,1676593756299,121259930010998,-37.9298,21.4476,-107.7382,-47.771046,2.9698257,-64.15999
UncalGyro,1676593756300,121259931569225,1.6120734,0.48563787,0.43096542,0.0004699729,-0.0010100363,-0.0032424598
UncalAccel,1676593756306,121259936057079,2.7122645,0.68075806,11.314462,0.006110925,-0.043260336,-0.038735468
OrientationDeg,1676593756305,121259936057079,343.0,1.0,-10.0
UncalMag,1676593756310,121259940010753,-39.564598,19.7274,-109.3852,-47.771046,2.9698257,-64.15999
UncalGyro,1676593756310,121259940547985,2.0616703,0.48349985,0.16523905,0.0004699729,-0.0010100363,-0.0032424598
UncalAccel,1676593756314,121259945036815,2.4855444,0.6299106,11.799008,0.006110925,-0.043260336,-0.038735468
OrientationDeg,1676593756315,121259945036815,343.0,2.0,-11.0
UncalGyro,1676593756319,121259949528942,2.5422685,0.44913867,-0.09392053,0.0004699729,-0.0010100363,-0.0032424598
UncalMag,1676593756319,121259949999279,-39.735397,18.6782,-110.275795,-47.771046,2.9698257,-64.15999
UncalAccel,1676593756323,121259954016430,2.2235305,0.26261228,12.167503,0.006110925,-0.043260336,-0.038735468
OrientationDeg,1676593756324,121259954016430,343.0,2.0,-12.0
UncalGyro,1676593756327,121259958507213,3.0208814,0.45188758,-0.3013093,0.0004699729,-0.0010100363,-0.0032424598
UncalMag,1676593756330,121259960010998,-40.4552,17.2142,-111.325,-47.771046,2.9698257,-64.15999
UncalAccel,1676593756331,121259962995922,2.169692,0.2865405,12.501302,0.006110925,-0.043260336,-0.038735468
OrientationDeg,1676593756332,121259962995922,344.0,2.0,-14.0
UncalGyro,1676593756336,121259967487194,3.4542902,0.5476407,-0.45860708,0.0004699729,-0.0010100363,-0.0032424598
UncalMag,1676593756340,121259970010753,-40.3088,16.043,-111.349396,-47.771046,2.9698257,-64.15999
UncalAccel,1676593756340,121259971976024,2.2881367,0.506082,11.030314,0.006110925,-0.043260336,-0.038735468
OrientationDeg,1676593756340,121259971976024,344.0,3.0,-16.0
UncalGyro,1676593756345,121259976466869,3.529274,0.2501493,-0.5737552,0.0004699729,-0.0010100363,-0.0032424598
UncalMag,1676593756350,121259980010998,-39.0888,14.871799,-111.215195,-47.771046,2.9698257,-64.15999
UncalAccel,1676593756350,121259980955699,2.164308,0.91585284,2.8917263,0.006110925,-0.043260336,-0.038735468
OrientationDeg,1676593756349,121259980955699,344.0,2.0,-18.0
UncalGyro,1676593756355,121259985447582,2.6497808,-1.312444,-0.6889033,0.0004699729,-0.0010100363,-0.0032424598
UncalAccel,1676593756358,121259989932384,1.9902302,1.50688,3.3517463,0.006110925,-0.043260336,-0.038735468
UncalMag,1676593756359,121259990011730,-41.5532,12.9808,-111.520195,-47.771046,2.9698257,-64.15999
OrientationDeg,1676593756359,121259989932384,345.0,1.0,-19.0
UncalGyro,1676593756364,121259994415233,1.8278615,-2.4921775,-0.8151997,0.0004699729,-0.0010100363,-0.0032424598
UncalAccel,1676593756367,121259998911510,2.5842485,1.4380864,8.438888,0.006110925,-0.043260336,-0.038735468
UncalMag,1676593756369,121259999999035,-42.8952,12.627,-113.7284,-47.771046,2.9698257,-64.15999
OrientationDeg,1676593756368,121259998911510,345.0,0.0,-19.0
UncalGyro,1676593756373,121260003392528,1.5894713,-2.6070201,-0.98440933,0.0004699729,-0.0010100363,-0.0032424598
UncalAccel,1676593756376,121260007897715,2.8839495,1.4560326,10.537393,0.006110925,-0.043260336,-0.038735468
OrientationDeg,1676593756377,121260007897715,346.0,0.0,-20.0
UncalMag,1676593756379,121260010007091,-43.6638,11.9925995,-113.240395,-47.771046,2.9698257,-64.15999
UncalGyro,1676593756381,121260012385875,1.5604553,-2.1682663,-1.1995866,0.0004699729,-0.0010100363,-0.0032424598
UncalAccel,1676593756386,121260016878307,3.2309089,1.6701902,11.026127,0.006110925,-0.043260336,-0.038735468
OrientationDeg,1676593756385,121260016878307,347.0,-1.0,-21.0
UncalMag,1676593756390,121260020010998,-43.4442,12.0414,-113.948,-47.771046,2.9698257,-64.15999
UncalGyro,1676593756391,121260021363475,1.4721853,-1.5845845,-1.4042265,0.0004699729,-0.0010100363,-0.0032424598
UncalAccel,1676593756394,121260025841930,3.5712879,1.5720844,10.469795,0.006110925,-0.043260336,-0.038735468
OrientationDeg,1676593756395,121260025841930,348.0,-1.0,-22.0
UncalMag,1676593756400,121260030010998,-43.3344,11.5046,-112.935394,-47.771046,2.9698257,-64.15999
UncalGyro,1676593756400,121260030345348,1.2986995,-1.0514518,-1.5494597,0.0004699729,-0.0010100363,-0.0032424598
UncalAccel,1676593756403,121260034833751,3.8297126,1.4793626,10.1700945,0.006110925,-0.043260336,-0.038735468
OrientationDeg,1676593756404,121260034833751,348.0,-1.0,-22.0
UncalGyro,1676593756408,121260039327709,1.1233811,-0.5497787,-1.6716328,0.0004699729,-0.0010100363,-0.0032424598
UncalMag,1676593756409,121260039999035,-44.859398,11.1996,-113.679596,-47.771046,2.9698257,-64.15999
UncalAccel,1676593756412,121260043811718,4.1150565,1.6211374,9.609575,0.006110925,-0.043260336,-0.038735468
OrientationDeg,1676593756413,121260043811718,349.0,-1.0,-23.0
UncalGyro,1676593756417,121260048296276,0.96577793,-0.16065755,-1.817935,0.0004699729,-0.0010100363,-0.0032424598
UncalMag,1676593756419,121260050010998,-45.7012,10.0528,-114.496994,-47.771046,2.9698257,-64.15999
UncalAccel,1676593756421,121260052793956,4.161717,1.7455641,8.971889,0.006110925,-0.043260336,-0.038735468
OrientationDeg,1676593756421,121260052793956,350.0,-1.0,-23.0
UncalGyro,1676593756427,121260057285533,0.80741113,0.07467828,-1.9836322,0.0004699729,-0.0010100363,-0.0032424598
UncalMag,1676593756429,121260060010753,-47.9338,9.882,-116.2172,-47.771046,2.9698257,-64.15999
UncalAccel,1676593756430,121260061775462,3.9834516,1.7318054,8.356335,0.006110925,-0.043260336,-0.038735468
OrientationDeg,1676593756430,121260061775462,352.0,0.0,-24.0
UncalGyro,1676593756436,121260066261363,0.6404922,0.160963,-2.159256,0.0004699729,-0.0010100363,-0.0032424598
UncalMag,1676593756440,121260070010998,-45.0302,10.004,-113.679596,-47.771046,2.9698257,-64.15999
UncalAccel,1676593756439,121260070741405,3.7334015,1.689931,7.764111,0.006110925,-0.043260336,-0.038735468
OrientationDeg,1676593756440,121260070741405,353.0,0.0,-24.0
UncalGyro,1676593756445,121260075245250,0.49312097,0.13347405,-2.3260221,0.0004699729,-0.0010100363,-0.0032424598
UncalAccel,1676593756449,121260079732799,3.3296127,1.6731812,7.4620175,0.006110925,-0.043260336,-0.038735468
UncalMag,1676593756449,121260080004162,-44.090797,10.1504,-113.8016,-47.771046,2.9698257,-64.15999
OrientationDeg,1676593756449,121260079732799,354.0,0.0,-24.0
UncalGyro,1676593756454,121260084226695,0.39263365,0.050549097,-2.477822,0.0004699729,-0.0010100363,-0.0032424598
UncalAccel,1676593756457,121260088712474,2.7116663,1.7341982,7.216155,0.006110925,-0.043260336,-0.038735468
UncalMag,1676593756459,121260090010998,-43.2978,10.1626,-112.1912,-47.771046,2.9698257,-64.15999
OrientationDeg,1676593756457,121260088712474,356.0,1.0,-24.0
UncalGyro,1676593756462,121260093204479,0.33261612,-0.061239243,-2.6116016,0.0004699729,-0.0010100363,-0.0032424598
UncalAccel,1676593756467,121260097692211,1.5367904,1.8658035,6.939784,0.006110925,-0.043260336,-0.038735468
OrientationDeg,1676593756466,121260097692211,357.0,1.0,-24.0
UncalMag,1676593756469,121260100003185,-43.798,9.5648,-111.4348,-47.771046,2.9698257,-64.15999
UncalGyro,1676593756471,121260102183055,0.31627548,-0.21533,-2.6230555,0.0004699729,-0.0010100363,-0.0032424598
UncalAccel,1676593756475,121260106672008,-7.0725856,2.5980072,7.1096745,0.006110925,-0.043260336,-0.038735468
OrientationDeg,1676593756475,121260106672008,358.0,2.0,-24.0
UncalMag,1676593756479,121260109999035,-44.8106,10.3456,-113.2648,-47.771046,2.9698257,-64.15999
UncalGyro,1676593756480,121260111162975,0.36071593,-0.31398472,-1.8174769,0.0004699729,-0.0010100363,-0.0032424598
UncalAccel,1676593756485,121260115651744,-12.254243,4.144967,8.433503,0.006110925,-0.043260336,-0.038735468
OrientationDeg,1676593756485,121260115651744,359.0,2.0,-25.0
UncalMag,1676593756490,121260120010998,-44.9082,10.0772,-115.2778,-47.771046,2.9698257,-64.15999
UncalGyro,1676593756490,121260120139476,0.42256603,-0.23273966,-0.5635232,0.0004699729,-0.0010100363,-0.0032424598
UncalAccel,1676593756494,121260124620067,-7.580462,4.663013,7.8376904,0.006110925,-0.043260336,-0.038735468
OrientationDeg,1676593756493,121260124620067,359.0,2.0,-25.0
UncalGyro,1676593756499,121260129123668,0.36193767,-0.107665,0.20586158,0.0004699729,-0.0010100363,-0.0032424598
UncalMag,1676593756499,121260130010753,-47.153,8.8206,-113.838196,-47.771046,2.9698257,-64.15999
UncalAccel,1676593756503,121260133611278,-1.5541383,4.0851464,6.832705,0.006110925,-0.043260336,-0.038735468
OrientationDeg,1676593756503,121260133611278,359.0,2.0,-25.0
UncalGyro,1676593756507,121260138105113,0.17241672,-0.084910266,0.27763826,0.0004699729,-0.0010100363,-0.0032424598
UncalMag,1676593756509,121260140010998,-46.738197,9.076799,-115.6194,-47.771046,2.9698257,-64.15999
OrientationDeg,1676593756511,121260142590892,359.0,2.0,-25.0
UncalAccel,1676593756511,121260142590892,1.5373886,3.495914,7.2963142,0.006110925,-0.043260336,-0.038735468
UncalGyro,1676593756517,121260147082897,0.019700404,-0.10064005,0.040927973,0.0004699729,-0.0010100363,-0.0032424598
UncalMag,1676593756519,121260150010753,-43.541798,10.065,-113.4234,-47.771046,2.9698257,-64.15999
UncalAccel,1676593756521,121260151570690,2.4532413,3.1507492,8.690134,0.006110925,-0.043260336,-0.038735468
OrientationDeg,1676593756520,121260151570690,359.0,1.0,-25.0
UncalGyro,1676593756525,121260156061657,-0.02611449,-0.0106901415,-0.16630806,0.0004699729,-0.0010100363,-0.0032424598
UncalMag,1676593756530,121260160010753,-44.1152,9.577,-113.240395,-47.771046,2.9698257,-64.15999
UncalAccel,1676593756529,121260160550426,2.2743778,3.065804,10.028319,0.006110925,-0.043260336,-0.038735468
OrientationDeg,1676593756529,121260160550426,359.0,2.0,-25.0
UncalGyro,1676593756534,121260165039378,-0.010079277,0.18432859,-0.26450464,0.0004699729,-0.0010100363,-0.0032424598
UncalAccel,1676593756538,121260169518199,2.2576282,2.5148566,9.6682,0.006110925,-0.043260336,-0.038735468
UncalMag,1676593756538,121260169999279,-42.8098,10.0406,-111.1786,-47.771046,2.9698257,-64.15999
OrientationDeg,1676593756538,121260169518199,359.0,2.0,-25.0
UncalGyro,1676593756543,121260174021129,0.005497787,0.25778514,-0.26236662,0.0004699729,-0.0010100363,-0.0032424598
UncalAccel,1676593756547,121260178509655,2.4538395,1.7312071,8.335398,0.006110925,-0.043260336,-0.038735468
OrientationDeg,1676593756547,121260178509655,359.0,2.0,-25.0
UncalMag,1676593756550,121260180010998,-43.309998,9.6502,-112.0814,-47.771046,2.9698257,-64.15999
UncalGyro,1676593756553,121260183003857,-0.035888333,0.16142114,-0.20021108,0.0004699729,-0.0010100363,-0.0032424598
UncalAccel,1676593756557,121260187489208,2.1768703,1.402194,7.9220376,0.006110925,-0.043260336,-0.038735468
OrientationDeg,1676593756557,121260187489208,359.0,2.0,-25.0
UncalMag,1676593756560,121260190010998,-44.1152,9.308599,-111.1298,-47.771046,2.9698257,-64.15999
UncalGyro,1676593756561,121260191978893,-0.15897769,0.03924809,-0.09193522,0.0004699729,-0.0010100363,-0.0032424598
UncalAccel,1676593756566,121260196469615,1.4482559,1.1856437,7.355537,0.006110925,-0.043260336,-0.038735468
OrientationDeg,1676593756565,121260196469615,359.0,2.0,-25.0
UncalMag,1676593756570,121260200010998,-43.224598,9.943,-112.447395,-47.771046,2.9698257,-64.15999
UncalGyro,1676593756570,121260200961315,-0.33429602,-0.14004086,0.07422013,0.0004699729,-0.0010100363,-0.0032424598
UncalAccel,1676593756574,121260205449535,0.6113662,0.9696914,6.6311097,0.006110925,-0.043260336,-0.038735468
OrientationDeg,1676593756574,121260205449535,359.0,2.0,-24.0
UncalGyro,1676593756579,121260209937083,-0.5340489,-0.36911532,0.2733622,0.0004699729,-0.0010100363,-0.0032424598
UncalMag,1676593756578,121260209992443,-44.249397,10.1016,-115.119194,-47.771046,2.9698257,-64.15999
UncalAccel,1676593756584,121260214416942,-0.04127619,0.95413804,6.4995046,0.006110925,-0.043260336,-0.038735468
OrientationDeg,1676593756584,121260214416942,359.0,1.0,-24.0
UncalGyro,1676593756587,121260218921032,-0.72295904,-0.59620446,0.46853364,0.0004699729,-0.0010100363,-0.0032424598
UncalMag,1676593756589,121260219999279,-45.933,9.394,-114.631195,-47.771046,2.9698257,-64.15999
UncalAccel,1676593756593,121260223408641,-0.87218386,1.1276177,7.0301127,0.006110925,-0.043260336,-0.038735468
OrientationDeg,1676593756592,121260223408641,359.0,1.0,-24.0
UncalGyro,1676593756597,121260227902782,-0.8556695,-0.77854776,0.656222,0.0004699729,-0.0010100363,-0.0032424598
UncalMag,1676593756600,121260230010509,-46.5552,10.0772,-116.021996,-47.771046,2.9698257,-64.15999
OrientationDeg,1676593756601,121260232386730,358.0,0.0,-23.0
UncalAccel,1676593756601,121260232386730,-1.8873389,1.5026926,7.5517483,0.006110925,-0.043260336,-0.038735468
UncalGyro,1676593756606,121260236874218,-0.8846856,-1.026559,0.84574294,0.0004699729,-0.0010100363,-0.0032424598
UncalMag,1676593756610,121260240010509,-44.4568,10.9312,-107.786995,-47.771046,2.9698257,-64.15999
UncalAccel,1676593756611,121260241368236,-2.376073,2.0093727,7.8717885,0.006110925,-0.043260336,-0.038735468
OrientationDeg,1676593756610,121260241368236,358.0,0.0,-23.0
UncalGyro,1676593756614,121260245855480,-0.7982482,-1.3277156,1.0322095,0.0004699729,-0.0010100363,-0.0032424598
UncalMag,1676593756620,121260250010998,-44.7374,11.4924,-107.5552,-47.771046,2.9698257,-64.15999
UncalAccel,1676593756619,121260250334910,-2.07697,2.7511477,8.338987,0.006110925,-0.043260336,-0.038735468
OrientationDeg,1676593756620,121260250334910,357.0,-1.0,-22.0
UncalGyro,1676593756624,121260254836131,-0.6059783,-1.5520558,1.1794281,0.0004699729,-0.0010100363,-0.0032424598
UncalAccel,1676593756628,121260259317333,-1.791626,3.3026934,13.237693,0.006110925,-0.043260336,-0.038735468
UncalMag,1676593756629,121260259999279,-43.8102,12.1268,-108.104195,-47.771046,2.9698257,-64.15999
OrientationDeg,1676593756629,121260259317333,356.0,-2.0,-22.0
UncalGyro,1676593756632,121260263822338,-0.30390546,-1.0074695,1.2803736,0.0004699729,-0.0010100363,-0.0032424598
UncalAccel,1676593756637,121260268307811,-1.4859428,4.063611,13.204792,0.006110925,-0.043260336,-0.038735468
OrientationDeg,1676593756637,121260268307811,356.0,-2.0,-22.0
UncalMag,1676593756640,121260270010998,-46.811398,11.1874,-108.2262,-47.771046,2.9698257,-64.15999
UncalGyro,1676593756642,121260272802012,0.012675454,-0.52290064,1.2786937,0.0004699729,-0.0010100363,-0.0032424598
UncalAccel,1676593756647,121260277286754,-0.2416751,4.7934217,10.478768,0.006110925,-0.043260336,-0.038735468
OrientationDeg,1676593756647,121260277286754,355.0,-3.0,-22.0
UncalMag,1676593756650,121260280010509,-48.1534,10.9556,-109.373,-47.771046,2.9698257,-64.15999
UncalGyro,1676593756651,121260281777172,0.23945917,-0.116675265,1.1537718,0.0004699729,-0.0010100363,-0.0032424598
UncalAccel,1676593756655,121260286266735,0.21834506,5.4466624,9.040084,0.006110925,-0.043260336,-0.038735468
OrientationDeg,1676593756656,121260286266735,354.0,-3.0,-22.0
UncalMag,1676593756660,121260290010753,-46.7626,11.407,-108.9094,-47.771046,2.9698257,-64.15999
UncalGyro,1676593756659,121260290758922,0.35888332,0.14294247,0.97081757,0.0004699729,-0.0010100363,-0.0032424598
UncalAccel,1676593756664,121260295246654,-0.0634098,5.773283,6.838687,0.006110925,-0.043260336,-0.038735468
OrientationDeg,1676593756665,121260295246654,354.0,-3.0,-22.0
UncalGyro,1676593756669,121260299737499,0.29718593,0.08445212,0.7974846,0.0004699729,-0.0010100363,-0.0032424598
UncalMag,1676593756668,121260299995861,-48.8976,10.845799,-110.6174,-47.771046,2.9698257,-64.15999
UncalAccel,1676593756673,121260304226451,-0.27218357,5.831309,4.7365923,0.006110925,-0.043260336,-0.038735468
OrientationDeg,1676593756674,121260304226451,353.0,-3.0,-22.0
UncalGyro,1676593756678,121260308718456,0.0693332,-0.25809056,0.64568454,0.0004699729,-0.0010100363,-0.0032424598
UncalMag,1676593756678,121260309998790,-47.5678,10.4066,-109.861,-47.771046,2.9698257,-64.15999
UncalAccel,1676593756683,121260313206249,-0.40438703,5.5298133,3.99063,0.006110925,-0.043260336,-0.038735468
OrientationDeg,1676593756683,121260313206249,353.0,-3.0,-22.0
UncalGyro,1676593756686,121260317697094,-0.23625213,-0.66706485,0.54046303,0.0004699729,-0.0010100363,-0.0032424598
UncalMag,1676593756690,121260320010753,-47.750797,11.0654,-110.263596,-47.771046,2.9698257,-64.15999
UncalAccel,1676593756691,121260322185436,-0.95473623,5.0009995,4.619344,0.006110925,-0.043260336,-0.038735468
OrientationDeg,1676593756692,121260322185436,353.0,-4.0,-22.0
UncalGyro,1676593756695,121260326676830,-0.5195409,-0.9230174,0.54382277,0.0004699729,-0.0010100363,-0.0032424598
UncalMag,1676593756700,121260330010753,-45.994,11.9072,-108.0676,-47.771046,2.9698257,-64.15999
UncalAccel,1676593756700,121260331165355,-1.6743777,4.281956,6.37089,0.006110925,-0.043260336,-0.038735468
OrientationDeg,1676593756700,121260331165355,353.0,-4.0,-22.0
UncalGyro,1676593756705,121260335656444,-0.7087564,-0.9469938,0.7180721,0.0004699729,-0.0010100363,-0.0032424598
UncalMag,1676593756709,121260340010753,-47.0188,12.090199,-107.176994,-47.771046,2.9698257,-64.15999
UncalAccel,1676593756709,121260340142711,-1.7156538,3.5060835,7.8059855,0.006110925,-0.043260336,-0.038735468
UncalGyro,1676593756713,121260344625682,-0.79137594,-0.88361657,1.0151054,0.0004699729,-0.0010100363,-0.0032424598
OrientationDeg,1676593756709,121260340142711,352.0,-5.0,-22.0
UncalAccel,1676593756718,121260349125133,-0.8422736,2.8875387,8.5118685,0.006110925,-0.043260336,-0.038735468
UncalMag,1676593756719,121260349999035,-46.7138,12.2732,-107.36,-47.771046,2.9698257,-64.15999
OrientationDeg,1676593756719,121260349125133,352.0,-6.0,-21.0
UncalGyro,1676593756723,121260353612865,-0.79733187,-0.82879144,1.3182472,0.0004699729,-0.0010100363,-0.0032424598
UncalAccel,1676593756727,121260358095837,0.948156,2.3832514,9.194421,0.006110925,-0.043260336,-0.038735468
OrientationDeg,1676593756728,121260358095837,351.0,-6.0,-21.0
UncalMag,1676593756730,121260360010998,-46.8968,13.0174,-108.3238,-47.771046,2.9698257,-64.15999
UncalGyro,1676593756732,121260362596813,-0.77549344,-0.762818,1.541213,0.0004699729,-0.0010100363,-0.0032424598
UncalAccel,1676593756737,121260367084667,2.7314072,2.0225334,9.519845,0.006110925,-0.043260336,-0.038735468
OrientationDeg,1676593756736,121260367084667,350.0,-7.0,-20.0
UncalMag,1676593756739,121260370002453,-49.9712,12.4196,-109.177795,-47.771046,2.9698257,-64.15999
UncalGyro,1676593756741,121260371578502,-0.7281514,-0.79290307,1.6604844,0.0004699729,-0.0010100363,-0.0032424598
UncalAccel,1676593756745,121260376064037,4.046263,1.8227327,9.3104725,0.006110925,-0.043260336,-0.038735468
OrientationDeg,1676593756746,121260376064037,349.0,-8.0,-20.0
UncalMag,1676593756750,121260380010998,-50.6422,12.8954,-109.665794,-47.771046,2.9698257,-64.15999
UncalGyro,1676593756749,121260380556041,-0.5879578,-0.98731095,1.68385,0.0004699729,-0.0010100363,-0.0032424598
UncalAccel,1676593756754,121260385044017,4.7359943,1.430908,10.035499,0.006110925,-0.043260336,-0.038735468
OrientationDeg,1676593756754,121260385044017,348.0,-9.0,-19.0
UncalGyro,1676593756759,121260389532298,-0.39675698,-1.052368,1.6698002,0.0004699729,-0.0010100363,-0.0032424598
UncalMag,1676593756759,121260389999279,-51.2766,12.6514,-111.1786,-47.771046,2.9698257,-64.15999
UncalAccel,1676593756763,121260394013378,4.6767716,1.105484,10.92503,0.006110925,-0.043260336,-0.038735468
OrientationDeg,1676593756763,121260394013378,347.0,-10.0,-19.0
UncalGyro,1676593756767,121260398514721,-0.22174409,-0.88163126,1.6965255,0.0004699729,-0.0010100363,-0.0032424598
UncalMag,1676593756769,121260400010998,-51.8012,12.6636,-110.349,-47.771046,2.9698257,-64.15999
UncalAccel,1676593756772,121260403003368,4.078566,1.0462617,10.255039,0.006110925,-0.043260336,-0.038735468
OrientationDeg,1676593756772,121260403003368,346.0,-10.0,-19.0
UncalGyro,1676593756776,121260407497081,-0.09987647,-0.7480045,1.83733,0.0004699729,-0.0010100363,-0.0032424598
UncalMag,1676593756778,121260409995373,-49.5076,13.664,-108.4824,-47.771046,2.9698257,-64.15999
UncalAccel,1676593756780,121260411983592,3.251248,0.61435723,9.157332,0.006110925,-0.043260336,-0.038735468
OrientationDeg,1676593756780,121260411983592,345.0,-11.0,-18.0
UncalGyro,1676593756785,121260416475536,-0.10064005,-0.7079928,2.0486894,0.0004699729,-0.0010100363,-0.0032424598
UncalMag,1676593756790,121260420010753,-49.898,13.688399,-108.3604,-47.771046,2.9698257,-64.15999
UncalAccel,1676593756789,121260420960521,3.3499517,0.5276174,8.342576,0.006110925,-0.043260336,-0.038735468
OrientationDeg,1676593756789,121260420960521,344.0,-12.0,-18.0
UncalGyro,1676593756794,121260425443981,-0.1908954,-0.7790059,2.2417228,0.0004699729,-0.0010100363,-0.0032424598
UncalAccel,1676593756799,121260429942699,4.5224347,0.50129634,8.343174,0.006110925,-0.043260336,-0.038735468
UncalMag,1676593756799,121260429993419,-53.338398,12.322,-109.4706,-47.771046,2.9698257,-64.15999
OrientationDeg,1676593756799,121260429942699,343.0,-13.0,-18.0
UncalGyro,1676593756803,121260434434703,-0.2518292,-0.8700248,2.3674083,0.0004699729,-0.0010100363,-0.0032424598
UncalAccel,1676593756807,121260438924998,4.5714874,1.1246266,9.12802,0.006110925,-0.043260336,-0.038735468
UncalMag,1676593756808,121260439999279,-52.020798,13.42,-108.6166,-47.771046,2.9698257,-64.15999
OrientationDeg,1676593756808,121260438924998,342.0,-13.0,-17.0
UncalGyro,1676593756813,121260443411449,-0.29336804,-0.7976373,2.3863451,0.0004699729,-0.0010100363,-0.0032424598
UncalAccel,1676593756816,121260447894237,5.5316076,2.4801607,8.815159,0.006110925,-0.043260336,-0.038735468
OrientationDeg,1676593756817,121260447894237,341.0,-14.0,-17.0
UncalMag,1676593756820,121260450010753,-54.9488,12.6514,-110.263596,-47.771046,2.9698257,-64.15999
UncalGyro,1676593756821,121260452394420,-0.38041633,-0.75426584,2.2617285,0.0004699729,-0.0010100363,-0.0032424598
UncalAccel,1676593756825,121260456881969,6.6622167,2.6650062,7.944171,0.006110925,-0.043260336,-0.038735468
OrientationDeg,1676593756826,121260456881969,339.0,-15.0,-16.0
UncalMag,1676593756830,121260460010998,-53.350597,12.932,-109.068,-47.771046,2.9698257,-64.15999
UncalGyro,1676593756830,121260461374950,-0.5149594,-0.82543164,2.0528126,0.0004699729,-0.0010100363,-0.0032424598
UncalAccel,1676593756834,121260465858409,6.45763,2.1194427,8.002795,0.006110925,-0.043260336,-0.038735468
OrientationDeg,1676593756835,121260465858409,339.0,-16.0,-16.0
UncalMag,1676593756840,121260470010753,-54.436398,13.6762,-110.251396,-47.771046,2.9698257,-64.15999
UncalGyro,1676593756839,121260470340709,-0.66691214,-0.8384125,1.8729129,0.0004699729,-0.0010100363,-0.0032424598
UncalAccel,1676593756844,121260474841442,5.8301125,1.5768701,7.806584,0.006110925,-0.043260336,-0.038735468
OrientationDeg,1676593756843,121260474841442,338.0,-16.0,-15.0
UncalGyro,1676593756848,121260479332469,-0.81596327,-0.85994554,1.7611245,0.0004699729,-0.0010100363,-0.0032424598
UncalMag,1676593756849,121260479999279,-54.656,13.9567995,-110.1538,-47.771046,2.9698257,-64.15999
UncalAccel,1676593756852,121260483824718,5.391628,0.6299106,7.2753773,0.006110925,-0.043260336,-0.038735468
OrientationDeg,1676593756852,121260483824718,337.0,-17.0,-14.0
UncalGyro,1676593756857,121260488313427,-0.9014844,-0.9616546,1.7275269,0.0004699729,-0.0010100363,-0.0032424598
UncalMag,1676593756859,121260490012706,-51.5328,15.981999,-108.641,-47.771046,2.9698257,-64.15999
UncalAccel,1676593756861,121260492801219,4.837091,-0.3595216,7.0863442,0.006110925,-0.043260336,-0.038735468
OrientationDeg,1676593756861,121260492801219,336.0,-18.0,-13.0
UncalGyro,1676593756866,121260497292064,-0.88331115,-1.1192578,1.7731891,0.0004699729,-0.0010100363,-0.0032424598
UncalMag,1676593756869,121260500010753,-50.264,16.323599,-108.1774,-47.771046,2.9698257,-64.15999
UncalAccel,1676593756871,121260501780651,4.4171505,-0.9182457,6.3290157,0.006110925,-0.043260336,-0.038735468
OrientationDeg,1676593756871,121260501780651,335.0,-19.0,-13.0
UncalGyro,1676593756875,121260506272777,-0.75823647,-1.4216361,1.8810068,0.0004699729,-0.0010100363,-0.0032424598
UncalMag,1676593756880,121260510002453,-53.960598,15.6404,-107.762596,-47.771046,2.9698257,-64.15999
UncalAccel,1676593756880,121260510757335,4.336991,-2.0261226,5.345566,0.006110925,-0.043260336,-0.038735468
OrientationDeg,1676593756879,121260510757335,335.0,-20.0,-12.0
UncalGyro,1676593756884,121260515239330,-0.54199016,-1.835192,2.0389154,0.0004699729,-0.0010100363,-0.0032424598
UncalAccel,1676593756889,121260519739818,4.301099,-2.6201408,5.047061,0.006110925,-0.043260336,-0.038735468
UncalMag,1676593756890,121260520003185,-50.8252,16.982399,-106.201,-47.771046,2.9698257,-64.15999
OrientationDeg,1676593756889,121260519739818,334.0,-21.0,-11.0
UncalGyro,1676593756893,121260524232067,-0.3100141,-2.189799,2.252871,0.0004699729,-0.0010100363,-0.0032424598
UncalAccel,1676593756898,121260528722789,4.401597,-1.4943178,4.715057,0.006110925,-0.043260336,-0.038735468
OrientationDeg,1676593756897,121260528722789,332.0,-23.0,-11.0
UncalMag,1676593756900,121260530010753,-52.9968,16.836,-106.4938,-47.771046,2.9698257,-64.15999
UncalGyro,1676593756902,121260533210704,-0.17562376,-2.4729352,2.430022,0.0004699729,-0.0010100363,-0.0032424598
UncalAccel,1676593756907,121260537699596,5.6745787,-0.19322042,4.779663,0.006110925,-0.043260336,-0.038735468
UncalMag,1676593756910,121260540010998,-54.0704,17.1898,-106.078995,-47.771046,2.9698257,-64.15999
OrientationDeg,1676593756907,121260537699596,331.0,-24.0,-10.0
UncalGyro,1676593756911,121260542190563,-0.18066339,-2.6116016,2.4524713,0.0004699729,-0.0010100363,-0.0032424598
UncalAccel,1676593756916,121260546679454,6.6035924,0.6837491,5.283951,0.006110925,-0.043260336,-0.038735468
OrientationDeg,1676593756915,121260546679454,330.0,-26.0,-9.0
UncalMag,1676593756920,121260550010998,-55.9492,16.531,-106.847595,-47.771046,2.9698257,-64.15999
UncalGyro,1676593756920,121260551170482,-0.3390302,-2.5045476,2.3553436,0.0004699729,-0.0010100363,-0.0032424598
UncalAccel,1676593756924,121260555659313,6.7537417,0.7890333,5.828916,0.006110925,-0.043260336,-0.038735468
OrientationDeg,1676593756924,121260555659313,329.0,-27.0,-9.0
UncalMag,1676593756930,121260560010998,-55.058598,17.7388,-109.1534,-47.771046,2.9698257,-64.15999
UncalGyro,1676593756930,121260560148082,-0.63056564,-2.200642,2.2463043,0.0004699729,-0.0010100363,-0.0032424598
UncalAccel,1676593756933,121260564627025,6.3828545,0.3786642,5.977271,0.006110925,-0.043260336,-0.038735468
OrientationDeg,1676593756933,121260564627025,328.0,-28.0,-8.0
UncalGyro,1676593756938,121260569129833,-0.9931142,-1.8408424,2.179109,0.0004699729,-0.0010100363,-0.0032424598
UncalMag,1676593756940,121260570010998,-56.059,18.2878,-106.933,-47.771046,2.9698257,-64.15999
UncalAccel,1676593756943,121260573618846,5.8971114,-0.18903299,6.0484576,0.006110925,-0.043260336,-0.038735468
OrientationDeg,1676593756942,121260573618846,328.0,-29.0,-7.0
UncalGyro,1676593756947,121260578113720,-1.3365731,-1.474476,2.154827,0.0004699729,-0.0010100363,-0.0032424598
UncalMag,1676593756949,121260580010998,-55.131798,18.8612,-106.835396,-47.771046,2.9698257,-64.15999
UncalAccel,1676593756951,121260582598522,5.492126,-0.762114,6.0101724,0.006110925,-0.043260336,-0.038735468
OrientationDeg,1676593756952,121260582598522,327.0,-30.0,-5.0
UncalGyro,1676593756956,121260587089122,-1.5815301,-1.2466233,2.189341,0.0004699729,-0.0010100363,-0.0032424598
UncalMag,1676593756959,121260590000255,-54.8878,20.3252,-107.5308,-47.771046,2.9698257,-64.15999
UncalAccel,1676593756960,121260591577770,5.273183,-0.9954142,5.6937213,0.006110925,-0.043260336,-0.038735468
OrientationDeg,1676593756960,121260591577770,327.0,-31.0,-4.0
UncalGyro,1676593756965,121260596070140,-1.6563611,-1.2713633,2.252871,0.0004699729,-0.0010100363,-0.0032424598
UncalMag,1676593756969,121260600010998,-56.5592,20.9352,-108.2994,-47.771046,2.9698257,-64.15999
UncalAccel,1676593756969,121260600557811,5.283951,-0.86141616,5.5896335,0.006110925,-0.043260336,-0.038735468
OrientationDeg,1676593756970,121260600557811,326.0,-32.0,-3.0
UncalGyro,1676593756974,121260605049083,-1.5311338,-1.4834863,2.299144,0.0004699729,-0.0010100363,-0.0032424598
UncalAccel,1676593756978,121260609535534,5.499305,-0.71425754,5.6913285,0.006110925,-0.043260336,-0.038735468
UncalMag,1676593756979,121260609999035,-57.8768,21.4354,-107.116,-47.771046,2.9698257,-64.15999
OrientationDeg,1676593756979,121260609535534,325.0,-32.0,-2.0
UncalGyro,1676593756984,121260614020946,-1.2687671,-1.7890716,2.331978,0.0004699729,-0.0010100363,-0.0032424598
UncalAccel,1676593756987,121260618514659,5.528617,-0.6855437,5.5866427,0.006110925,-0.043260336,-0.038735468
OrientationDeg,1676593756988,121260618514659,325.0,-33.0,0.0
UncalMag,1676593756989,121260620006115,-59.255398,21.1914,-109.031395,-47.771046,2.9698257,-64.15999
UncalGyro,1676593756992,121260622997142,-0.98822725,-2.0635028,2.3547328,0.0004699729,-0.0010100363,-0.0032424598
OrientationDeg,1676593756997,121260627499095,324.0,-35.0,0.0
UncalAccel,1676593756996,121260627499095,5.453243,-0.8769695,5.047061,0.006110925,-0.043260336,-0.038735468
UncalMag,1676593756999,121260630010753,-58.499,22.8384,-106.9452,-47.771046,2.9698257,-64.15999
UncalGyro,1676593757000,121260631985912,-0.8063421,-2.258827,2.4028385,0.0004699729,-0.0010100363,-0.0032424598
UncalAccel,1676593757005,121260636467723,5.5052867,-1.3956138,4.3441696,0.006110925,-0.043260336,-0.038735468
OrientationDeg,1676593757005,121260636467723,323.0,-36.0,1.0
UncalMag,1676593757010,121260640010753,-58.987,23.4362,-106.1156,-47.771046,2.9698257,-64.15999
UncalGyro,1676593757010,121260640967723,-0.7507534,-2.392912,2.4879014,0.0004699729,-0.0010100363,-0.0032424598
UncalAccel,1676593757015,121260645456798,5.575277,-1.8418752,3.9511483,0.006110925,-0.043260336,-0.038735468
OrientationDeg,1676593757014,121260645456798,322.0,-37.0,2.0
UncalGyro,1676593757018,121260649951854,-0.7644979,-2.4895813,2.606562,0.0004699729,-0.0010100363,-0.0032424598
UncalMag,1676593757018,121260649994884,-59.17,23.3996,-104.529594,-47.771046,2.9698257,-64.15999
UncalAccel,1676593757023,121260654432811,5.58425,-1.6504494,3.3852458,0.006110925,-0.043260336,-0.038735468
OrientationDeg,1676593757024,121260654432811,322.0,-38.0,3.0
UncalGyro,1676593757028,121260658912792,-0.7877107,-2.654973,2.7235427,0.0004699729,-0.0010100363,-0.0032424598
UncalMag,1676593757029,121260660010509,-59.267597,24.4244,-105.761795,-47.771046,2.9698257,-64.15999
UncalAccel,1676593757032,121260663416393,5.8504515,-1.0773684,2.5411777,0.006110925,-0.043260336,-0.038735468
UncalGyro,1676593757036,121260667908397,-0.81214535,-2.9381092,2.7852402,0.0004699729,-0.0010100363,-0.0032424598
OrientationDeg,1676593757032,121260663416393,321.0,-40.0,4.0
UncalMag,1676593757039,121260670010753,-59.950798,25.619999,-105.1152,-47.771046,2.9698257,-64.15999
UncalAccel,1676593757041,121260672399852,6.202196,-0.9499506,1.9950159,0.006110925,-0.043260336,-0.038735468
OrientationDeg,1676593757042,121260672399852,320.0,-41.0,6.0
UncalGyro,1676593757046,121260676886607,-0.8559749,-3.3200526,2.8469374,0.0004699729,-0.0010100363,-0.0032424598
UncalMag,1676593757050,121260680010753,-60.39,26.1568,-102.5288,-47.771046,2.9698257,-64.15999
UncalAccel,1676593757051,121260681373607,6.4588265,-1.2969099,2.519044,0.006110925,-0.043260336,-0.038735468
OrientationDeg,1676593757051,121260681373607,319.0,-43.0,7.0
UncalGyro,1676593757055,121260685866527,-0.9097311,-3.596011,2.9035952,0.0004699729,-0.0010100363,-0.0032424598
Status,0,30,0,6,2,1176450050,41.37,84.0,79.0,1,1,1,37.267277
Status,0,30,1,6,2,1575420030,40.94,84.0,79.0,1,1,1,36.742043
Status,0,30,2,3,17,1604249980,43.75,290.0,74.0,1,1,1,39.55156
Status,0,30,3,1,11,1575420030,39.18,145.0,72.0,1,1,1,34.97894
Status,0,30,4,1,11,1176450050,41.29,145.0,72.0,1,1,1,37.192665
Status,0,30,5,3,15,1602000000,41.62,328.0,69.0,1,1,1,37.42452
Status,0,30,6,6,36,1575420030,40.63,59.0,67.0,1,1,1,36.433647
Status,0,30,7,6,36,1176450050,37.52,59.0,67.0,1,1,1,33.418
Status,0,30,8,1,12,1575420030,44.21,323.0,59.0,1,1,1,40.00766
Status,0,30,9,6,34,1176450050,40.91,203.0,53.0,1,1,1,36.810276
Status,0,30,10,6,34,1575420030,47.39,203.0,53.0,1,1,1,43.190475
Status,0,30,11,3,14,1598062460,40.81,147.0,53.0,1,1,1,36.614605
Status,0,30,12,1,6,1176450050,36.25,52.0,50.0,1,1,1,32.14987
Status,0,30,13,1,6,1575420030,42.43,52.0,50.0,1,1,1,38.225483
Status,0,30,14,1,24,1575420030,46.62,224.0,43.0,1,1,1,42.424084
Status,0,30,15,1,24,1176450050,45.71,224.0,43.0,1,1,1,41.610386
Status,0,30,16,6,30,1575420030,42.62,314.0,41.0,1,1,1,38.420406
Status,0,30,17,6,30,1176450050,38.50,314.0,41.0,1,1,1,34.398483
Status,0,30,18,3,24,1603124990,45.49,31.0,37.0,1,1,1,41.292522
Status,0,30,19,3,18,1600312450,47.92,232.0,30.0,1,1,1,43.71804
Status,0,30,20,6,25,1575420030,39.13,122.0,30.0,1,1,1,34.933197
Status,0,30,21,6,25,1176450050,32.13,122.0,30.0,1,1,1,28.031946
Status,0,30,22,1,19,1575420030,41.71,56.0,30.0,1,1,1,37.505733
Status,0,30,23,1,25,1575420030,44.09,311.0,29.0,1,1,1,39.890297
Status,0,30,24,1,25,1176450050,37.66,311.0,29.0,1,1,1,33.56015
Status,0,30,25,1,20,1575420030,39.22,146.0,21.0,1,1,1,35.02149
Status,0,30,26,6,11,1575420030,39.43,40.0,18.0,1,1,1,35.234947
Status,0,30,27,6,11,1176450050,33.25,40.0,18.0,1,1,1,29.147219
Status,0,30,28,3,16,1601437440,42.07,327.0,15.0,0,1,1,37.8719
Status,0,30,29,1,29,1575420030,39.36,260.0,11.0,1,1,1,35.157276
UncalMag,1676593757060,121260690010753,-64.4282,25.4858,-104.7004,-47.771046,2.9698257,-64.15999
UncalAccel,1676593757059,121260690355358,6.538388,-1.5457634,3.423531,0.006110925,-0.043260336,-0.038735468
OrientationDeg,1676593757059,121260690355358,318.0,-45.0,8.0
UncalGyro,1676593757064,121260694846935,-0.96974856,-3.6383133,2.9142854,0.0004699729,-0.0010100363,-0.0032424598
Fix,GPS,37.4312961391,-122.1550358294,-17.626860443653385,0.32241163,2.913597,143.73634,1676593756000,0.14567822,21.763388,121260589219000,3.0
UncalAccel,1676593757068,121260699332347,6.8249283,-1.9357935,3.708277,0.006110925,-0.043260336,-0.038735468
UncalMag,1676593757068,121260699999279,-64.7332,26.046999,-105.0054,-47.771046,2.9698257,-64.15999
OrientationDeg,1676593757068,121260699332347,318.0,-47.0,10.0
UncalGyro,1676593757072,121260703816051,-1.045954,-3.5862372,2.9174924,0.0004699729,-0.0010100363,-0.0032424598
Fix,FLP,37.4313005000,-122.1550553000,-16.5,0.2942318,4.306,341.4515,1676593756686,,,121260317697094,3.4190316
UncalAccel,1676593757078,121260708314769,7.0450683,-2.4071796,3.7645082,0.006110925,-0.043260336,-0.038735468
OrientationDeg,1676593757077,121260708314769,317.0,-49.0,11.0
Raw,1676593756000,395539000000,,,-1360628578461066386,0.0,7.053733853256838,292.0,1.0,17,6,0.0,16431,433773929226674,18,39.32903289794922,471.3687579947723,0.15,16,178876.4042307546,340282346638528860000000000000000000000,1575420030,,,,0,,1,,35.129032135009766,0.320142130558394,1.0,0.320142130558394,1.0,C,121260589219000
Raw,1676593756000,395539000000,,,-1360628578461066386,0.0,7.053733853256838,292.0,1.0,17,11,0.0,16431,433773931745570,22,36.71417999267578,-78.41234891850809,0.15,16,-39892.34914843668,340282346638528860000000000000000000000,1575420030,,,,0,,1,,32.51417922973633,-0.20372681261465636,1.0,-0.20372681261465636,1.0,C,121260589219000
Raw,1676593756000,395539000000,,,-1360628578461066386,0.0,7.053733853256838,292.0,1.0,17,12,0.0,16431,433773930673335,13,42.741146087646484,-238.3933889716452,0.15,16,-99299.90476730939,340282346638528860000000000000000000000,1575420030,,,,0,,1,,38.54114532470703,-0.6984919076624261,1.0,-0.6984919076624261,1.0,C,121260589219000
Raw,1676593756000,395539000000,,,-1360628578461066386,0.0,7.053733853256838,292.0,1.0,17,19,0.0,16431,433773925056678,17,40.073177337646484,579.4313444600384,0.15,16,227760.06062997758,340282346638528860000000000000000000000,1575420030,,,,0,,1,,35.87317657470703,0.0,1.0,0.0,1.0,C,121260589219000
Raw,1676593756000,395539000000,,,-1360628578461066386,0.0,7.053733853256838,292.0,1.0,17,20,0.0,16431,433773921552494,30,32.90034484863281,-477.2665226013055,0.658308172823808,16,-189516.68361941163,340282346638528860000000000000000000000,1575420030,,,,0,,1,,28.70034408569336,0.0,1.0,0.0,1.0,C,121260589219000
Raw,1676593756000,395539000000,,,-1360628578461066386,0.0,7.053733853256838,292.0,1.0,17,24,0.0,16431,433773926774530,13,45.75437545776367,537.4679333505455,0.15,16,206175.33977690744,340282346638528860000000000000000000000,1575420030,,,,0,,1,,41.55437469482422,-0.20372681261465636,1.0,-0.20372681261465636,1.0,C,121260589219000
Raw,1676593756000,395539000000,,,-1360628578461066386,0.0,7.053733853256838,292.0,1.0,17,25,0.0,16431,433773925125282,27,34.29017639160156,-475.2419565189375,0.5964516428979083,16,-190145.52991792237,340282346638528860000000000000000000000,1575420030,,,,0,,1,,30.090177536010742,-2.0372682255564105,1.0,-2.0372682255564105,1.0,C,121260589219000
Raw,1676593756000,395539000000,,,-1360628578461066386,0.0,7.053733853256838,292.0,1.0,17,29,0.0,16419,433773917173914,24,35.89592361450195,-428.11805250241287,0.526410231008245,16,-95412.29592157483,340282346638528860000000000000000000000,1575420030,,,,0,,1,,31.695924758911133,-0.6984919076624261,1.0,-0.6984919076624261,1.0,C,121260589219000
Raw,1676593756000,395539000000,,,-1360628578461066386,0.0,7.053733853256838,292.0,1.0,17,6,0.0,81921,433773929227218,21,29.439102172851562,471.65753864889007,0.8108399466845806,16,180209.7654826018,340282346638528860000000000000000000000,1176450050,,,,0,,1,,25.339101791381836,1.9208527336454408,1.454099260402455,1.9208527336454408,1.0,Q,121260589219000
Raw,1676593756000,395539000000,,,-1360628578461066386,0.0,7.053733853256838,292.0,1.0,17,11,0.0,81921,433773931746119,11,40.005428314208984,-78.31038272920597,0.15,16,-40273.02012606489,340282346638528860000000000000000000000,1176450050,,,,0,,1,,35.90542984008789,0.0,1.454099260402455,0.0,1.0,Q,121260589219000
Raw,1676593756000,395539000000,,,-1360628578461066386,0.0,7.053733853256838,292.0,1.0,17,24,0.0,81921,433773926775063,9,44.69776916503906,537.4120381218481,0.15,16,207729.28475309114,340282346638528860000000000000000000000,1176450050,,,,0,,1,,40.59777069091797,3.5215636101095664,1.454099260402455,3.5215636101095664,1.0,Q,121260589219000
Raw,1676593756000,395539000000,,,-1360628578461066386,0.0,7.053733853256838,292.0,1.0,17,25,0.0,81921,433773925125811,9,33.1427116394043,-474.92137693288396,0.6435549957256881,16,-191685.3635035326,340282346638528860000000000000000000000,1176450050,,,,0,,1,,29.042713165283203,1.0186341127782053,1.454099260402455,1.0186341127782053,1.0,Q,121260589219000
Raw,1676593756000,395539000000,,,-1360628578461066386,0.0,7.053733853256838,292.0,1.0,17,14,0.0,32995,12555932984035,52,34.7901611328125,558.2835550946563,0.5753815620659366,16,211396.10854669343,340282346638528860000000000000000000000,1598062460,,,,0,,3,,30.59016227722168,50.29141902923584,2.0000000474974513,50.29141902923584,2.0000000474974513,C,121260589219000
Raw,1676593756000,395539000000,,,-1360628578461066386,0.0,7.053733853256838,292.0,1.0,17,18,0.0,32995,12555927870305,33,46.602943420410156,-482.366894055031,0.15,16,-196726.8234287473,340282346638528860000000000000000000000,1600312450,,,,0,,3,,42.4029426574707,50.29141902923584,2.0000000474974513,50.29141902923584,2.0000000474974513,C,121260589219000
Raw,1676593756000,395539000000,,,-1360628578461066386,0.0,7.053733853256838,292.0,1.0,17,16,0.0,32995,12555922949622,38,38.594181060791016,-675.326153122096,0.15,16,-268055.9225883231,340282346638528860000000000000000000000,1601437440,,,,0,,3,,34.39418029785156,50.29141902923584,2.0000000474974513,50.29141902923584,2.0000000474974513,C,121260589219000
Raw,1676593756000,395539000000,,,-1360628578461066386,0.0,7.053733853256838,292.0,1.0,17,15,0.0,32995,12555935187108,36,39.368896484375,-199.70456916117917,0.15,16,-88686.66311751999,340282346638528860000000000000000000000,1602000000,,,,0,,3,,35.16889572143555,50.29141902923584,2.0000000474974513,50.29141902923584,2.0000000474974513,C,121260589219000
Raw,1676593756000,395539000000,,,-1360628578461066386,0.0,7.053733853256838,292.0,1.0,17,24,0.0,32867,12555929507109,33,43.04362487792969,695.6784238697792,0.15,16,272022.92673638265,340282346638528860000000000000000000000,1603124990,,,,0,,3,,38.843624114990234,50.29141902923584,2.0000000474974513,50.29141902923584,2.0000000474974513,C,121260589219000
Raw,1676593756000,395539000000,,,-1360628578461066386,0.0,7.053733853256838,292.0,1.0,17,17,0.0,32867,12555936172048,33,42.03143310546875,81.81799578347926,0.15,16,22961.584072601603,340282346638528860000000000000000000000,1604249980,,,,0,,3,,37.8314323425293,50.29141902923584,2.0000000474974513,50.29141902923584,2.0000000474974513,C,121260589219000
Raw,1676593756000,395539000000,,,-1360628578461066386,0.0,7.053733853256838,292.0,1.0,17,2,0.0,85026,433773922266909,19,38.66441345214844,127.74279377339013,0.15,16,46522.124907250094,340282346638528860000000000000000000000,1575420030,,,,0,,6,,34.464412689208984,-6.024492904543876,1.5000000237487257,-6.024492904543876,1.5000000237487257,C,121260589219000
Raw,1676593756000,395539000000,,,-1360628578461066386,0.0,7.053733853256838,292.0,1.0,17,11,0.0,85026,433773910971141,24,35.43257522583008,602.709730430031,0.5454113669379566,16,236853.35862779096,340282346638528860000000000000000000000,1575420030,,,,0,,6,,31.232574462890625,-6.024492904543876,1.5000000237487257,-6.024492904543876,1.5000000237487257,C,121260589219000
Raw,1676593756000,395539000000,,,-1360628578461066386,0.0,7.053733853256838,292.0,1.0,17,25,0.0,85026,433773912947679,21,37.40190124511719,494.8430158424014,0.15,16,192277.4984517624,340282346638528860000000000000000000000,1575420030,,,,0,,6,,33.201900482177734,-6.024492904543876,1.5000000237487257,-6.024492904543876,1.5000000237487257,C,121260589219000
Raw,1676593756000,395539000000,,,-1360628578461066386,0.0,7.053733853256838,292.0,1.0,17,30,0.0,85026,433773915382372,25,35.36271286010742,-299.3677898348226,0.5486269335464773,16,-120012.57518419965,340282346638528860000000000000000000000,1575420030,,,,0,,6,,31.16271209716797,-6.024492904543876,1.5000000237487257,-6.024492904543876,1.5000000237487257,C,121260589219000
Raw,1676593756000,395539000000,,,-1360628578461066386,0.0,7.053733853256838,292.0,1.0,17,34,0.0,85026,433773919203539,14,44.79490661621094,-280.3363846896809,0.15,16,-115659.8308959811,340282346638528860000000000000000000000,1575420030,,,,0,,6,,40.594905853271484,-6.024492904543876,1.5000000237487257,-6.024492904543876,1.5000000237487257,C,121260589219000
Raw,1676593756000,395539000000,,,-1360628578461066386,0.0,7.053733853256838,292.0,1.0,17,36,0.0,85026,433773921196349,22,36.8327751159668,248.8065848718312,0.15,16,92961.11464614759,340282346638528860000000000000000000000,1575420030,,,,0,,6,,32.632774353027344,-6.024492904543876,1.5000000237487257,-6.024492904543876,1.5000000237487257,C,121260589219000
Raw,1676593756000,395539000000,,,-1360628578461066386,0.0,7.053733853256838,292.0,1.0,17,2,0.0,84003,433773922267457,9,37.820613861083984,127.36435921738911,0.15,16,46439.748815160405,340282346638528860000000000000000000000,1176450050,,,,0,,6,,33.72061538696289,-3.808038309216499,1.9540992841511806,-3.808038309216499,1.5000000237487257,Q,121260589219000
Raw,1676593756000,395539000000,,,-1360628578461066386,0.0,7.053733853256838,292.0,1.0,17,11,0.0,84003,433773910971686,11,31.864328384399414,603.3147621982239,0.7020940777936371,16,238512.40334087156,340282346638528860000000000000000000000,1176450050,,,,0,,6,,27.764328002929688,5.057780072093007,1.9540992841511806,5.057780072093007,1.5000000237487257,Q,121260589219000
Raw,1676593756000,395539000000,,,-1360628578461066386,0.0,7.053733853256838,292.0,1.0,17,25,0.0,84003,433773912948189,20,30.303922653198242,495.0687098694955,0.7726192675207604,16,191644.5634841205,340282346638528860000000000000000000000,1176450050,,,,0,,6,,26.203922271728516,-8.979765698313711,1.9540992841511806,-8.979765698313711,1.5000000237487257,Q,121260589219000
Raw,1676593756000,395539000000,,,-1360628578461066386,0.0,7.053733853256838,292.0,1.0,17,30,0.0,84003,433773915382912,26,28.2027530670166,-299.45810834460804,0.8675444340225127,16,-121259.51014183709,340282346638528860000000000000000000000,1176450050,,,,0,,6,,24.102752685546875,-8.425652049481869,1.9540992841511806,-8.425652049481869,1.5000000237487257,Q,121260589219000
Raw,1676593756000,395539000000,,,-1360628578461066386,0.0,7.053733853256838,292.0,1.0,17,34,0.0,84003,433773919204066,10,38.790374755859375,-280.31235655783235,0.15,16,-116343.5146788083,340282346638528860000000000000000000000,1176450050,,,,0,,6,,34.69037628173828,-11.011515744030472,1.9540992841511806,-11.011515744030472,1.5000000237487257,Q,121260589219000
Raw,1676593756000,395539000000,,,-1360628578461066386,0.0,7.053733853256838,292.0,1.0,17,36,0.0,84003,433773921196874,23,31.430130004882812,248.97970670973882,0.7234587189187991,16,93026.3801195999,340282346638528860000000000000000000000,1176450050,,,,0,,6,,27.330129623413086,-11.750333942472933,1.9540992841511806,-11.750333942472933,1.5000000237487257,Q,121260589219000
UncalMag,1676593757080,121260710012462,-68.686,25.8274,-104.980995,-47.771046,2.9698257,-64.15999
UncalGyro,1676593757082,121260712805919,-1.1064297,-3.548058,2.9013045,0.0004699729,-0.0010100363,-0.0032424598
UncalAccel,1676593757086,121260717297618,6.960721,-3.231507,4.126423,0.006110925,-0.043260336,-0.038735468
UncalMag,1676593757089,121260720009289,-69.2106,26.9132,-105.347,-47.771046,2.9698257,-64.15999
UncalGyro,1676593757090,121260721786815,-1.1189524,-3.472769,2.8973339,0.00046960614,-0.001004167,-0.0032416172
OrientationDeg,1676593757087,121260717297618,317.0,-50.0,13.0
OrientationDeg,1676593757095,121260726274547,315.0,-52.0,14.0
UncalAccel,1676593757095,121260726274547,6.5850477,-4.4895334,4.8999023,0.006110925,-0.043260336,-0.038735468
UncalMag,1676593757100,121260730010998,-74.4322,25.4004,-109.2388,-47.771046,2.9698257,-64.15999
UncalGyro,1676593757099,121260730762340,-1.0867293,-3.3038647,2.9880474,0.00046940794,-0.0010009959,-0.003241162
UncalAccel,1676593757104,121260735242626,6.3290157,-5.6147585,5.793622,0.006110925,-0.043260336,-0.038735468
OrientationDeg,1676593757105,121260735242626,315.0,-53.0,16.0
UncalGyro,1676593757109,121260739746471,-1.0554224,-3.0618093,3.1253393,0.00046937796,-0.0010005161,-0.0032410931
UncalMag,1676593757109,121260739994152,-73.7856,27.913599,-105.3226,-47.771046,2.9698257,-64.15999
UncalAccel,1676593757114,121260744231090,8.406584,-7.0169525,6.748956,0.006110925,-0.043260336,-0.038735468
OrientationDeg,1676593757113,121260744231090,313.0,-55.0,18.0
UncalGyro,1676593757118,121260748715953,-1.0204504,-2.7104092,3.0214922,0.00046937342,-0.0010004435,-0.0032410827
UncalMag,1676593757119,121260750010753,-69.845,29.8168,-100.4182,-47.771046,2.9698257,-64.15999
UncalAccel,1676593757123,121260753214793,9.313464,-7.6887374,7.3980093,0.006110925,-0.043260336,-0.038735468
OrientationDeg,1676593757123,121260753214793,313.0,-56.0,19.0
UncalGyro,1676593757127,121260757710094,-1.0361801,-2.3038783,2.894585,0.00046937272,-0.0010004324,-0.0032410813
UncalMag,1676593757130,121260760010753,-72.9926,29.3044,-99.8082,-47.771046,2.9698257,-64.15999
UncalAccel,1676593757132,121260762196482,7.9130645,-7.143772,7.118049,0.006110925,-0.043260336,-0.038735468
OrientationDeg,1676593757132,121260762196482,312.0,-57.0,21.0
UncalGyro,1676593757136,121260766684459,-1.1461359,-2.0039434,2.976441,0.00046937264,-0.0010004308,-0.0032410808
UncalMag,1676593757140,121260770010753,-71.5774,30.682999,-99.003,-47.771046,2.9698257,-64.15999
UncalAccel,1676593757140,121260771172130,7.9908314,-6.847062,6.209375,0.006110925,-0.043260336,-0.038735468
OrientationDeg,1676593757140,121260771172130,312.0,-58.0,23.0
UncalGyro,1676593757145,121260775665050,-1.3388638,-1.7750217,3.1024318,0.0004693726,-0.0010004304,-0.0032410808
UncalMag,1676593757150,121260780011242,-71.1504,31.890799,-102.943596,-47.771046,2.9698257,-64.15999
UncalAccel,1676593757149,121260780149547,7.372287,-6.8763742,6.9451675,0.006110925,-0.043260336,-0.038735468
OrientationDeg,1676593757150,121260780149547,311.0,-58.0,24.0
UncalGyro,1676593757153,121260784632213,-1.5025758,-1.5172366,3.2768338,0.0004693726,-0.0010004304,-0.0032410808
UncalAccel,1676593757158,121260789132762,7.637292,-7.118049,6.9212394,0.006110925,-0.043260336,-0.038735468
OrientationDeg,1676593757158,121260789132762,310.0,-59.0,26.0
UncalMag,1676593757159,121260790011242,-68.3322,34.3674,-96.9534,-47.771046,2.9698257,-64.15999
UncalGyro,1676593757162,121260793625011,-1.6873626,-1.372156,3.43123,0.0004693726,-0.0010004304,-0.0032410808
UncalAccel,1676593757167,121260798112377,9.271589,-7.9477606,6.762715,0.006110925,-0.043260336,-0.038735468
OrientationDeg,1676593757168,121260798112377,310.0,-59.0,28.0
UncalMag,1676593757170,121260800004650,-70.894196,34.0258,-101.089195,-47.771046,2.9698257,-64.15999
UncalGyro,1676593757171,121260802591442,-1.8941404,-1.3252722,3.487277,0.0004693726,-0.0010004304,-0.0032410808
UncalAccel,1676593757176,121260807092113,10.092328,-9.078967,7.813762,0.006110925,-0.043260336,-0.038735468
OrientationDeg,1676593757176,121260807092113,310.0,-60.0,30.0
UncalMag,1676593757179,121260809999035,-66.8926,36.7586,-96.1482,-47.771046,2.9698257,-64.15999
UncalGyro,1676593757180,121260811584117,-2.0105102,-1.3683381,3.4784193,0.0004693726,-0.0010004304,-0.0032410808
UncalAccel,1676593757186,121260816074839,10.981261,-9.793225,9.095717,0.006110925,-0.043260336,-0.038735468
OrientationDeg,1676593757185,121260816074839,310.0,-61.0,32.0
