# 
# Header Description:
# 
# Version: v3.0.5.6 Platform: 13 Manufacturer: Google Model: Pixel 6
# 
# Raw,utcTimeMillis,TimeNanos,LeapSecond,TimeUncertaintyNanos,FullBiasNanos,BiasNanos,BiasUncertaintyNanos,DriftNanosPerSecond,DriftUncertaintyNanosPerSecond,HardwareClockDiscontinuityCount,Svid,TimeOffsetNanos,State,ReceivedSvTimeNanos,ReceivedSvTimeUncertaintyNanos,Cn0DbHz,PseudorangeRateMetersPerSecond,PseudorangeRateUncertaintyMetersPerSecond,AccumulatedDeltaRangeState,AccumulatedDeltaRangeMeters,AccumulatedDeltaRangeUncertaintyMeters,CarrierFrequencyHz,CarrierCycles,CarrierPhase,CarrierPhaseUncertainty,MultipathIndicator,SnrInDb,ConstellationType,AgcDb,BasebandCn0DbHz,FullInterSignalBiasNanos,FullInterSignalBiasUncertaintyNanos,SatelliteInterSignalBiasNanos,SatelliteInterSignalBiasUncertaintyNanos,CodeType,ChipsetElapsedRealtimeNanos
# 
# UncalAccel,utcTimeMillis,elapsedRealtimeNanos,UncalAccelXMps2,UncalAccelYMps2,UncalAccelZMps2,BiasXMps2,BiasYMps2,BiasZMps2
# 
# Accel,utcTimeMillis,elapsedRealtimeNanos,AccelXMps2,AccelYMps2,AccelZMps2
# 
# UncalGyro,utcTimeMillis,elapsedRealtimeNanos,UncalGyroXRadPerSec,UncalGyroYRadPerSec,UncalGyroZRadPerSec,DriftXRadPerSec,DriftYRadPerSec,DriftZRadPerSec
# 
# Gyro,utcTimeMillis,elapsedRealtimeNanos,GyroXRadPerSec,GyroYRadPerSec,GyroZRadPerSec
# 
# UncalMag,utcTimeMillis,elapsedRealtimeNanos,UncalMagXMicroT,UncalMagYMicroT,UncalMagZMicroT,BiasXMicroT,BiasYMicroT,BiasZMicroT
# 
# Mag,utcTimeMillis,elapsedRealtimeNanos,MagXMicroT,MagYMicroT,MagZMicroT
# 
# OrientationDeg,utcTimeMillis,elapsedRealtimeNanos,yawDeg,rollDeg,pitchDeg
# 
# Fix,Provider,LatitudeDegrees,LongitudeDegrees,AltitudeMeters,SpeedMps,AccuracyMeters,BearingDegrees,UnixTimeMillis,SpeedAccuracyMps,BearingAccuracyDegrees,elapsedRealtimeNanos,VerticalAccuracyMeters
# 
# Nav,Svid,Type,Status,MessageId,Sub-messageId,Data(Bytes)
# 
# Status,UnixTimeMillis,SignalCount,SignalIndex,ConstellationType,Svid,CarrierFrequencyHz,Cn0DbHz,AzimuthDegrees,ElevationDegrees,UsedInFix,HasAlmanacData,HasEphemerisData,BasebandCn0DbHz
# 
UncalAccel,1676592874429,120378059968883,0.85244304,-0.30508488,11.306685,0.006110925,-0.043260336,-0.038735468
UncalMag,1676592874437,120378067864513,-57.2668,-20.288599,-106.7378,-48.275375,2.3914185,-62.760414
UncalGyro,1676592874438,120378068953380,-0.48609602,-1.6140587,-0.37751472,0.0006391907,-0.0009652349,-0.0033541922
UncalAccel,1676592874438,120378068953380,0.046061836,-1.4985052,12.550355,0.006110925,-0.043260336,-0.038735468
OrientationDeg,1676592874438,120378068953380,158.0,0.0,-6.0
UncalMag,1676592874447,120378077862072,-57.3522,-20.374,-107.933395,-48.275375,2.3914185,-62.760414
UncalGyro,1676592874446,120378077929820,-0.27275133,-1.5326608,-0.087201014,0.0006391907,-0.0009652349,-0.0033541922
UncalAccel,1676592874446,120378077929820,-0.42951167,-0.35353956,14.112269,0.006110925,-0.043260336,-0.038735468
OrientationDeg,1676592874446,120378077929820,158.0,-1.0,-6.0
Fix,FLP,37.4307889000,-122.1550628000,-16.5,0.7689458,4.169,153.78519,1676592873988,,,120377619948375,3.3487353
UncalGyro,1676592874455,120378086924632,0.06566802,-1.1725558,0.118507855,0.0006391907,-0.0009652349,-0.0033541922
UncalAccel,1676592874456,120378086924632,-0.044865426,1.2556337,14.989838,0.006110925,-0.043260336,-0.038735468
UncalMag,1676592874457,120378087864269,-56.0102,-19.5688,-107.8846,-48.275375,2.3914185,-62.760414
OrientationDeg,1676592874456,120378086924632,158.0,-1.0,-6.0
OrientationDeg,1676592874465,120378095907054,158.0,-2.0,-6.0
UncalGyro,1676592874464,120378095907054,0.44058657,-0.7612908,0.14431691,0.0006391907,-0.0009652349,-0.0033541922
UncalAccel,1676592874464,120378095907054,0.72382885,1.7347964,14.400006,0.006110925,-0.043260336,-0.038735468
UncalMag,1676592874467,120378097875988,-58.084198,-20.3862,-106.066795,-48.275375,2.3914185,-62.760414
UncalGyro,1676592874474,120378104875255,0.799928,-0.5369505,0.03772093,0.0006391907,-0.0009652349,-0.0033541922
OrientationDeg,1676592874474,120378104875255,158.0,-2.0,-7.0
UncalAccel,1676592874474,120378104875255,1.8329022,1.6749759,12.808182,0.006110925,-0.043260336,-0.038735468
UncalMag,1676592874476,120378107876232,-54.0338,-18.178,-103.1632,-48.275375,2.3914185,-62.760414
UncalGyro,1676592874482,120378113865733,1.1487321,-0.5691737,-0.10629055,0.0006391907,-0.0009652349,-0.0033541922
OrientationDeg,1676592874483,120378113865733,158.0,-2.0,-7.0
UncalAccel,1676592874483,120378113865733,2.4514468,1.933999,11.420942,0.006110925,-0.043260336,-0.038735468
UncalMag,1676592874487,120378117875988,-57.4498,-21.3622,-105.7862,-48.275375,2.3914185,-62.760414
UncalGyro,1676592874492,120378122845653,1.514793,-0.7281514,-0.24236079,0.0006391907,-0.0009652349,-0.0033541922
UncalAccel,1676592874492,120378122845653,2.1098714,2.3198416,10.811371,0.006110925,-0.043260336,-0.038735468
OrientationDeg,1676592874491,120378122845653,158.0,-2.0,-8.0
UncalMag,1676592874496,120378127864269,-58.181797,-22.4236,-104.8712,-48.275375,2.3914185,-62.760414
UncalGyro,1676592874500,120378131826244,1.897042,-0.8927795,-0.36728272,0.0006391907,-0.0009652349,-0.0033541922
UncalAccel,1676592874501,120378131826244,1.5816557,2.5387847,10.90529,0.006110925,-0.043260336,-0.038735468
OrientationDeg,1676592874501,120378131826244,158.0,-3.0,-9.0
UncalMag,1676592874507,120378137876232,-58.401398,-23.1434,-103.907394,-48.275375,2.3914185,-62.760414
UncalGyro,1676592874509,120378140807750,2.276084,-0.94806284,-0.5004513,0.0006391907,-0.0009652349,-0.0033541922
UncalAccel,1676592874510,120378140807750,1.4033905,2.6021945,11.376676,0.006110925,-0.043260336,-0.038735468
OrientationDeg,1676592874509,120378140807750,158.0,-3.0,-10.0
UncalMag,1676592874517,120378147875988,-56.6568,-24.765999,-98.881,-48.275375,2.3914185,-62.760414
UncalGyro,1676592874519,120378149787059,2.6403122,-1.0352639,-0.6394232,0.0006391907,-0.0009652349,-0.0033541922
UncalAccel,1676592874518,120378149787059,1.5098711,2.481357,10.852049,0.006110925,-0.043260336,-0.038735468
OrientationDeg,1676592874518,120378149787059,159.0,-4.0,-12.0
UncalMag,1676592874527,120378157876232,-58.1452,-25.4614,-103.5414,-48.275375,2.3914185,-62.760414
UncalGyro,1676592874528,120378158767284,2.9741502,-1.2614367,-0.7851145,0.0006391907,-0.0009652349,-0.0033541922
UncalAccel,1676592874527,120378158767284,1.6043876,2.3940191,9.9756775,0.006110925,-0.043260336,-0.038735468
OrientationDeg,1676592874528,120378158767284,159.0,-4.0,-13.0
UncalGyro,1676592874537,120378167747814,3.1859677,-1.7783815,-0.9239337,0.0006391907,-0.0009652349,-0.0033541922
UncalAccel,1676592874537,120378167747814,1.9734805,2.1326032,8.188837,0.006110925,-0.043260336,-0.038735468
UncalMag,1676592874537,120378167871349,-59.657997,-26.291,-101.7846,-48.275375,2.3914185,-62.760414
OrientationDeg,1676592874536,120378167747814,159.0,-5.0,-15.0
UncalGyro,1676592874545,120378176726574,2.8083003,-3.1638238,-1.0319041,0.0006391907,-0.0009652349,-0.0033541922
UncalAccel,1676592874546,120378176726574,2.3228326,1.5571294,2.2205393,0.006110925,-0.043260336,-0.038735468
UncalMag,1676592874546,120378177864513,-57.584,-26.3154,-100.3938,-48.275375,2.3914185,-62.760414
OrientationDeg,1676592874546,120378176726574,160.0,-7.0,-16.0
UncalGyro,1676592874554,120378185708324,1.949271,-4.7248898,-1.0545062,0.0006391907,-0.0009652349,-0.0033541922
UncalAccel,1676592874554,120378185708324,2.8552356,1.8622142,4.907679,0.006110925,-0.043260336,-0.038735468
UncalMag,1676592874557,120378187864269,-60.4876,-28.5968,-98.453995,-48.275375,2.3914185,-62.760414
OrientationDeg,1676592874555,120378185708324,160.0,-9.0,-18.0
UncalGyro,1676592874563,120378194690501,1.5877914,-4.96664,-1.1363621,0.0006391907,-0.0009652349,-0.0033541922
OrientationDeg,1676592874564,120378194690501,160.0,-12.0,-18.0
UncalAccel,1676592874564,120378194690501,4.2885365,1.6163517,10.655837,0.006110925,-0.043260336,-0.038735468
UncalMag,1676592874567,120378197864269,-61.427,-28.303999,-98.1002,-48.275375,2.3914185,-62.760414
UncalGyro,1676592874572,120378203668956,1.4575244,-4.4171667,-1.2982414,0.0006391907,-0.0009652349,-0.0033541922
UncalAccel,1676592874572,120378203668956,4.8879385,1.8000008,11.216954,0.006110925,-0.043260336,-0.038735468
OrientationDeg,1676592874573,120378203668956,161.0,-14.0,-19.0
UncalMag,1676592874576,120378207876232,-60.194798,-27.096199,-94.5012,-48.275375,2.3914185,-62.760414
UncalGyro,1676592874582,120378212650096,1.1192578,-3.60945,-1.4955509,0.0006391907,-0.0009652349,-0.0033541922
UncalAccel,1676592874581,120378212650096,5.27079,1.9124635,10.999805,0.006110925,-0.043260336,-0.038735468
OrientationDeg,1676592874582,120378212650096,162.0,-16.0,-20.0
UncalMag,1676592874586,120378217875988,-62.829998,-29.9998,-97.965996,-48.275375,2.3914185,-62.760414
UncalGyro,1676592874591,120378221629466,0.91247994,-2.8212812,-1.681712,0.0006391907,-0.0009652349,-0.0033541922
UncalAccel,1676592874591,120378221629466,5.0793643,1.4961123,10.529616,0.006110925,-0.043260336,-0.038735468
OrientationDeg,1676592874591,120378221629466,162.0,-17.0,-21.0
UncalMag,1676592874596,120378227875988,-63.0618,-30.5488,-91.3048,-48.275375,2.3914185,-62.760414
UncalGyro,1676592874600,120378230609752,0.7319693,-2.0120375,-1.8536706,0.0006391907,-0.0009652349,-0.0033541922
UncalAccel,1676592874599,120378230609752,4.712664,1.9106688,10.158729,0.006110925,-0.043260336,-0.038735468
OrientationDeg,1676592874600,120378230609752,163.0,-17.0,-21.0
UncalMag,1676592874606,120378237875988,-63.0374,-30.8294,-92.219795,-48.275375,2.3914185,-62.760414
UncalGyro,1676592874608,120378239590099,0.6047566,-1.2415836,-2.0118847,0.0006391907,-0.0009652349,-0.0033541922
UncalAccel,1676592874608,120378239590099,4.150949,2.4077778,9.796216,0.006110925,-0.043260336,-0.038735468
OrientationDeg,1676592874608,120378239590099,164.0,-18.0,-22.0
UncalMag,1676592874616,120378247876232,-61.670998,-31.268599,-90.585,-48.275375,2.3914185,-62.760414
UncalGyro,1676592874617,120378248571544,0.52274793,-0.48487428,-2.138181,0.0006391907,-0.0009652349,-0.0033541922
UncalAccel,1676592874617,120378248571544,3.2745779,3.3290145,10.121041,0.006110925,-0.043260336,-0.038735468
OrientationDeg,1676592874617,120378248571544,165.0,-18.0,-22.0
UncalGyro,1676592874627,120378257550548,0.49556443,0.23380867,-2.1723895,0.0006391907,-0.0009652349,-0.0033541922
UncalAccel,1676592874626,120378257550548,2.3001008,4.3178487,10.079167,0.006110925,-0.043260336,-0.038735468
UncalMag,1676592874626,120378257863292,-61.1464,-31.3662,-90.975395,-48.275375,2.3914185,-62.760414
UncalGyro,1676592874636,120378266530346,0.48548517,0.7457138,-2.1203132,0.0006391907,-0.0009652349,-0.0033541922
UncalAccel,1676592874636,120378266530346,1.6564314,4.584648,8.5525465,0.006110925,-0.043260336,-0.038735468
UncalMag,1676592874637,120378267864269,-59.841,-31.1344,-90.4752,-48.275375,2.3914185,-62.760414
OrientationDeg,1676592874626,120378257550548,166.0,-17.0,-23.0
OrientationDeg,1676592874635,120378266530346,167.0,-16.0,-24.0
UncalGyro,1676592874644,120378275508372,0.47968194,0.8116872,-1.9077321,0.0006391907,-0.0009652349,-0.0033541922
UncalAccel,1676592874644,120378275508372,-1.5990037,4.6175494,6.5318074,0.006110925,-0.043260336,-0.038735468
OrientationDeg,1676592874645,120378275508372,168.0,-15.0,-24.0
UncalMag,1676592874647,120378277874035,-59.4018,-32.6838,-90.1336,-48.275375,2.3914185,-62.760414
UncalGyro,1676592874654,120378284493358,0.50533825,0.30848694,-0.97203934,0.0006391907,-0.0009652349,-0.0033541922
UncalAccel,1676592874654,120378284493358,-10.943574,4.9471607,6.3858457,0.006110925,-0.043260336,-0.038735468
OrientationDeg,1676592874654,120378284493358,169.0,-15.0,-25.0
UncalMag,1676592874657,120378287866955,-56.5958,-31.695599,-91.4878,-48.275375,2.3914185,-62.760414
UncalGyro,1676592874663,120378293457226,0.45845437,-0.123547494,0.26908615,0.0006391907,-0.0009652349,-0.0033541922
UncalAccel,1676592874662,120378293457226,-8.208578,4.81077,6.402595,0.006110925,-0.043260336,-0.038735468
OrientationDeg,1676592874662,120378293457226,169.0,-15.0,-25.0
UncalMag,1676592874667,120378297876232,-56.0956,-31.354,-91.9758,-48.275375,2.3914185,-62.760414
UncalGyro,1676592874672,120378302450450,0.14569137,-0.1553125,0.8588765,0.0006391907,-0.0009652349,-0.0033541922
UncalAccel,1676592874671,120378302450450,-0.34396824,2.5477579,5.1349974,0.006110925,-0.043260336,-0.038735468
OrientationDeg,1676592874672,120378302450450,168.0,-15.0,-25.0
UncalMag,1676592874677,120378307875988,-60.0118,-32.1348,-90.0848,-48.275375,2.3914185,-62.760414
UncalGyro,1676592874681,120378311432567,-0.25809056,-0.016493361,0.96929044,0.0006391907,-0.0009652349,-0.0033541922
UncalAccel,1676592874681,120378311432567,3.1914272,1.3615161,5.5070815,0.006110925,-0.043260336,-0.038735468
OrientationDeg,1676592874681,120378311432567,168.0,-15.0,-24.0
UncalMag,1676592874687,120378317876232,-63.0374,-34.050198,-92.0368,-48.275375,2.3914185,-62.760414
UncalGyro,1676592874689,120378320414256,-0.57787853,0.23167065,0.9653198,0.0006391907,-0.0009652349,-0.0033541922
UncalAccel,1676592874690,120378320414256,4.1294136,1.5918252,7.085148,0.006110925,-0.043260336,-0.038735468
OrientationDeg,1676592874690,120378320414256,167.0,-16.0,-24.0
UncalMag,1676592874697,120378327876232,-62.3542,-33.1352,-93.146996,-48.275375,2.3914185,-62.760414
UncalGyro,1676592874698,120378329393199,-0.72234815,0.40744713,1.00075,0.0006391907,-0.0009652349,-0.0033541922
UncalAccel,1676592874698,120378329393199,3.5617166,2.3150558,8.310871,0.006110925,-0.043260336,-0.038735468
OrientationDeg,1676592874699,120378329393199,167.0,-15.0,-23.0
UncalMag,1676592874706,120378337875988,-60.341198,-31.695599,-92.0978,-48.275375,2.3914185,-62.760414
UncalGyro,1676592874707,120378338373180,-0.73624533,0.529162,1.0600039,0.0006391907,-0.0009652349,-0.0033541922
UncalAccel,1676592874708,120378338373180,3.1950164,2.9120653,9.108279,0.006110925,-0.043260336,-0.038735468
OrientationDeg,1676592874708,120378338373180,166.0,-15.0,-23.0
UncalGyro,1676592874716,120378347354015,-0.72326446,0.6711882,1.1027645,0.0006391907,-0.0009652349,-0.0033541922
UncalAccel,1676592874716,120378347354015,3.3882368,3.313461,9.183055,0.006110925,-0.043260336,-0.038735468
UncalMag,1676592874716,120378347864513,-61.61,-31.573599,-94.1718,-48.275375,2.3914185,-62.760414
OrientationDeg,1676592874717,120378347354015,166.0,-15.0,-22.0
UncalGyro,1676592874726,120378356335155,-0.7312057,0.7673995,1.132086,0.0006391907,-0.0009652349,-0.0033541922
UncalAccel,1676592874726,120378356335155,3.4540396,3.231507,8.329415,0.006110925,-0.043260336,-0.038735468
OrientationDeg,1676592874726,120378356335155,165.0,-15.0,-22.0
UncalMag,1676592874727,120378357876232,-60.3168,-31.354,-94.2206,-48.275375,2.3914185,-62.760414
UncalGyro,1676592874735,120378365314586,-0.7359399,0.58169645,1.1800389,0.0006391907,-0.0009652349,-0.0033541922
UncalAccel,1676592874735,120378365314586,2.8600214,2.524428,6.869794,0.006110925,-0.043260336,-0.038735468
OrientationDeg,1676592874735,120378365314586,165.0,-15.0,-21.0
UncalMag,1676592874737,120378367876232,-60.4632,-30.6098,-94.537796,-48.275375,2.3914185,-62.760414
UncalGyro,1676592874744,120378374294811,-0.7440339,0.1656972,1.2622004,0.0006391907,-0.0009652349,-0.0033541922
UncalAccel,1676592874744,120378374294811,2.461018,1.7838492,6.378069,0.006110925,-0.043260336,-0.038735468
OrientationDeg,1676592874744,120378374294811,164.0,-15.0,-21.0
UncalMag,1676592874746,120378377864513,-59.6946,-29.9998,-92.7566,-48.275375,2.3914185,-62.760414
UncalGyro,1676592874753,120378383275096,-0.77518797,-0.47112983,1.4294246,0.0006391907,-0.0009652349,-0.0033541922
UncalAccel,1676592874753,120378383275096,2.184647,1.1563315,4.5008993,0.006110925,-0.043260336,-0.038735468
OrientationDeg,1676592874752,120378383275096,164.0,-16.0,-20.0
UncalMag,1676592874756,120378387858654,-62.915398,-30.0852,-93.5374,-48.275375,2.3914185,-62.760414
UncalGyro,1676592874762,120378392245372,-0.77763146,-1.2950343,1.681712,0.0006391907,-0.0009652349,-0.0033541922
UncalAccel,1676592874761,120378392245372,1.5373886,1.1886346,4.345366,0.006110925,-0.043260336,-0.038735468
OrientationDeg,1676592874761,120378392245372,163.0,-17.0,-20.0
UncalMag,1676592874767,120378397875988,-66.4778,-31.171,-96.2458,-48.275375,2.3914185,-62.760414
UncalGyro,1676592874770,120378401235790,-0.70478576,-2.0450242,1.9446895,0.0006391907,-0.0009652349,-0.0033541922
UncalAccel,1676592874770,120378401235790,1.1593226,1.5942181,5.1846485,0.006110925,-0.043260336,-0.038735468
OrientationDeg,1676592874771,120378401235790,162.0,-18.0,-19.0
UncalMag,1676592874777,120378407875988,-67.0512,-30.365799,-95.489395,-48.275375,2.3914185,-62.760414
UncalGyro,1676592874779,120378410215648,-0.54702985,-2.5951083,2.1743748,0.0006391907,-0.0009652349,-0.0033541922
UncalAccel,1676592874779,120378410215648,1.2933207,1.6127625,6.1381884,0.006110925,-0.043260336,-0.038735468
OrientationDeg,1676592874779,120378410215648,161.0,-20.0,-18.0
UncalMag,1676592874787,120378417876232,-66.062996,-29.1092,-94.123,-48.275375,2.3914185,-62.760414
UncalGyro,1676592874788,120378419196483,-0.33399057,-2.9177978,2.383749,0.0006391907,-0.0009652349,-0.0033541922
UncalAccel,1676592874788,120378419196483,1.7126628,1.4333007,6.7686973,0.006110925,-0.043260336,-0.038735468
OrientationDeg,1676592874788,120378419196483,160.0,-21.0,-18.0
UncalMag,1676592874796,120378427875988,-72.5168,-30.329199,-96.7582,-48.275375,2.3914185,-62.760414
UncalGyro,1676592874798,120378428177989,-0.11362094,-3.1094568,2.5369234,0.0006391907,-0.0009652349,-0.0033541922
UncalAccel,1676592874798,120378428177989,2.6919255,1.2215359,7.000801,0.006110925,-0.043260336,-0.038735468
OrientationDeg,1676592874797,120378428177989,158.0,-23.0,-17.0
UncalGyro,1676592874807,120378437145641,0.129198,-3.1905491,2.6314547,0.0006391907,-0.0009652349,-0.0033541922
UncalAccel,1676592874807,120378437145641,3.5784662,0.9284152,7.55115,0.006110925,-0.043260336,-0.038735468
UncalMag,1676592874807,120378437864513,-71.6506,-28.889599,-94.1596,-48.275375,2.3914185,-62.760414
OrientationDeg,1676592874806,120378437145641,157.0,-26.0,-16.0
UncalGyro,1676592874815,120378446137096,0.39935315,-3.02531,2.7097983,0.0006391907,-0.0009652349,-0.0033541922
UncalAccel,1676592874815,120378446137096,4.3202415,0.20578274,9.776475,0.006110925,-0.043260336,-0.038735468
UncalMag,1676592874816,120378447864269,-72.6388,-28.816399,-93.3422,-48.275375,2.3914185,-62.760414
OrientationDeg,1676592874816,120378446137096,156.0,-27.0,-16.0
UncalGyro,1676592874824,120378455114818,0.6640105,-1.6852245,2.796083,0.0006391907,-0.0009652349,-0.0033541922
UncalAccel,1676592874825,120378455114818,5.261219,-1.3740784,17.611773,0.006110925,-0.043260336,-0.038735468
UncalMag,1676592874827,120378457876232,-71.2602,-27.022999,-90.6948,-48.275375,2.3914185,-62.760414
OrientationDeg,1676592874825,120378455114818,154.0,-29.0,-16.0
UncalGyro,1676592874834,120378464099376,0.9428705,-0.537256,2.7669141,0.0006391907,-0.0009652349,-0.0033541922
UncalAccel,1676592874834,120378464099376,6.3882384,-2.3557339,12.808182,0.006110925,-0.043260336,-0.038735468
OrientationDeg,1676592874834,120378464099376,153.0,-29.0,-15.0
UncalMag,1676592874837,120378467876232,-72.529,-26.6814,-91.195,-48.275375,2.3914185,-62.760414
UncalGyro,1676592874843,120378473081127,1.2350168,0.38927388,2.5757134,0.0006391907,-0.0009652349,-0.0033541922
UncalAccel,1676592874843,120378473081127,8.009974,-2.3856442,11.576476,0.006110925,-0.043260336,-0.038735468
OrientationDeg,1676592874842,120378473081127,151.0,-30.0,-15.0
UncalMag,1676592874846,120378477875011,-78.1288,-28.2918,-89.8652,-48.275375,2.3914185,-62.760414
UncalGyro,1676592874851,120378482044628,1.5025758,0.74021596,2.2678373,0.0006391907,-0.0009652349,-0.0033541922
UncalAccel,1676592874851,120378482044628,7.990233,-1.3555341,8.459825,0.006110925,-0.043260336,-0.038735468
OrientationDeg,1676592874852,120378482044628,150.0,-30.0,-15.0
UncalMag,1676592874857,120378487875988,-76.8356,-27.4988,-90.6948,-48.275375,2.3914185,-62.760414
UncalGyro,1676592874860,120378491039012,1.669342,0.39095375,2.03861,0.0006391907,-0.0009652349,-0.0033541922
UncalAccel,1676592874860,120378491039012,7.207182,-0.43669012,5.334798,0.006110925,-0.043260336,-0.038735468
OrientationDeg,1676592874860,120378491039012,148.0,-30.0,-15.0
UncalMag,1676592874866,120378497875744,-75.6034,-26.5716,-88.206,-48.275375,2.3914185,-62.760414
UncalGyro,1676592874869,120378500020397,1.7322611,-0.40546182,1.9373591,0.0006391907,-0.0009652349,-0.0033541922
UncalAccel,1676592874870,120378500020397,5.829514,0.32362926,3.5886357,0.006110925,-0.043260336,-0.038735468
OrientationDeg,1676592874870,120378500020397,147.0,-30.0,-16.0
UncalMag,1676592874877,120378507875988,-76.3842,-26.595999,-87.4252,-48.275375,2.3914185,-62.760414
UncalGyro,1676592874877,120378508999645,1.7502817,-1.1728612,1.8623754,0.0006391907,-0.0009652349,-0.0033541922
UncalAccel,1676592874878,120378508999645,3.940979,1.1072787,4.031906,0.006110925,-0.043260336,-0.038735468
OrientationDeg,1676592874877,120378508999645,146.0,-31.0,-16.0
UncalMag,1676592874886,120378517875988,-78.6534,-27.3158,-85.3512,-48.275375,2.3914185,-62.760414
UncalGyro,1676592874886,120378517976939,1.7835737,-1.4749341,1.8183931,0.0006391907,-0.0009652349,-0.0033541922
UncalAccel,1676592874886,120378517976939,2.7248268,1.3603196,6.458228,0.006110925,-0.043260336,-0.038735468
OrientationDeg,1676592874887,120378517976939,144.0,-33.0,-16.0
UncalGyro,1676592874895,120378526960155,1.8125899,-1.3840679,1.9553796,0.0006391907,-0.0009652349,-0.0033541922
UncalAccel,1676592874896,120378526960155,3.1220353,-0.104087785,7.6678,0.006110925,-0.043260336,-0.038735468
UncalMag,1676592874897,120378527864269,-81.1422,-27.5964,-86.449196,-48.275375,2.3914185,-62.760414
OrientationDeg,1676592874896,120378526960155,143.0,-34.0,-16.0
UncalGyro,1676592874904,120378535944591,1.7198911,-1.2554808,2.208278,0.0006391907,-0.0009652349,-0.0033541922
UncalAccel,1676592874904,120378535944591,4.866403,-1.6157535,7.4291162,0.006110925,-0.043260336,-0.038735468
OrientationDeg,1676592874905,120378535944591,141.0,-35.0,-16.0
UncalMag,1676592874906,120378537864513,-81.8986,-26.5106,-90.4508,-48.275375,2.3914185,-62.760414
UncalGyro,1676592874913,120378544921092,1.5819882,-1.1311697,2.3926065,0.0006391907,-0.0009652349,-0.0033541922
UncalAccel,1676592874914,120378544921092,5.6674004,-1.3136597,7.7826557,0.006110925,-0.043260336,-0.038735468
OrientationDeg,1676592874914,120378544921092,140.0,-36.0,-16.0
UncalMag,1676592874917,120378547876232,-82.410995,-26.6448,-86.1198,-48.275375,2.3914185,-62.760414
UncalGyro,1676592874922,120378553900768,1.5173893,-0.9830349,2.4252877,0.0006391907,-0.0009652349,-0.0033541922
UncalAccel,1676592874923,120378553900768,6.485746,-0.50787663,7.4997044,0.006110925,-0.043260336,-0.038735468
OrientationDeg,1676592874923,120378553900768,138.0,-37.0,-16.0
UncalMag,1676592874927,120378557876232,-81.325195,-24.924599,-88.0596,-48.275375,2.3914185,-62.760414
UncalGyro,1676592874932,120378562870311,1.4999796,-0.9815077,2.3660338,0.0006391907,-0.0009652349,-0.0033541922
UncalAccel,1676592874931,120378562870311,6.971489,-0.5162515,6.5964136,0.006110925,-0.043260336,-0.038735468
OrientationDeg,1676592874931,120378562870311,137.0,-38.0,-16.0
UncalMag,1676592874937,120378567864513,-80.2638,-23.7046,-86.778595,-48.275375,2.3914185,-62.760414
UncalGyro,1676592874941,120378571859142,1.4686728,-1.120785,2.300824,0.0006391907,-0.0009652349,-0.0033541922
UncalAccel,1676592874940,120378571859142,7.14437,-1.4237294,5.9587264,0.006110925,-0.043260336,-0.038735468
OrientationDeg,1676592874940,120378571859142,135.0,-39.0,-16.0
UncalMag,1676592874947,120378577872081,-83.2284,-24.497599,-87.0226,-48.275375,2.3914185,-62.760414
UncalGyro,1676592874949,120378580842052,1.3582588,-1.3590225,2.244777,0.0006391907,-0.0009652349,-0.0033541922
UncalAccel,1676592874949,120378580842052,7.2963142,-2.3264217,4.6061835,0.006110925,-0.043260336,-0.038735468
OrientationDeg,1676592874950,120378580842052,134.0,-40.0,-16.0
UncalMag,1676592874957,120378587875988,-85.644,-24.8392,-85.9246,-48.275375,2.3914185,-62.760414
UncalGyro,1676592874959,120378589826305,1.1908818,-1.6960673,2.1965187,0.0006391907,-0.0009652349,-0.0033541922
UncalAccel,1676592874958,120378589826305,7.3322067,-1.6851454,3.1465619,0.006110925,-0.043260336,-0.038735468
OrientationDeg,1676592874959,120378589826305,133.0,-41.0,-15.0
UncalMag,1676592874967,120378597875988,-86.8274,-24.2658,-85.9124,-48.275375,2.3914185,-62.760414
UncalGyro,1676592874968,120378598804088,0.9949468,-2.1125247,2.189799,0.0006391907,-0.0009652349,-0.0033541922
UncalAccel,1676592874968,120378598804088,6.923632,-1.811965,2.7146573,0.006110925,-0.043260336,-0.038735468
OrientationDeg,1676592874968,120378598804088,131.0,-43.0,-15.0
UncalGyro,1676592874977,120378607784373,0.78801614,-2.4535403,2.2968533,0.0006391907,-0.0009652349,-0.0033541922
UncalAccel,1676592874977,120378607784373,6.2805614,-1.6881363,2.8175488,0.006110925,-0.043260336,-0.038735468
UncalMag,1676592874976,120378607871349,-86.071,-22.997,-82.4354,-48.275375,2.3914185,-62.760414
OrientationDeg,1676592874976,120378607784373,130.0,-44.0,-14.0
UncalGyro,1676592874986,120378616761546,0.6198755,-2.736829,2.4469736,0.0006391907,-0.0009652349,-0.0033541922
UncalAccel,1676592874986,120378616761546,6.3678994,-0.8255238,3.8183467,0.006110925,-0.043260336,-0.038735468
UncalMag,1676592874987,120378617864513,-90.6826,-23.546,-83.9116,-48.275375,2.3914185,-62.760414
OrientationDeg,1676592874985,120378616761546,129.0,-46.0,-13.0
UncalGyro,1676592874994,120378625738231,0.5879578,-3.0181324,2.5841126,0.0006391907,-0.0009652349,-0.0033541922
UncalAccel,1676592874994,120378625738231,7.475178,-0.08793623,5.671588,0.006110925,-0.043260336,-0.038735468
OrientationDeg,1676592874994,120378625738231,128.0,-48.0,-13.0
UncalMag,1676592874996,120378627876232,-90.975395,-22.508999,-82.264595,-48.275375,2.3914185,-62.760414
UncalGyro,1676592875004,120378634723888,0.7021896,-3.2641585,2.6422975,0.0006391907,-0.0009652349,-0.0033541922
UncalAccel,1676592875003,120378634723888,8.91805,0.6801598,6.17767,0.006110925,-0.043260336,-0.038735468
OrientationDeg,1676592875004,120378634723888,127.0,-50.0,-12.0
UncalMag,1676592875007,120378637876232,-92.171,-21.899,-80.9714,-48.275375,2.3914185,-62.760414
UncalGyro,1676592875012,120378643705760,0.8889617,-3.4429893,2.657722,0.0006391907,-0.0009652349,-0.0033541922
UncalAccel,1676592875012,120378643705760,8.881559,1.1120644,6.503692,0.006110925,-0.043260336,-0.038735468
OrientationDeg,1676592875013,120378643705760,126.0,-52.0,-11.0
UncalMag,1676592875017,120378647875988,-92.0124,-20.2032,-77.958,-48.275375,2.3914185,-62.760414
UncalGyro,1676592875021,120378652684459,1.0783299,-3.3027956,2.703995,0.0006391907,-0.0009652349,-0.0033541922
UncalAccel,1676592875021,120378652684459,7.616953,1.9166509,8.003393,0.006110925,-0.043260336,-0.038735468
OrientationDeg,1676592875021,120378652684459,124.0,-54.0,-10.0
UncalMag,1676592875027,120378657876720,-90.523994,-18.421999,-76.798996,-48.275375,2.3914185,-62.760414
UncalGyro,1676592875031,120378661664684,1.2110404,-2.466521,2.8273897,0.0006391907,-0.0009652349,-0.0033541922
UncalAccel,1676592875030,120378661664684,6.29432,2.2941186,9.967302,0.006110925,-0.043260336,-0.038735468
OrientationDeg,1676592875030,120378661664684,123.0,-55.0,-9.0
Raw,1676592874000,833697000000,,,-1360627258303358619,0.0,8.565208088805107,285.0,1.0,15,6,0.0,16431,432891930515711,15,43.93136978149414,377.4411205582983,0.15,16,275854.64608708146,340282346638528860000000000000000000000,1575420030,,,,0,,1,,39.73136901855469,0.320142130558394,1.0,0.320142130558394,1.0,C,120378574527000
Raw,1676592874000,833697000000,,,-1360627258303358619,0.0,8.565208088805107,285.0,1.0,15,11,0.0,16431,432891931396442,23,36.33090591430664,-184.67633598815246,0.15,16,-191838.10660180578,340282346638528860000000000000000000000,1575420030,,,,0,,1,,32.13090515136719,-0.20372681261465636,1.0,-0.20372681261465636,1.0,C,120378574527000
Raw,1676592874000,833697000000,,,-1360627258303358619,0.0,8.565208088805107,285.0,1.0,15,12,0.0,16431,432891929922665,48,27.265701293945312,-294.7482877601774,0.9131974185637319,16,-263091.4139409296,340282346638528860000000000000000000000,1575420030,,,,0,,1,,23.06570053100586,-0.6984919076624261,1.0,-0.6984919076624261,1.0,C,120378574527000
Raw,1676592874000,833697000000,,,-1360627258303358619,0.0,8.565208088805107,285.0,1.0,15,19,0.0,16431,432891926766938,10,45.96925735473633,556.1997877853082,0.15,16,453860.3200200043,340282346638528860000000000000000000000,1575420030,,,,0,,1,,41.769256591796875,0.0,1.0,0.0,1.0,C,120378574527000
Raw,1676592874000,833697000000,,,-1360627258303358619,0.0,8.565208088805107,285.0,1.0,15,20,0.0,16431,432891920163033,26,34.55748748779297,-490.5867305069198,0.5871358823938366,16,-407838.68924466893,340282346638528860000000000000000000000,1575420030,,,,0,,1,,30.35748863220215,0.0,1.0,0.0,1.0,C,120378574527000
Raw,1676592874000,833697000000,,,-1360627258303358619,0.0,8.565208088805107,285.0,1.0,15,24,0.0,16431,432891928276494,15,41.398460388183594,455.5865015948632,0.15,16,345257.72788541025,340282346638528860000000000000000000000,1575420030,,,,0,,1,,37.19845962524414,-0.20372681261465636,1.0,-0.20372681261465636,1.0,C,120378574527000
Raw,1676592874000,833697000000,,,-1360627258303358619,0.0,8.565208088805107,285.0,1.0,15,25,0.0,16431,432891923722901,18,39.33448791503906,-501.0651091052057,0.15,16,-423081.23294594756,340282346638528860000000000000000000000,1575420030,,,,0,,1,,35.13448715209961,-2.0372682255564105,1.0,-2.0372682255564105,1.0,C,120378574527000
Raw,1676592874000,833697000000,,,-1360627258303358619,0.0,8.565208088805107,285.0,1.0,15,6,0.0,81921,432891930516232,8,43.653106689453125,377.6224051445431,0.15,16,276686.50146133354,340282346638528860000000000000000000000,1176450050,,,,0,,1,,39.55310821533203,1.9208527336454408,1.359077836226163,1.9208527336454408,1.0,Q,120378574527000
Raw,1676592874000,833697000000,,,-1360627258303358619,0.0,8.565208088805107,285.0,1.0,15,11,0.0,81921,432891931396980,8,33.292388916015625,-184.12793222147218,0.6379522925309637,16,-192736.762348413,340282346638528860000000000000000000000,1176450050,,,,0,,1,,29.1923885345459,0.0,1.359077836226163,0.0,1.0,Q,120378574527000
Raw,1676592874000,833697000000,,,-1360627258303358619,0.0,8.565208088805107,285.0,1.0,15,24,0.0,81921,432891928277040,9,38.548030853271484,455.7749094145213,0.15,16,346381.6885708758,340282346638528860000000000000000000000,1176450050,,,,0,,1,,34.44803237915039,3.5215636101095664,1.359077836226163,3.5215636101095664,1.0,Q,120378574527000
Raw,1676592874000,833697000000,,,-1360627258303358619,0.0,8.565208088805107,285.0,1.0,15,25,0.0,81921,432891923723455,36,27.694089889526367,-501.5015690434368,0.8883211527726562,16,-424639.5344175197,340282346638528860000000000000000000000,1176450050,,,,0,,1,,23.59408950805664,1.0186341127782053,1.359077836226163,1.0186341127782053,1.0,Q,120378574527000
Raw,1676592874000,833697000000,,,-1360627258303358619,0.0,8.565208088805107,285.0,1.0,15,14,0.0,32995,11673934498991,57,33.5911979675293,444.938085620985,0.6295700718125872,16,325281.7040087996,340282346638528860000000000000000000000,1598062460,,,,1,,3,,29.391199111938477,50.29141902923584,2.0000000474974513,50.29141902923584,2.0000000474974513,C,120378574527000
Raw,1676592874000,833697000000,,,-1360627258303358619,0.0,8.565208088805107,285.0,1.0,15,18,0.0,32995,11673926378451,35,39.76706314086914,-555.656274851139,0.15,16,-487072.18784852553,340282346638528860000000000000000000000,1600312450,,,,0,,3,,35.56706237792969,50.29141902923584,2.0000000474974513,50.29141902923584,2.0000000474974513,C,120378574527000
Raw,1676592874000,833697000000,,,-1360627258303358619,0.0,8.565208088805107,285.0,1.0,15,15,0.0,32995,11673934471661,54,34.296630859375,-309.2150635856756,0.5978426331547455,16,-293385.4277190522,340282346638528860000000000000000000000,1602000000,,,,0,,3,,30.09663200378418,50.29141902923584,2.0000000474974513,50.29141902923584,2.0000000474974513,C,120378574527000
Raw,1676592874000,833697000000,,,-1360627258303358619,0.0,8.565208088805107,285.0,1.0,15,24,0.0,32995,11673931519199,33,47.18367385864258,644.4357231473859,0.15,16,513153.1137812708,340282346638528860000000000000000000000,1603124990,,,,0,,3,,42.983673095703125,50.29141902923584,2.0000000474974513,50.29141902923584,2.0000000474974513,C,120378574527000
Raw,1676592874000,833697000000,,,-1360627258303358619,0.0,8.565208088805107,285.0,1.0,15,17,0.0,32995,11673936283593,34,39.896873474121094,-32.119247382797596,0.15,16,-71810.01875749571,340282346638528860000000000000000000000,1604249980,,,,0,,3,,35.69687271118164,50.29141902923584,2.0000000474974513,50.29141902923584,2.0000000474974513,C,120378574527000
Raw,1676592874000,833697000000,,,-1360627258303358619,0.0,8.565208088805107,285.0,1.0,15,2,0.0,85026,432891922603823,21,37.50889205932617,76.5007320970567,0.15,16,46826.18515067989,340282346638528860000000000000000000000,1575420030,,,,0,,6,,33.30889129638672,-5.5588316172361365,1.5000000237487257,-5.5588316172361365,1.5000000237487257,C,120378574527000
Raw,1676592874000,833697000000,,,-1360627258303358619,0.0,8.565208088805107,285.0,1.0,15,11,0.0,85026,432891912744661,24,35.8304443359375,575.7256952921393,0.5271191394471897,16,467296.4455397663,340282346638528860000000000000000000000,1575420030,,,,0,,6,,31.630443572998047,-5.5588316172361365,1.5000000237487257,-5.5588316172361365,1.5000000237487257,C,120378574527000
Raw,1676592874000,833697000000,,,-1360627258303358619,0.0,8.565208088805107,285.0,1.0,15,25,0.0,85026,432891914385510,18,39.319400787353516,456.6121108765476,0.15,16,366839.4353860873,340282346638528860000000000000000000000,1575420030,,,,0,,6,,35.11940002441406,-5.5588316172361365,1.5000000237487257,-5.5588316172361365,1.5000000237487257,C,120378574527000
Raw,1676592874000,833697000000,,,-1360627258303358619,0.0,8.565208088805107,285.0,1.0,15,30,0.0,85026,432891914507394,29,33.52311706542969,-319.3914034542563,0.6311941141793587,16,-269992.11561737873,340282346638528860000000000000000000000,1575420030,,,,0,,6,,29.323116302490234,-5.5588316172361365,1.5000000237487257,-5.5588316172361365,1.5000000237487257,C,120378574527000
Raw,1676592874000,833697000000,,,-1360627258303358619,0.0,8.565208088805107,285.0,1.0,15,34,0.0,85026,432891918328208,24,35.63054656982422,-339.72765544737376,0.5363930956881826,16,-302807.32122012845,340282346638528860000000000000000000000,1575420030,,,,0,,6,,31.4305477142334,-5.5588316172361365,1.5000000237487257,-5.5588316172361365,1.5000000237487257,C,120378574527000
Raw,1676592874000,833697000000,,,-1360627258303358619,0.0,8.565208088805107,285.0,1.0,15,36,0.0,85026,432891921860270,13,42.80168533325195,176.1373343721558,0.15,16,118055.21482225547,340282346638528860000000000000000000000,1575420030,,,,0,,6,,38.6016845703125,-5.5588316172361365,1.5000000237487257,-5.5588316172361365,1.5000000237487257,C,120378574527000
Raw,1676592874000,833697000000,,,-1360627258303358619,0.0,8.565208088805107,285.0,1.0,15,2,0.0,84003,432891922604392,8,39.06973648071289,76.43064152521754,0.15,16,46845.50906636568,340282346638528860000000000000000000000,1176450050,,,,0,,6,,34.9697380065918,-3.896490670740604,1.8590778599748887,-3.896490670740604,1.5000000237487257,Q,120378574527000
Raw,1676592874000,833697000000,,,-1360627258303358619,0.0,8.565208088805107,285.0,1.0,15,11,0.0,84003,432891912745208,21,29.89531135559082,575.5347653706986,0.7909575595816714,16,468504.68630943174,340282346638528860000000000000000000000,1176450050,,,,0,,6,,25.795310974121094,4.599918611347673,1.8590778599748887,4.599918611347673,1.5000000237487257,Q,120378574527000
Raw,1676592874000,833697000000,,,-1360627258303358619,0.0,8.565208088805107,285.0,1.0,15,25,0.0,84003,432891914386029,22,31.478540420532227,456.4068322409107,0.7200566640252224,16,366494.1286210932,340282346638528860000000000000000000000,1176450050,,,,0,,6,,27.3785400390625,-8.329399861395357,1.8590778599748887,-8.329399861395357,1.5000000237487257,Q,120378574527000
Raw,1676592874000,833697000000,,,-1360627258303358619,0.0,8.565208088805107,285.0,1.0,15,30,0.0,84003,432891914507948,8,36.450538635253906,-319.2369076788384,0.15,16,-269692.1350704236,340282346638528860000000000000000000000,1176450050,,,,0,,6,,32.35054016113281,-7.959990762174129,1.8590778599748887,-7.959990762174129,1.5000000237487257,Q,120378574527000
Raw,1676592874000,833697000000,,,-1360627258303358619,0.0,8.565208088805107,285.0,1.0,15,34,0.0,84003,432891918328745,12,33.498531341552734,-339.547938654129,0.6299291358174388,16,-303889.17934897635,340282346638528860000000000000000000000,1176450050,,,,0,,6,,29.398530960083008,-9.62233170866966,1.8590778599748887,-9.62233170866966,1.5000000237487257,Q,120378574527000
Raw,1676592874000,833697000000,,,-1360627258303358619,0.0,8.565208088805107,285.0,1.0,15,36,0.0,84003,432891921860813,12,37.815433502197266,176.08656855316508,0.15,16,118165.75555628772,340282346638528860000000000000000000000,1176450050,,,,0,,6,,33.71543502807617,-10.545854456722733,1.8590778599748887,-10.545854456722733,1.5000000237487257,Q,120378574527000
UncalMag,1676592875036,120378667876476,-93.939995,-18.7514,-74.5542,-48.275375,2.3914185,-62.760414
UncalGyro,1676592875039,120378670626903,1.1559098,-1.0228939,2.962391,0.0006391907,-0.0009652349,-0.0033541922
UncalAccel,1676592875039,120378670626903,6.195018,3.033501,10.900503,0.006110925,-0.043260336,-0.038735468
OrientationDeg,1676592875040,120378670626903,122.0,-56.0,-8.0
Status,0,28,0,6,2,1176450050,39.07,53.0,80.0,1,1,1,34.969738
Status,0,28,1,6,2,1575420030,41.53,53.0,80.0,1,1,1,37.329155
Status,0,28,2,3,17,1604249980,39.90,260.0,72.0,1,1,1,35.696873
Status,0,28,3,6,36,1176450050,41.27,72.0,70.0,1,1,1,37.16695
Status,0,28,4,6,36,1575420030,42.80,72.0,70.0,1,1,1,38.601685
Status,0,28,5,1,11,1575420030,41.35,158.0,66.0,1,1,1,37.154648
Status,0,28,6,1,11,1176450050,37.22,158.0,66.0,1,1,1,33.120594
Status,0,28,7,3,14,1598062460,41.60,139.0,61.0,1,1,1,37.395756
Status,0,28,8,3,15,1602000000,38.40,331.0,61.0,1,1,1,34.200935
Status,0,28,9,1,6,1176450050,44.06,59.0,55.0,1,1,1,39.9612
Status,0,28,10,1,6,1575420030,45.73,59.0,55.0,1,1,1,41.52601
Status,0,28,11,1,12,1575420030,37.60,319.0,52.0,1,1,1,33.401268
Status,0,28,12,1,24,1575420030,41.40,231.0,48.0,1,1,1,37.19846
Status,0,28,13,1,24,1176450050,39.71,231.0,48.0,1,1,1,35.610996
Status,0,28,14,6,34,1575420030,39.89,199.0,47.0,1,1,1,35.687466
Status,0,28,15,6,34,1176450050,36.26,199.0,47.0,1,1,1,32.15697
Status,0,28,16,3,24,1603124990,47.87,29.0,44.0,1,1,1,43.66579
Status,0,28,17,6,30,1575420030,37.59,313.0,36.0,1,1,1,33.39432
Status,0,28,18,6,30,1176450050,37.61,313.0,36.0,1,1,1,33.505394
Status,0,28,19,1,19,1575420030,45.97,52.0,35.0,1,1,1,41.769257
Status,0,28,20,6,25,1176450050,36.73,117.0,34.0,1,1,1,32.626785
Status,0,28,21,6,25,1575420030,42.62,117.0,34.0,1,1,1,38.41741
Status,0,28,22,3,18,1600312450,41.57,226.0,24.0,1,1,1,37.370747
Status,0,28,23,1,25,1575420030,39.56,308.0,23.0,1,1,1,35.35543
Status,0,28,24,6,11,1575420030,39.78,41.0,23.0,1,1,1,35.576492
Status,0,28,25,6,11,1176450050,30.38,41.0,23.0,1,1,1,26.28379
Status,0,28,26,1,25,1176450050,37.19,308.0,23.0,1,1,1,33.085346
Status,0,28,27,1,20,1575420030,37.45,150.0,16.0,1,1,1,33.25178
Fix,GPS,37.4308050286,-122.1550419734,-17.370440673398615,0.22513084,3.3942347,133.58043,1676592874000,0.1407549,180.0,120378574527000,3.039676
Fix,FLP,37.4307859000,-122.1550571000,-16.5,0.70836586,4.136,144.98207,1676592874528,,,120378158767284,3.4418888
UncalMag,1676592875046,120378677876232,-95.8798,-18.190199,-75.4936,-48.275375,2.3914185,-62.760414
UncalGyro,1676592875049,120378679626903,0.837649,0.5013676,3.028059,0.0006391907,-0.0009652349,-0.0033541922
UncalAccel,1676592875049,120378679626903,7.470392,4.339384,9.540184,0.006110925,-0.043260336,-0.038735468
OrientationDeg,1676592875048,120378679626903,121.0,-56.0,-7.0
UncalMag,1676592875057,120378687866466,-95.8554,-16.6408,-74.2004,-48.275375,2.3914185,-62.760414
UncalGyro,1676592875058,120378688602672,0.3239113,1.4647021,2.9385672,0.0006391907,-0.0009652349,-0.0033541922
UncalAccel,1676592875058,120378688602672,10.002597,4.7880383,7.085148,0.006110925,-0.043260336,-0.038735468
OrientationDeg,1676592875057,120378688602672,120.0,-55.0,-6.0
UncalGyro,1676592875066,120378697582957,-0.19715676,2.0097466,2.7214046,0.0006391907,-0.0009652349,-0.0033541922
UncalAccel,1676592875066,120378697582957,11.411969,3.6382868,6.63769,0.006110925,-0.043260336,-0.038735468
UncalMag,1676592875067,120378697875988,-96.562996,-15.420799,-76.1646,-48.275375,2.3914185,-62.760414
OrientationDeg,1676592875066,120378697582957,119.0,-54.0,-5.0
UncalGyro,1676592875075,120378706569835,-0.6646214,2.5619688,2.4872906,0.0006391907,-0.0009652349,-0.0033541922
UncalAccel,1676592875075,120378706569835,11.187044,2.7529426,7.37109,0.006110925,-0.043260336,-0.038735468
UncalMag,1676592875077,120378707875988,-96.0628,-14.7254,-75.9816,-48.275375,2.3914185,-62.760414
OrientationDeg,1676592875076,120378706569835,119.0,-53.0,-4.0
UncalGyro,1676592875085,120378715547985,-1.1690434,3.212693,2.2608123,0.0006391907,-0.0009652349,-0.0033541922
UncalAccel,1676592875085,120378715547985,10.453644,2.906083,7.554141,0.006110925,-0.043260336,-0.038735468
OrientationDeg,1676592875084,120378715547985,119.0,-51.0,-3.0
UncalMag,1676592875086,120378717876232,-96.2214,-13.3468,-77.958,-48.275375,2.3914185,-62.760414
OrientationDeg,1676592875093,120378724527294,119.0,-49.0,-1.0
UncalGyro,1676592875094,120378724527294,-1.7053831,3.867846,2.0393736,0.0006391907,-0.0009652349,-0.0033541922
UncalAccel,1676592875094,120378724527294,9.446864,3.0993035,7.984251,0.006110925,-0.043260336,-0.038735468
UncalMag,1676592875096,120378727876232,-95.806595,-11.7364,-79.727,-48.275375,2.3914185,-62.760414
UncalGyro,1676592875103,120378733510448,-2.2078197,4.4423647,1.8092301,0.0006391907,-0.0009652349,-0.0033541922
UncalAccel,1676592875103,120378733510448,9.431909,3.2243285,8.289934,0.006110925,-0.043260336,-0.038735468
OrientationDeg,1676592875102,120378733510448,119.0,-47.0,0.0
UncalMag,1676592875106,120378737876232,-95.4406,-10.492,-83.3748,-48.275375,2.3914185,-62.760414
UncalGyro,1676592875111,120378742475963,-2.5271494,4.8116326,1.5809193,0.0006391907,-0.0009652349,-0.0033541922
UncalAccel,1676592875111,120378742475963,9.54796,2.917449,9.446864,0.006110925,-0.043260336,-0.038735468
OrientationDeg,1676592875112,120378742475963,119.0,-44.0,1.0
UncalMag,1676592875116,120378747875988,-92.4638,-8.9426,-82.96,-48.275375,2.3914185,-62.760414
UncalGyro,1676592875121,120378751469432,-2.5772405,4.8356094,1.4121678,0.0006391907,-0.0009652349,-0.0033541922
UncalAccel,1676592875121,120378751469432,9.167501,2.3539393,10.352547,0.006110925,-0.043260336,-0.038735468
OrientationDeg,1676592875120,120378751469432,120.0,-42.0,2.0
UncalMag,1676592875127,120378757876232,-90.1702,-6.7953997,-85.034,-48.275375,2.3914185,-62.760414
OrientationDeg,1676592875130,120378760448497,120.0,-40.0,3.0
UncalGyro,1676592875130,120378760448497,-2.3493876,4.4248023,1.3277156,0.0006391907,-0.0009652349,-0.0033541922
UncalAccel,1676592875130,120378760448497,8.357532,2.0380867,10.676176,0.006110925,-0.043260336,-0.038735468
UncalMag,1676592875137,120378767876232,-91.9514,-6.832,-86.6566,-48.275375,2.3914185,-62.760414
UncalGyro,1676592875138,120378769429332,-1.8486309,3.6784778,1.2699889,0.0006391907,-0.0009652349,-0.0033541922
UncalAccel,1676592875139,120378769429332,8.3581295,2.3832514,11.126027,0.006110925,-0.043260336,-0.038735468
OrientationDeg,1676592875139,120378769429332,120.0,-38.0,5.0
UncalMag,1676592875146,120378777876232,-92.988396,-7.1735997,-89.3284,-48.275375,2.3914185,-62.760414
UncalGyro,1676592875147,120378778408885,-1.1809553,2.6917777,1.131017,0.0006391907,-0.0009652349,-0.0033541922
UncalAccel,1676592875148,120378778408885,8.645866,2.7696922,10.428519,0.006110925,-0.043260336,-0.038735468
OrientationDeg,1676592875148,120378778408885,120.0,-36.0,5.0
UncalGyro,1676592875157,120378787390270,-0.47586402,1.7718146,0.9140071,0.0006391907,-0.0009652349,-0.0033541922
UncalAccel,1676592875157,120378787390270,7.789236,2.7409782,10.095917,0.006110925,-0.043260336,-0.038735468
UncalMag,1676592875156,120378787864513,-92.8664,-6.4782,-92.1588,-48.275375,2.3914185,-62.760414
OrientationDeg,1676592875156,120378787390270,120.0,-35.0,6.0
UncalGyro,1676592875165,120378796369762,0.12140947,1.1940888,0.6264423,0.0006391907,-0.0009652349,-0.0033541922
UncalAccel,1676592875166,120378796369762,6.835696,3.2165518,9.812965,0.006110925,-0.043260336,-0.038735468
OrientationDeg,1676592875165,120378796369762,119.0,-35.0,6.0
UncalMag,1676592875167,120378797876232,-91.6708,-5.429,-91.8782,-48.275375,2.3914185,-62.760414
UncalGyro,1676592875175,120378805350353,0.49189925,1.0827587,0.29825497,0.0006391907,-0.0009652349,-0.0033541922
UncalAccel,1676592875174,120378805350353,5.945566,3.7208393,10.4261265,0.006110925,-0.043260336,-0.038735468
OrientationDeg,1676592875174,120378805350353,119.0,-34.0,6.0
UncalMag,1676592875177,120378807875988,-92.2686,-6.0512,-91.2438,-48.275375,2.3914185,-62.760414
UncalGyro,1676592875184,120378814329967,0.6372852,1.163851,-0.04596761,0.0006391907,-0.0009652349,-0.0033541922
UncalAccel,1676592875184,120378814329967,5.215755,4.1898327,9.224331,0.006110925,-0.043260336,-0.038735468
OrientationDeg,1676592875183,120378814329967,119.0,-34.0,5.0
UncalMag,1676592875187,120378817876232,-89.4504,-5.0508,-91.9392,-48.275375,2.3914185,-62.760414
Fix,FLP,37.4307879000,-122.1550554000,-16.5,0.49252236,4.097,140.92004,1676592875066,,,120378697582957,3.4418888
UncalGyro,1676592875193,120378823311961,0.63209283,1.0946705,-0.3623958,0.0006391907,-0.0009652349,-0.0033541922
UncalAccel,1676592875192,120378823311961,4.671388,4.0151563,8.196015,0.006110925,-0.043260336,-0.038735468
OrientationDeg,1676592875192,120378823311961,119.0,-33.0,5.0
UncalMag,1676592875196,120378827866222,-89.6822,-5.2338,-90.4508,-48.275375,2.3914185,-62.760414
UncalGyro,1676592875201,120378832291149,0.5187773,1.0503827,-0.59437186,0.0006391907,-0.0009652349,-0.0033541922
UncalAccel,1676592875201,120378832291149,4.450052,3.2303107,8.448459,0.006110925,-0.043260336,-0.038735468
OrientationDeg,1676592875201,120378832291149,119.0,-32.0,4.0
UncalMag,1676592875207,120378837875988,-89.425995,-5.8682,-90.5728,-48.275375,2.3914185,-62.760414
UncalGyro,1676592875210,120378841271190,0.3284928,1.153619,-0.7136433,0.0006391907,-0.0009652349,-0.0033541922
UncalAccel,1676592875210,120378841271190,4.1904306,1.966302,8.831908,0.006110925,-0.043260336,-0.038735468
OrientationDeg,1676592875211,120378841271190,119.0,-32.0,4.0
UncalMag,1676592875217,120378847876232,-87.7424,-5.5266,-91.8416,-48.275375,2.3914185,-62.760414
UncalGyro,1676592875219,120378850251964,0.10369437,1.1826351,-0.66782844,0.0006391907,-0.0009652349,-0.0033541922
UncalAccel,1676592875220,120378850251964,4.0797625,1.1276177,8.679366,0.006110925,-0.043260336,-0.038735468
OrientationDeg,1676592875220,120378850251964,120.0,-31.0,4.0
UncalMag,1676592875227,120378857876232,-89.8042,-7.3687997,-92.8176,-48.275375,2.3914185,-62.760414
UncalGyro,1676592875228,120378859227977,-0.064751714,1.0482447,-0.50228393,0.0006391907,-0.0009652349,-0.0033541922
UncalAccel,1676592875229,120378859227977,3.9026937,0.88414794,9.410972,0.006110925,-0.043260336,-0.038735468
OrientationDeg,1676592875229,120378859227977,120.0,-31.0,4.0
UncalMag,1676592875236,120378867876232,-89.609,-7.2102,-93.1226,-48.275375,2.3914185,-62.760414
UncalGyro,1676592875237,120378868212352,-0.13362677,0.99005985,-0.23945917,0.0006391907,-0.0009652349,-0.0033541922
UncalAccel,1676592875237,120378868212352,3.6340995,0.49351966,11.104491,0.006110925,-0.043260336,-0.038735468
OrientationDeg,1676592875238,120378868212352,120.0,-30.0,4.0
UncalGyro,1676592875246,120378877189586,-0.11988231,1.132086,0.15836681,0.0006391907,-0.0009652349,-0.0033541922
UncalAccel,1676592875247,120378877189586,3.6077783,-0.5796613,12.847663,0.006110925,-0.043260336,-0.038735468
UncalMag,1676592875247,120378877865734,-86.8518,-5.8194,-93.0738,-48.275375,2.3914185,-62.760414
OrientationDeg,1676592875246,120378877189586,120.0,-30.0,4.0
UncalGyro,1676592875255,120378886172985,-0.049785517,1.4727961,0.6302602,0.0006391907,-0.0009652349,-0.0033541922
UncalAccel,1676592875256,120378886172985,3.8087754,-1.6594225,13.986647,0.006110925,-0.043260336,-0.038735468
OrientationDeg,1676592875256,120378886172985,120.0,-29.0,4.0
UncalMag,1676592875257,120378887867443,-90.353195,-6.5758,-95.184395,-48.275375,2.3914185,-62.760414
UncalGyro,1676592875265,120378895157421,-0.047647487,1.7976238,0.86422163,0.0006391907,-0.0009652349,-0.0033541922
UncalAccel,1676592875264,120378895157421,4.249055,-0.4444668,12.574882,0.006110925,-0.043260336,-0.038735468
OrientationDeg,1676592875265,120378895157421,119.0,-28.0,4.0
UncalMag,1676592875267,120378897876232,-86.754196,-5.3314,-94.879395,-48.275375,2.3914185,-62.760414
UncalGyro,1676592875274,120378904133739,-0.1873829,1.8431332,0.7089091,0.0006391907,-0.0009652349,-0.0033541922
UncalAccel,1676592875274,120378904133739,4.5128636,1.8113668,9.899706,0.006110925,-0.043260336,-0.038735468
OrientationDeg,1676592875273,120378904133739,119.0,-27.0,4.0
UncalMag,1676592875277,120378907876232,-86.3516,-4.5994,-95.2698,-48.275375,2.3914185,-62.760414
UncalGyro,1676592875282,120378913113475,-0.24388795,1.7232509,0.5196936,0.0006391907,-0.0009652349,-0.0033541922
UncalAccel,1676592875282,120378913113475,4.2801614,1.7886349,9.741181,0.006110925,-0.043260336,-0.038735468
OrientationDeg,1676592875283,120378913113475,119.0,-26.0,5.0
UncalMag,1676592875287,120378917863537,-85.046196,-4.6116,-94.720795,-48.275375,2.3914185,-62.760414
UncalGyro,1676592875291,120378922094493,-0.09132435,1.5989398,0.39385536,0.0006391907,-0.0009652349,-0.0033541922
UncalAccel,1676592875292,120378922094493,3.5497525,1.841277,10.972886,0.006110925,-0.043260336,-0.038735468
OrientationDeg,1676592875292,120378922094493,119.0,-25.0,5.0
UncalMag,1676592875297,120378927875988,-85.534195,-4.7458,-95.794395,-48.275375,2.3914185,-62.760414
UncalGyro,1676592875300,120378931075572,0.20326541,1.513266,0.29993483,0.0006391907,-0.0009652349,-0.0033541922
UncalAccel,1676592875301,120378931075572,2.9856443,0.9194421,11.746964,0.006110925,-0.043260336,-0.038735468
OrientationDeg,1676592875301,120378931075572,118.0,-24.0,5.0
UncalMag,1676592875307,120378937875988,-84.5216,-4.3919997,-95.940796,-48.275375,2.3914185,-62.760414
UncalGyro,1676592875310,120378940054820,0.50335294,1.425454,0.33108896,0.0006391907,-0.0009652349,-0.0033541922
UncalAccel,1676592875310,120378940054820,2.8002007,-1.1940185,11.330015,0.006110925,-0.043260336,-0.038735468
OrientationDeg,1676592875310,120378940054820,118.0,-23.0,5.0
UncalMag,1676592875316,120378947864269,-81.923,-3.6111999,-96.2214,-48.275375,2.3914185,-62.760414
UncalGyro,1676592875319,120378949036388,0.6626361,1.3446671,0.4699081,0.0006391907,-0.0009652349,-0.0033541922
UncalAccel,1676592875319,120378949036388,2.2695923,-2.7397819,10.314262,0.006110925,-0.043260336,-0.038735468
OrientationDeg,1676592875319,120378949036388,118.0,-23.0,4.0
UncalMag,1676592875327,120378957876232,-84.4972,-4.3554,-97.4536,-48.275375,2.3914185,-62.760414
UncalGyro,1676592875328,120378958012584,0.679893,1.2092078,0.6910413,0.0006391907,-0.0009652349,-0.0033541922
UncalAccel,1676592875328,120378958012584,2.164308,-2.806781,9.221938,0.006110925,-0.043260336,-0.038735468
OrientationDeg,1676592875327,120378958012584,117.0,-22.0,4.0
UncalGyro,1676592875336,120378966996104,0.6609562,1.0102184,0.8721629,0.0006391907,-0.0009652349,-0.0033541922
UncalAccel,1676592875336,120378966996104,2.6470602,-2.4741786,9.531211,0.006110925,-0.043260336,-0.038735468
UncalMag,1676592875337,120378967864513,-83.448,-3.9284,-97.2828,-48.275375,2.3914185,-62.760414
OrientationDeg,1676592875335,120378966996104,117.0,-21.0,4.0
UncalGyro,1676592875344,120378975965771,0.6404922,0.8727737,0.9821186,0.0006391907,-0.0009652349,-0.0033541922
UncalAccel,1676592875345,120378975965771,2.4394827,-2.6739793,9.767502,0.006110925,-0.043260336,-0.038735468
OrientationDeg,1676592875345,120378975965771,116.0,-21.0,4.0
UncalMag,1676592875347,120378977871593,-83.826195,-4.1967998,-98.295395,-48.275375,2.3914185,-62.760414
UncalGyro,1676592875354,120378984956127,0.6365216,0.72112644,1.0816896,0.0006391907,-0.0009652349,-0.0033541922
UncalAccel,1676592875353,120378984956127,2.2911277,-3.0616167,9.230911,0.006110925,-0.043260336,-0.038735468
OrientationDeg,1676592875353,120378984956127,116.0,-21.0,4.0
UncalMag,1676592875357,120378987865246,-81.8376,-3.4404,-97.526794,-48.275375,2.3914185,-62.760414
UncalGyro,1676592875363,120378993938671,0.6453791,0.33933565,1.1727085,0.0006391907,-0.0009652349,-0.0033541922
UncalAccel,1676592875363,120378993938671,2.5704896,-2.9587252,7.850851,0.006110925,-0.043260336,-0.038735468
OrientationDeg,1676592875363,120378993938671,115.0,-20.0,4.0
UncalMag,1676592875366,120378997876232,-83.4236,-3.5135999,-100.1864,-48.275375,2.3914185,-62.760414
UncalGyro,1676592875372,120379002916454,0.68432176,-0.15500705,1.2547172,0.0006391907,-0.0009652349,-0.0033541922
UncalAccel,1676592875372,120379002916454,2.8666015,-3.1375887,7.5457664,0.006110925,-0.043260336,-0.038735468
OrientationDeg,1676592875371,120379002916454,114.0,-20.0,4.0
UncalMag,1676592875376,120379007868908,-82.0206,-3.1964,-98.1734,-48.275375,2.3914185,-62.760414
UncalGyro,1676592875381,120379011897411,0.73532903,-0.62109727,1.3278683,0.0006391907,-0.0009652349,-0.0033541922
UncalAccel,1676592875381,120379011897411,3.7896328,-3.3206396,7.520642,0.006110925,-0.043260336,-0.038735468
OrientationDeg,1676592875381,120379011897411,113.0,-21.0,4.0
UncalMag,1676592875387,120379017875744,-79.544,-1.3298,-89.5358,-48.275375,2.3914185,-62.760414
UncalGyro,1676592875389,120379020873057,0.7814494,-0.97203934,1.4110987,0.0006391907,-0.0009652349,-0.0033541922
UncalAccel,1676592875389,120379020873057,4.5535417,-3.5216367,7.990233,0.006110925,-0.043260336,-0.038735468
OrientationDeg,1676592875390,120379020873057,113.0,-21.0,4.0
UncalMag,1676592875396,120379027876232,-79.8978,-0.8296,-92.659,-48.275375,2.3914185,-62.760414
UncalGyro,1676592875399,120379029858348,0.8390234,-1.2017246,1.5215126,0.0006391907,-0.0009652349,-0.0033541922
UncalAccel,1676592875398,120379029858348,5.465207,-3.507878,8.785249,0.006110925,-0.043260336,-0.038735468
OrientationDeg,1676592875399,120379029858348,112.0,-22.0,3.0
UncalMag,1676592875407,120379037875988,-83.0942,-1.9153999,-92.2442,-48.275375,2.3914185,-62.760414
UncalGyro,1676592875408,120379038844432,0.9324858,-1.3081679,1.6421585,0.0006391907,-0.0009652349,-0.0033541922
UncalAccel,1676592875408,120379038844432,6.3290157,-3.7046876,9.236296,0.006110925,-0.043260336,-0.038735468
OrientationDeg,1676592875407,120379038844432,111.0,-22.0,3.0
UncalGyro,1676592875416,120379047811962,1.0435106,-1.295187,1.7939585,0.0006391907,-0.0009652349,-0.0033541922
UncalAccel,1676592875416,120379047811962,6.6017976,-4.3537407,8.98146,0.006110925,-0.043260336,-0.038735468
UncalMag,1676592875417,120379047864269,-85.9124,-2.44,-95.318596,-48.275375,2.3914185,-62.760414
OrientationDeg,1676592875417,120379047811962,110.0,-23.0,3.0
UncalGyro,1676592875425,120379056798717,1.084744,-1.3691018,2.1122193,0.0006391907,-0.0009652349,-0.0033541922
UncalAccel,1676592875426,120379056798717,6.0364933,-5.0362935,7.4883385,0.006110925,-0.043260336,-0.038735468
OrientationDeg,1676592875425,120379056798717,108.0,-24.0,3.0
UncalMag,1676592875426,120379057864269,-86.473595,-1.7445999,-95.184395,-48.275375,2.3914185,-62.760414
UncalGyro,1676592875435,120379065776439,1.0276281,-1.6155858,2.614656,0.0006391907,-0.0009652349,-0.0033541922
UncalAccel,1676592875434,120379065776439,6.0346985,-4.8305106,6.2697935,0.006110925,-0.043260336,-0.038735468
OrientationDeg,1676592875434,120379065776439,107.0,-24.0,3.0
UncalMag,1676592875437,120379067876232,-85.1682,-0.7564,-89.560196,-48.275375,2.3914185,-62.760414
UncalGyro,1676592875443,120379074760814,0.9140071,-1.8484782,3.029739,0.0006391907,-0.0009652349,-0.0033541922
UncalAccel,1676592875443,120379074760814,6.262017,-4.3292146,5.4819565,0.006110925,-0.043260336,-0.038735468
OrientationDeg,1676592875444,120379074760814,105.0,-25.0,4.0
UncalMag,1676592875447,120379077876476,-88.0352,-0.7198,-94.611,-48.275375,2.3914185,-62.760414
UncalGyro,1676592875452,120379083742931,0.745561,-2.046704,3.3024902,0.0006391907,-0.0009652349,-0.0033541922
UncalAccel,1676592875453,120379083742931,6.751349,-4.0157547,4.2514477,0.006110925,-0.043260336,-0.038735468
OrientationDeg,1676592875453,120379083742931,104.0,-26.0,4.0
UncalMag,1676592875457,120379087860119,-89.1942,0.3416,-94.708595,-48.275375,2.3914185,-62.760414
UncalGyro,1676592875461,120379092708690,0.5345071,-2.3709207,3.4880404,0.0006391907,-0.0009652349,-0.0033541922
UncalAccel,1676592875461,120379092708690,7.112665,-4.3782673,2.9982069,0.006110925,-0.043260336,-0.038735468
OrientationDeg,1676592875461,120379092708690,102.0,-27.0,5.0
UncalMag,1676592875467,120379097864269,-91.927,0.56119996,-94.257195,-48.275375,2.3914185,-62.760414
UncalGyro,1676592875470,120379101700694,0.28328875,-2.846632,3.6593883,0.0006391907,-0.0009652349,-0.0033541922
UncalAccel,1676592875470,120379101700694,7.176075,-5.026722,1.750948,0.006110925,-0.043260336,-0.038735468
OrientationDeg,1676592875470,120379101700694,100.0,-29.0,6.0
UncalMag,1676592875476,120379107875988,-93.3544,2.013,-94.074196,-48.275375,2.3914185,-62.760414
UncalGyro,1676592875480,120379110682384,-0.049480084,-3.3872478,3.6931386,0.0006391907,-0.0009652349,-0.0033541922
UncalAccel,1676592875480,120379110682384,9.354142,-6.5455666,0.4953143,0.006110925,-0.043260336,-0.038735468
OrientationDeg,1676592875479,120379110682384,98.0,-30.0,7.0
UncalMag,1676592875487,120379117876232,-91.268196,4.758,-90.6948,-48.275375,2.3914185,-62.760414
UncalGyro,1676592875489,120379119661266,-0.44211373,-3.7778962,3.0634892,0.0006391907,-0.0009652349,-0.0033541922
UncalAccel,1676592875488,120379119661266,12.781262,-9.025727,0.6406783,0.006110925,-0.043260336,-0.038735468
OrientationDeg,1676592875489,120379119661266,97.0,-32.0,8.0
UncalMag,1676592875497,120379127875988,-95.9286,2.8425999,-87.4374,-48.275375,2.3914185,-62.760414
UncalGyro,1676592875497,120379128641491,-0.79244494,-3.960392,2.3544273,0.0006391907,-0.0009652349,-0.0033541922
UncalAccel,1676592875498,120379128641491,9.60479,-9.189635,-0.25124636,0.006110925,-0.043260336,-0.038735468
OrientationDeg,1676592875497,120379128641491,97.0,-34.0,9.0
UncalGyro,1676592875507,120379137622020,-1.0126618,-3.9171734,1.7739527,0.0006391907,-0.0009652349,-0.0033541922
UncalAccel,1676592875506,120379137622020,8.416156,-8.030911,1.8460627,0.006110925,-0.043260336,-0.038735468
UncalMag,1676592875506,120379137864269,-96.733795,4.88,-88.962395,-48.275375,2.3914185,-62.760414
OrientationDeg,1676592875506,120379137622020,96.0,-36.0,10.0
UncalGyro,1676592875516,120379146603526,-1.1672108,-3.2430835,1.5144876,0.0006391907,-0.0009652349,-0.0033541922
UncalAccel,1676592875515,120379146603526,7.487142,-6.3457656,5.2008,0.006110925,-0.043260336,-0.038735468
UncalMag,1676592875516,120379147875988,-95.3796,6.4172,-86.6932,-48.275375,2.3914185,-62.760414
OrientationDeg,1676592875515,120379146603526,96.0,-38.0,11.0
UncalGyro,1676592875525,120379155579478,-1.4248432,-2.2050707,1.6033685,0.0006391907,-0.0009652349,-0.0033541922
UncalAccel,1676592875524,120379155579478,6.9798636,-4.92742,6.806982,0.006110925,-0.043260336,-0.038735468
OrientationDeg,1676592875524,120379155579478,96.0,-39.0,12.0
UncalMag,1676592875526,120379157876232,-95.1112,7.3687997,-84.4606,-48.275375,2.3914185,-62.760414
UncalGyro,1676592875534,120379164562999,-1.8035797,-1.511128,1.7293595,0.0006391907,-0.0009652349,-0.0033541922
UncalAccel,1676592875534,120379164562999,6.5072813,-4.302295,4.025326,0.006110925,-0.043260336,-0.038735468
OrientationDeg,1676592875533,120379164562999,96.0,-40.0,13.0
UncalMag,1676592875537,120379167876232,-94.0132,8.113,-81.862,-48.275375,2.3914185,-62.760414
