# 
# Header Description:
# 
# Version: v3.0.5.6 Platform: 13 Manufacturer: Google Model: Pixel 6
# 
# Raw,utcTimeMillis,TimeNanos,LeapSecond,TimeUncertaintyNanos,FullBiasNanos,BiasNanos,BiasUncertaintyNanos,DriftNanosPerSecond,DriftUncertaintyNanosPerSecond,HardwareClockDiscontinuityCount,Svid,TimeOffsetNanos,State,ReceivedSvTimeNanos,ReceivedSvTimeUncertaintyNanos,Cn0DbHz,PseudorangeRateMetersPerSecond,PseudorangeRateUncertaintyMetersPerSecond,AccumulatedDeltaRangeState,AccumulatedDeltaRangeMeters,AccumulatedDeltaRangeUncertaintyMeters,CarrierFrequencyHz,CarrierCycles,CarrierPhase,CarrierPhaseUncertainty,MultipathIndicator,SnrInDb,ConstellationType,AgcDb,BasebandCn0DbHz,FullInterSignalBiasNanos,FullInterSignalBiasUncertaintyNanos,SatelliteInterSignalBiasNanos,SatelliteInterSignalBiasUncertaintyNanos,CodeType,ChipsetElapsedRealtimeNanos
# 
# UncalAccel,utcTimeMillis,elapsedRealtimeNanos,UncalAccelXMps2,UncalAccelYMps2,UncalAccelZMps2,BiasXMps2,BiasYMps2,BiasZMps2
# 
# Accel,utcTimeMillis,elapsedRealtimeNanos,AccelXMps2,AccelYMps2,AccelZMps2
# 
# UncalGyro,utcTimeMillis,elapsedRealtimeNanos,UncalGyroXRadPerSec,UncalGyroYRadPerSec,UncalGyroZRadPerSec,DriftXRadPerSec,DriftYRadPerSec,DriftZRadPerSec
# 
# Gyro,utcTimeMillis,elapsedRealtimeNanos,GyroXRadPerSec,GyroYRadPerSec,GyroZRadPerSec
# 
# UncalMag,utcTimeMillis,elapsedRealtimeNanos,UncalMagXMicroT,UncalMagYMicroT,UncalMagZMicroT,BiasXMicroT,BiasYMicroT,BiasZMicroT
# 
# Mag,utcTimeMillis,elapsedRealtimeNanos,MagXMicroT,MagYMicroT,MagZMicroT
# 
# OrientationDeg,utcTimeMillis,elapsedRealtimeNanos,yawDeg,rollDeg,pitchDeg
# 
# Fix,Provider,LatitudeDegrees,LongitudeDegrees,AltitudeMeters,SpeedMps,AccuracyMeters,BearingDegrees,UnixTimeMillis,SpeedAccuracyMps,BearingAccuracyDegrees,elapsedRealtimeNanos,VerticalAccuracyMeters
# 
# Nav,Svid,Type,Status,MessageId,Sub-messageId,Data(Bytes)
# 
# Status,UnixTimeMillis,SignalCount,SignalIndex,ConstellationType,Svid,CarrierFrequencyHz,Cn0DbHz,AzimuthDegrees,ElevationDegrees,UsedInFix,HasAlmanacData,HasEphemerisData,BasebandCn0DbHz
# 
UncalAccel,1676592459594,119963224932201,0.52163535,1.6091732,11.734403,0.006110925,-0.043260336,-0.038735468
UncalMag,1676592459596,119963227864513,-50.080997,-25.3272,-97.4292,-47.646854,1.2478232,-64.42538
UncalAccel,1676592459603,119963233908580,0.5192425,1.6570296,11.253445,0.006110925,-0.043260336,-0.038735468
UncalMag,1676592459607,119963237865490,-50.0566,-25.7542,-97.2218,-47.646854,1.2478232,-64.42538
OrientationDeg,1676592459603,119963233908580,178.0,-2.0,-12.0
UncalGyro,1676592459602,119963233908580,0.23533584,-0.034513887,0.09590584,0.00064039225,-0.0009795674,-0.003356137
UncalGyro,1676592459611,119963242887951,0.2947425,0.09285152,0.1563815,0.00064039225,-0.0009795674,-0.003356137
Fix,FLP,37.4308099000,-122.1550535000,-15.80000114440918,0.23531266,4.045,67.38697,1676592458669,,,119962299977001,4.1946373
UncalAccel,1676592459612,119963242887951,0.4223332,1.7341982,10.700105,0.006110925,-0.043260336,-0.038735468
UncalMag,1676592459616,119963247864513,-50.8862,-26.2666,-99.1616,-47.646854,1.2478232,-64.42538
OrientationDeg,1676592459611,119963242887951,178.0,-2.0,-13.0
UncalGyro,1676592459620,119963251871776,0.27488935,0.2321288,0.22128594,0.00064039225,-0.0009795674,-0.003356137
UncalAccel,1676592459620,119963251871776,0.2835495,1.8496519,10.042677,0.006110925,-0.043260336,-0.038735468
OrientationDeg,1676592459620,119963251871776,177.0,-1.0,-13.0
UncalMag,1676592459627,119963257866710,-47.6166,-24.9856,-97.648796,-47.646854,1.2478232,-64.42538
UncalGyro,1676592459629,119963260853282,0.18493946,0.35078937,0.26633725,0.00064039225,-0.0009795674,-0.003356137
UncalAccel,1676592459629,119963260853282,0.23150559,2.0033908,9.195019,0.006110925,-0.043260336,-0.038735468
OrientationDeg,1676592459630,119963260853282,177.0,-1.0,-13.0
UncalMag,1676592459637,119963267866955,-49.8248,-25.937199,-99.7228,-47.646854,1.2478232,-64.42538
UncalGyro,1676592459638,119963269831737,0.03940081,0.3895793,0.28725937,0.00064039225,-0.0009795674,-0.003356137
UncalAccel,1676592459638,119963269831737,0.25244278,2.2666013,8.295917,0.006110925,-0.043260336,-0.038735468
OrientationDeg,1676592459639,119963269831737,177.0,-1.0,-13.0
UncalMag,1676592459647,119963277865490,-50.934998,-26.9742,-98.2588,-47.646854,1.2478232,-64.42538
UncalGyro,1676592459648,119963278811290,-0.13637567,0.35124752,0.2826779,0.00064039225,-0.0009795674,-0.003356137
UncalAccel,1676592459647,119963278811290,0.2428715,2.5298119,7.7629147,0.006110925,-0.043260336,-0.038735468
OrientationDeg,1676592459647,119963278811290,177.0,-1.0,-13.0
UncalGyro,1676592459656,119963287792797,-0.2782491,0.25778514,0.2582433,0.00064039225,-0.0009795674,-0.003356137
UncalAccel,1676592459656,119963287792797,0.2009971,2.5782664,7.696514,0.006110925,-0.043260336,-0.038735468
UncalMag,1676592459657,119963287861095,-50.703197,-26.2544,-98.7956,-47.646854,1.2478232,-64.42538
OrientationDeg,1676592459657,119963287792797,177.0,-1.0,-13.0
UncalGyro,1676592459666,119963296773326,-0.36483926,0.124311075,0.22800545,0.00064039225,-0.0009795674,-0.003356137
UncalAccel,1676592459666,119963296773326,0.17048861,2.4586253,7.877172,0.006110925,-0.043260336,-0.038735468
UncalMag,1676592459666,119963297864513,-51.252197,-26.535,-99.9546,-47.646854,1.2478232,-64.42538
OrientationDeg,1676592459666,119963296773326,177.0,-1.0,-13.0
UncalGyro,1676592459674,119963305753063,-0.37293324,-0.037110064,0.19150625,0.00064039225,-0.0009795674,-0.003356137
UncalAccel,1676592459674,119963305753063,0.18783657,2.4251258,8.19123,0.006110925,-0.043260336,-0.038735468
OrientationDeg,1676592459675,119963305753063,177.0,-1.0,-12.0
UncalMag,1676592459676,119963307865490,-51.008198,-26.242199,-100.4914,-47.646854,1.2478232,-64.42538
UncalGyro,1676592459684,119963314737377,-0.30741793,-0.21410827,0.1479821,0.00064039225,-0.0009795674,-0.003356137
UncalAccel,1676592459683,119963314737377,0.37268212,2.5776682,8.593225,0.006110925,-0.043260336,-0.038735468
OrientationDeg,1676592459684,119963314737377,177.0,-1.0,-12.0
UncalMag,1676592459686,119963317865734,-51.166798,-26.168999,-100.8696,-47.646854,1.2478232,-64.42538
UncalGyro,1676592459692,119963323714794,-0.19715676,-0.41401392,0.105068825,0.00064039225,-0.0009795674,-0.003356137
UncalAccel,1676592459693,119963323714794,0.70348984,2.4801607,9.042477,0.006110925,-0.043260336,-0.038735468
OrientationDeg,1676592459693,119963323714794,176.0,-1.0,-12.0
UncalMag,1676592459697,119963327865246,-49.0928,-25.2174,-97.965996,-47.646854,1.2478232,-64.42538
UncalGyro,1676592459702,119963332693066,-0.050396383,-0.5342017,0.09636399,0.00064039225,-0.0009795674,-0.003356137
UncalAccel,1676592459701,119963332693066,0.8321041,2.1008983,10.332209,0.006110925,-0.043260336,-0.038735468
OrientationDeg,1676592459701,119963332693066,176.0,-2.0,-12.0
UncalMag,1676592459707,119963337864269,-49.385597,-25.2662,-98.7834,-47.646854,1.2478232,-64.42538
UncalGyro,1676592459710,119963341672923,0.11010846,-0.39843684,0.14737125,0.00064039225,-0.0009795674,-0.003356137
UncalAccel,1676592459710,119963341672923,0.6897311,1.3686945,11.991033,0.006110925,-0.043260336,-0.038735468
OrientationDeg,1676592459710,119963341672923,176.0,-2.0,-12.0
UncalMag,1676592459717,119963347866222,-54.0216,-27.4256,-106.2864,-47.646854,1.2478232,-64.42538
UncalGyro,1676592459720,119963350651866,0.23777929,0.08277224,0.27947086,0.00064039225,-0.0009795674,-0.003356137
UncalAccel,1676592459719,119963350651866,0.20398813,0.45164528,13.375878,0.006110925,-0.043260336,-0.038735468
OrientationDeg,1676592459719,119963350651866,176.0,-2.0,-12.0
UncalMag,1676592459727,119963357866466,-50.3372,-25.5956,-99.2714,-47.646854,1.2478232,-64.42538
UncalGyro,1676592459728,119963359640148,0.2591596,0.7825184,0.5119051,0.00064039225,-0.0009795674,-0.003356137
UncalAccel,1676592459728,119963359640148,-0.45164528,-0.56111693,13.396217,0.006110925,-0.043260336,-0.038735468
OrientationDeg,1676592459729,119963359640148,176.0,-1.0,-12.0
UncalMag,1676592459737,119963367870128,-50.325,-25.5224,-99.613,-47.646854,1.2478232,-64.42538
UncalGyro,1676592459738,119963368607311,0.15989397,1.3593279,0.8223773,0.00064039225,-0.0009795674,-0.003356137
UncalAccel,1676592459738,119963368607311,-0.78843504,-0.8566305,11.629716,0.006110925,-0.043260336,-0.038735468
OrientationDeg,1676592459737,119963368607311,175.0,-1.0,-12.0
UncalGyro,1676592459747,119963377606273,0.028863383,1.5949692,1.1210904,0.00064039225,-0.0009795674,-0.003356137
UncalAccel,1676592459747,119963377606273,-0.9487542,0.035294134,9.70828,0.006110925,-0.043260336,-0.038735468
UncalMag,1676592459747,119963377865978,-50.9228,-25.8396,-99.698395,-47.646854,1.2478232,-64.42538
OrientationDeg,1676592459746,119963377606273,175.0,0.0,-12.0
UncalGyro,1676592459755,119963386587535,-0.06918049,1.4799738,1.372767,0.00064039225,-0.0009795674,-0.003356137
UncalAccel,1676592459756,119963386587535,-0.5886344,1.0534402,7.8759756,0.006110925,-0.043260336,-0.038735468
UncalMag,1676592459757,119963387864513,-51.057,-26.0226,-99.5764,-47.646854,1.2478232,-64.42538
OrientationDeg,1676592459756,119963386587535,174.0,0.0,-12.0
UncalGyro,1676592459764,119963395566478,-0.08475755,1.1122329,1.5499178,0.00064039225,-0.0009795674,-0.003356137
UncalAccel,1676592459764,119963395566478,-0.086141616,2.0093727,7.0348988,0.006110925,-0.043260336,-0.038735468
UncalMag,1676592459766,119963397873790,-48.9586,-24.9002,-99.308,-47.646854,1.2478232,-64.42538
OrientationDeg,1676592459764,119963395566478,173.0,0.0,-12.0
UncalGyro,1676592459774,119963404545787,0.015882496,0.68035114,1.5757269,0.00064039225,-0.0009795674,-0.003356137
UncalAccel,1676592459774,119963404545787,0.46241298,2.8594232,7.2987075,0.006110925,-0.043260336,-0.038735468
OrientationDeg,1676592459773,119963404545787,172.0,0.0,-12.0
UncalMag,1676592459776,119963407875988,-50.3006,-25.4492,-99.735,-47.646854,1.2478232,-64.42538
UncalGyro,1676592459783,119963413516857,0.2359467,0.27320948,1.4272866,0.00064039225,-0.0009795674,-0.003356137
UncalAccel,1676592459782,119963413516857,0.9092726,3.566502,7.5810604,0.006110925,-0.043260336,-0.038735468
OrientationDeg,1676592459782,119963413516857,172.0,0.0,-12.0
UncalMag,1676592459787,119963417875988,-50.4104,-25.681,-100.3572,-47.646854,1.2478232,-64.42538
UncalGyro,1676592459792,119963422494579,0.5725334,-0.21502456,1.1388055,0.00064039225,-0.0009795674,-0.003356137
UncalAccel,1676592459791,119963422494579,1.1862419,4.322634,7.6863446,0.006110925,-0.043260336,-0.038735468
OrientationDeg,1676592459791,119963422494579,171.0,0.0,-13.0
UncalMag,1676592459797,119963427875988,-53.1676,-26.5716,-100.7476,-47.646854,1.2478232,-64.42538
UncalGyro,1676592459801,119963431485424,1.0157162,-0.78694713,0.7696902,0.00064039225,-0.0009795674,-0.003356137
UncalAccel,1676592459801,119963431485424,1.4075779,4.834698,8.114061,0.006110925,-0.043260336,-0.038735468
OrientationDeg,1676592459800,119963431485424,171.0,0.0,-13.0
UncalMag,1676592459806,119963437875988,-51.057,-25.7298,-98.136795,-47.646854,1.2478232,-64.42538
UncalGyro,1676592459810,119963440466442,1.5027285,-1.3327552,0.39752057,0.00064039225,-0.0009795674,-0.003356137
UncalAccel,1676592459810,119963440466442,1.599602,4.752146,8.614759,0.006110925,-0.043260336,-0.038735468
OrientationDeg,1676592459809,119963440466442,170.0,-1.0,-14.0
UncalMag,1676592459817,119963447875988,-52.9846,-26.7668,-98.82,-47.646854,1.2478232,-64.42538
UncalGyro,1676592459819,119963449449595,1.9689714,-1.7595973,0.059406646,0.00064039225,-0.0009795674,-0.003356137
UncalAccel,1676592459818,119963449449595,1.7162521,4.2723846,9.394221,0.006110925,-0.043260336,-0.038735468
OrientationDeg,1676592459818,119963449449595,170.0,-2.0,-15.0
UncalMag,1676592459826,119963457875744,-51.8256,-27.1084,-97.2584,-47.646854,1.2478232,-64.42538
UncalGyro,1676592459828,119963458427135,2.35626,-2.069917,-0.23197608,0.00064039225,-0.0009795674,-0.003356137
UncalAccel,1676592459828,119963458427135,1.8873389,3.8398821,9.807582,0.006110925,-0.043260336,-0.038735468
OrientationDeg,1676592459828,119963458427135,171.0,-3.0,-16.0
UncalGyro,1676592459836,119963467408336,2.5227208,-2.4463625,-0.44898596,0.00064039225,-0.0009795674,-0.003356137
UncalAccel,1676592459836,119963467408336,2.1996021,3.1561332,8.228319,0.006110925,-0.043260336,-0.038735468
UncalMag,1676592459836,119963467864269,-57.4376,-29.706999,-101.0038,-47.646854,1.2478232,-64.42538
OrientationDeg,1676592459837,119963467408336,171.0,-4.0,-18.0
UncalGyro,1676592459846,119963476387584,2.333658,-3.2458324,-0.6239988,0.00064039225,-0.0009795674,-0.003356137
UncalAccel,1676592459846,119963476387584,3.4887354,2.289333,5.58425,0.006110925,-0.043260336,-0.038735468
UncalMag,1676592459847,119963477876232,-56.8154,-29.9144,-97.990395,-47.646854,1.2478232,-64.42538
OrientationDeg,1676592459846,119963476387584,171.0,-5.0,-19.0
UncalGyro,1676592459855,119963485367504,2.0489948,-4.18458,-0.8038987,0.00064039225,-0.0009795674,-0.003356137
UncalAccel,1676592459855,119963485367504,4.8442693,2.7032914,5.892924,0.006110925,-0.043260336,-0.038735468
OrientationDeg,1676592459855,119963485367504,171.0,-8.0,-20.0
UncalMag,1676592459857,119963487864513,-57.693798,-30.792799,-96.282394,-47.646854,1.2478232,-64.42538
UncalGyro,1676592459863,119963494347728,1.9333885,-4.692667,-1.0366384,0.00064039225,-0.0009795674,-0.003356137
UncalAccel,1676592459863,119963494347728,5.139783,3.2871401,7.7036924,0.006110925,-0.043260336,-0.038735468
OrientationDeg,1676592459864,119963494347728,172.0,-10.0,-21.0
UncalMag,1676592459867,119963497868664,-57.8768,-31.5614,-96.1604,-47.646854,1.2478232,-64.42538
UncalGyro,1676592459873,119963503329784,1.9205604,-4.789947,-1.3578007,0.00064039225,-0.0009795674,-0.003356137
UncalAccel,1676592459873,119963503329784,5.061418,3.4127634,8.313862,0.006110925,-0.043260336,-0.038735468
OrientationDeg,1676592459873,119963503329784,172.0,-12.0,-22.0
UncalMag,1676592459877,119963507866955,-58.023197,-32.1958,-94.1108,-47.646854,1.2478232,-64.42538
UncalGyro,1676592459882,119963512310741,1.8550451,-4.575381,-1.6895006,0.00064039225,-0.0009795674,-0.003356137
UncalAccel,1676592459882,119963512310741,4.598407,3.1232316,8.939586,0.006110925,-0.043260336,-0.038735468
OrientationDeg,1676592459882,119963512310741,173.0,-14.0,-23.0
UncalMag,1676592459887,119963517875744,-58.2672,-32.1714,-94.611,-47.646854,1.2478232,-64.42538
UncalGyro,1676592459890,119963521288219,1.474476,-3.7563632,-1.9847012,0.00064039225,-0.0009795674,-0.003356137
UncalAccel,1676592459890,119963521288219,3.818945,2.6004,9.710074,0.006110925,-0.043260336,-0.038735468
OrientationDeg,1676592459891,119963521288219,174.0,-16.0,-24.0
UncalMag,1676592459897,119963527875988,-58.242798,-32.415398,-93.7936,-47.646854,1.2478232,-64.42538
UncalGyro,1676592459899,119963530268810,1.2099713,-2.9520063,-2.179109,0.00064039225,-0.0009795674,-0.003356137
UncalAccel,1676592459899,119963530268810,3.1489546,1.8562322,9.045467,0.006110925,-0.043260336,-0.038735468
OrientationDeg,1676592459900,119963530268810,175.0,-17.0,-25.0
UncalMag,1676592459907,119963537867199,-59.6214,-33.659798,-94.9404,-47.646854,1.2478232,-64.42538
UncalGyro,1676592459908,119963539247203,0.93431836,-2.031585,-2.203849,0.00064039225,-0.0009795674,-0.003356137
UncalAccel,1676592459908,119963539247203,2.3802602,1.6498512,9.002397,0.006110925,-0.043260336,-0.038735468
OrientationDeg,1676592459908,119963539247203,176.0,-18.0,-26.0
UncalMag,1676592459916,119963547875988,-59.353,-33.855,-94.611,-47.646854,1.2478232,-64.42538
UncalGyro,1676592459918,119963548229442,0.6815729,-1.1403327,-2.1354322,0.00064039225,-0.0009795674,-0.003356137
UncalAccel,1676592459918,119963548229442,1.628914,1.6737795,8.670393,0.006110925,-0.043260336,-0.038735468
OrientationDeg,1676592459917,119963548229442,177.0,-18.0,-27.0
UncalGyro,1676592459926,119963557202282,0.4298964,-0.2773328,-1.9918789,0.00064039225,-0.0009795674,-0.003356137
UncalAccel,1676592459926,119963557202282,1.0767702,1.7341982,8.606385,0.006110925,-0.043260336,-0.038735468
UncalMag,1676592459926,119963557864757,-59.536,-35.3434,-96.1726,-47.646854,1.2478232,-64.42538
OrientationDeg,1676592459926,119963557202282,178.0,-17.0,-27.0
UncalGyro,1676592459936,119963566191112,0.16890424,0.54458636,-1.781894,0.00064039225,-0.0009795674,-0.003356137
UncalAccel,1676592459935,119963566191112,0.7196414,1.8227327,8.576474,0.006110925,-0.043260336,-0.038735468
UncalMag,1676592459936,119963567875744,-60.353397,-35.624,-95.8798,-47.646854,1.2478232,-64.42538
OrientationDeg,1676592459936,119963566191112,179.0,-16.0,-27.0
UncalGyro,1676592459945,119963575171214,-0.12385293,1.2556335,-1.4801265,0.00064039225,-0.0009795674,-0.003356137
UncalAccel,1676592459945,119963575171214,0.02751746,1.9657038,8.026125,0.006110925,-0.043260336,-0.038735468
OrientationDeg,1676592459945,119963575171214,180.0,-15.0,-28.0
UncalMag,1676592459947,119963577876232,-56.5958,-34.7334,-96.7582,-47.646854,1.2478232,-64.42538
UncalGyro,1676592459953,119963584149974,-0.36132678,1.4694363,-0.84604836,0.00064039225,-0.0009795674,-0.003356137
UncalAccel,1676592459953,119963584149974,-4.779065,2.603391,7.359724,0.006110925,-0.043260336,-0.038735468
OrientationDeg,1676592459954,119963584149974,180.0,-14.0,-28.0
UncalMag,1676592459957,119963587876232,-58.0598,-35.758198,-97.978195,-47.646854,1.2478232,-64.42538
UncalGyro,1676592459962,119963593130260,-0.4615087,1.2493721,0.3368922,0.00064039225,-0.0009795674,-0.003356137
UncalAccel,1676592459963,119963593130260,-7.81795,3.8057845,7.7144604,0.006110925,-0.043260336,-0.038735468
OrientationDeg,1676592459963,119963593130260,180.0,-14.0,-27.0
UncalMag,1676592459966,119963597864269,-56.8764,-35.0018,-99.1494,-47.646854,1.2478232,-64.42538
UncalGyro,1676592459971,119963602092174,-0.5830709,1.1330023,1.3620768,0.00064039225,-0.0009795674,-0.003356137
UncalAccel,1676592459971,119963602092174,-3.010171,3.757928,7.1784678,0.006110925,-0.043260336,-0.038735468
OrientationDeg,1676592459972,119963602092174,179.0,-13.0,-27.0
UncalMag,1676592459976,119963607875988,-57.035,-35.1482,-97.965996,-47.646854,1.2478232,-64.42538
UncalGyro,1676592459980,119963611091991,-0.74082685,1.0923798,1.8380935,0.00064039225,-0.0009795674,-0.003356137
UncalAccel,1676592459981,119963611091991,1.5720844,2.1140587,6.385247,0.006110925,-0.043260336,-0.038735468
OrientationDeg,1676592459981,119963611091991,178.0,-13.0,-26.0
UncalMag,1676592459987,119963617875744,-57.010597,-34.648,-97.7464,-47.646854,1.2478232,-64.42538
UncalGyro,1676592459989,119963620068248,-0.8688031,0.9816604,2.012343,0.00064039225,-0.0009795674,-0.003356137
UncalAccel,1676592459990,119963620068248,3.3870404,0.8853444,6.649056,0.006110925,-0.043260336,-0.038735468
OrientationDeg,1676592459989,119963620068248,177.0,-13.0,-25.0
UncalMag,1676592459997,119963627876232,-53.265198,-32.8546,-96.880196,-47.646854,1.2478232,-64.42538
UncalGyro,1676592459999,119963629051402,-0.9786061,0.86559606,2.0523546,0.00064039225,-0.0009795674,-0.003356137
UncalAccel,1676592459998,119963629051402,3.635894,0.88414794,7.417152,0.006110925,-0.043260336,-0.038735468
OrientationDeg,1676592459998,119963629051402,176.0,-13.0,-25.0
UncalMag,1676592460007,119963637875988,-52.9724,-31.9396,-95.6114,-47.646854,1.2478232,-64.42538
UncalGyro,1676592460007,119963638031627,-1.0792462,0.72189003,2.0963368,0.00064039225,-0.0009795674,-0.003356137
UncalAccel,1676592460008,119963638031627,2.8929226,0.44745782,7.5403824,0.006110925,-0.043260336,-0.038735468
OrientationDeg,1676592460007,119963638031627,175.0,-13.0,-24.0
UncalGyro,1676592460017,119963647001354,-1.1673635,0.5852089,2.2267566,0.00064039225,-0.0009795674,-0.003356137
UncalAccel,1676592460016,119963647001354,2.4143581,0.5706882,8.087142,0.006110925,-0.043260336,-0.038735468
UncalMag,1676592460016,119963647864513,-58.328197,-32.818,-100.101,-47.646854,1.2478232,-64.42538
OrientationDeg,1676592460016,119963647001354,174.0,-13.0,-23.0
Raw,1676592459000,418697000000,,,-1360627258303476670,0.0,8.956439120508984,287.0,1.0,15,6,0.0,16431,432476931006011,15,41.02255630493164,331.5673269645738,0.15,16,128600.93062618824,340282346638528860000000000000000000000,1575420030,,,,0,,1,,36.82255554199219,0.320142130558394,1.0,0.320142130558394,1.0,C,119963567885000
Raw,1676592459000,418697000000,,,-1360627258303476670,0.0,8.956439120508984,287.0,1.0,15,11,0.0,16431,432476931108651,18,39.18962860107422,-230.44476366753668,0.15,16,-105823.37201792852,340282346638528860000000000000000000000,1575420030,,,,0,,1,,34.989627838134766,-0.20372681261465636,1.0,-0.20372681261465636,1.0,C,119963567885000
Raw,1676592459000,418697000000,,,-1360627258303476670,0.0,8.956439120508984,287.0,1.0,15,12,0.0,16431,432476929498763,28,33.71794509887695,-315.31074501723674,0.6229709227356559,16,-136258.7437456407,340282346638528860000000000000000000000,1575420030,,,,1,,1,,29.517946243286133,-0.6984919076624261,1.0,-0.6984919076624261,1.0,C,119963567885000
Raw,1676592459000,418697000000,,,-1360627258303476670,0.0,8.956439120508984,287.0,1.0,15,17,0.0,16431,432476918228265,14,42.39950942993164,592.818456227807,0.15,16,249082.66633856393,340282346638528860000000000000000000000,1575420030,,,,0,,1,,38.19950866699219,-0.7858034271858065,1.0,-0.7858034271858065,1.0,C,119963567885000
Raw,1676592459000,418697000000,,,-1360627258303476670,0.0,8.956439120508984,287.0,1.0,15,19,0.0,16431,432476927528567,15,41.49769973754883,544.7189418933169,0.15,16,225277.73578705575,340282346638528860000000000000000000000,1575420030,,,,0,,1,,37.297698974609375,0.0,1.0,0.0,1.0,C,119963567885000
Raw,1676592459000,418697000000,,,-1360627258303476670,0.0,8.956439120508984,287.0,1.0,15,20,0.0,16431,432476919483025,16,40.86894226074219,-490.0896037960781,0.15,16,-204213.27353947572,340282346638528860000000000000000000000,1575420030,,,,0,,1,,36.668941497802734,0.0,1.0,0.0,1.0,C,119963567885000
Raw,1676592459000,418697000000,,,-1360627258303476670,0.0,8.956439120508984,287.0,1.0,15,24,0.0,16431,432476928878608,11,45.1216926574707,415.3824268910778,0.15,16,164475.14687968584,340282346638528860000000000000000000000,1575420030,,,,0,,1,,40.92169189453125,-0.20372681261465636,1.0,-0.20372681261465636,1.0,C,119963567885000
Raw,1676592459000,418697000000,,,-1360627258303476670,0.0,8.956439120508984,287.0,1.0,15,25,0.0,16431,432476923023457,18,39.35770034790039,-508.24331752084436,0.15,16,-213646.12602642784,340282346638528860000000000000000000000,1575420030,,,,0,,1,,35.15769958496094,-2.0372682255564105,1.0,-2.0372682255564105,1.0,C,119963567885000
Raw,1676592459000,418697000000,,,-1360627258303476670,0.0,8.956439120508984,287.0,1.0,15,6,0.0,81921,432476931006560,14,34.59526062011719,331.3291928408489,0.5792934558940996,16,129493.03091464414,340282346638528860000000000000000000000,1176450050,,,,0,,1,,30.49526023864746,1.9208527336454408,1.5030958887527095,1.9208527336454408,1.0,Q,119963567885000
Raw,1676592459000,418697000000,,,-1360627258303476670,0.0,8.956439120508984,287.0,1.0,15,11,0.0,81921,432476931109205,9,41.88359069824219,-230.63945970042323,0.15,16,-106696.60003211159,340282346638528860000000000000000000000,1176450050,,,,0,,1,,37.783592224121094,0.0,1.5030958887527095,0.0,1.0,Q,119963567885000
Raw,1676592459000,418697000000,,,-1360627258303476670,0.0,8.956439120508984,287.0,1.0,15,24,0.0,81921,432476928879161,11,40.596961975097656,414.4478177683093,0.15,16,165629.77069355777,340282346638528860000000000000000000000,1176450050,,,,0,,1,,36.49696350097656,3.5215636101095664,1.5030958887527095,3.5215636101095664,1.0,Q,119963567885000
Raw,1676592459000,418697000000,,,-1360627258303476670,0.0,8.956439120508984,287.0,1.0,15,25,0.0,81921,432476923023993,37,27.568904876708984,-507.89472215552905,0.8938248038281111,16,-215217.88894928648,340282346638528860000000000000000000000,1176450050,,,,0,,1,,23.468904495239258,1.0186341127782053,1.5030958887527095,1.0186341127782053,1.0,Q,119963567885000
Raw,1676592459000,418697000000,,,-1360627258303476670,0.0,8.956439120508984,287.0,1.0,15,14,0.0,32995,11258935076404,33,40.77370834350586,390.77676781671744,0.15,16,151935.84681752409,340282346638528860000000000000000000000,1598062460,,,,0,,3,,36.573707580566406,50.29141902923584,2.0000000474974513,50.29141902923584,2.0000000474974513,C,119963567885000
Raw,1676592459000,418697000000,,,-1360627258303476670,0.0,8.956439120508984,287.0,1.0,15,18,0.0,32995,11258925587817,53,34.548519134521484,-585.2582175570042,0.5849176603260444,16,-250387.49229917847,340282346638528860000000000000000000000,1600312450,,,,0,,3,,30.34851837158203,50.29141902923584,2.0000000474974513,50.29141902923584,2.0000000474974513,C,119963567885000
Raw,1676592459000,418697000000,,,-1360627258303476670,0.0,8.956439120508984,287.0,1.0,15,15,0.0,32995,11258934012925,46,36.2868537902832,-352.03057019069524,0.15,16,-156088.1726354513,340282346638528860000000000000000000000,1602000000,,,,0,,3,,32.08685302734375,50.29141902923584,2.0000000474974513,50.29141902923584,2.0000000474974513,C,119963567885000
Raw,1676592459000,418697000000,,,-1360627258303476670,0.0,8.956439120508984,287.0,1.0,15,24,0.0,32995,11258932391475,33,43.700584411621094,615.8072094822687,0.15,16,251405.82568382085,340282346638528860000000000000000000000,1603124990,,,,0,,3,,39.50058364868164,50.29141902923584,2.0000000474974513,50.29141902923584,2.0000000474974513,C,119963567885000
Raw,1676592459000,418697000000,,,-1360627258303476670,0.0,8.956439120508984,287.0,1.0,15,17,0.0,32995,11258936201115,43,37.26007080078125,-86.33763626051262,0.15,16,-47352.94783983811,340282346638528860000000000000000000000,1604249980,,,,0,,3,,33.0600700378418,50.29141902923584,2.0000000474974513,50.29141902923584,2.0000000474974513,C,119963567885000
Raw,1676592459000,418697000000,,,-1360627258303476670,0.0,8.956439120508984,287.0,1.0,15,2,0.0,84002,432476922694713,1000000000,30.601242065429688,56.30780535423179,299792458,16,19350.663194827135,340282346638528860000000000000000000000,1575420030,,,,1,,6,,26.401243209838867,-6.024492904543876,1.5000000237487257,-6.024492904543876,1.5000000237487257,C,119963567885000
Raw,1676592459000,418697000000,,,-1360627258303476670,0.0,8.956439120508984,287.0,1.0,15,11,0.0,85026,432476913531047,18,38.94600296020508,561.012162481416,0.15,16,231335.1208039733,340282346638528860000000000000000000000,1575420030,,,,0,,6,,34.746002197265625,-6.024492904543876,1.5000000237487257,-6.024492904543876,1.5000000237487257,C,119963567885000
Raw,1676592459000,418697000000,,,-1360627258303476670,0.0,8.956439120508984,287.0,1.0,15,25,0.0,85026,432476915005592,19,38.48482131958008,440.14694429529095,0.15,16,180670.88778505672,340282346638528860000000000000000000000,1575420030,,,,0,,6,,34.284820556640625,-6.024492904543876,1.5000000237487257,-6.024492904543876,1.5000000237487257,C,119963567885000
Raw,1676592459000,418697000000,,,-1360627258303476670,0.0,8.956439120508984,287.0,1.0,15,30,0.0,85026,432476914060997,39,29.87717056274414,-324.2951191338452,0.7943482980346057,16,-136449.16736848766,340282346638528860000000000000000000000,1575420030,,,,0,,6,,25.67717170715332,-6.024492904543876,1.5000000237487257,-6.024492904543876,1.5000000237487257,C,119963567885000
Raw,1676592459000,418697000000,,,-1360627258303476670,0.0,8.956439120508984,287.0,1.0,15,34,0.0,85026,432476917840486,43,28.469863891601562,-363.8309391125879,0.8583131474194712,16,-156861.60160841618,340282346638528860000000000000000000000,1575420030,,,,0,,6,,24.269865036010742,-6.024492904543876,1.5000000237487257,-6.024492904543876,1.5000000237487257,C,119963567885000
Raw,1676592459000,418697000000,,,-1360627258303476670,0.0,8.956439120508984,287.0,1.0,15,36,0.0,85026,432476922079744,19,38.81148147583008,141.76690665357006,0.15,16,51997.4858463252,340282346638528860000000000000000000000,1575420030,,,,0,,6,,34.611480712890625,-6.024492904543876,1.5000000237487257,-6.024492904543876,1.5000000237487257,C,119963567885000
Raw,1676592459000,418697000000,,,-1360627258303476670,0.0,8.956439120508984,287.0,1.0,15,2,0.0,84003,432476922695266,8,38.17076873779297,55.62670580338701,0.15,16,19320.630934755587,340282346638528860000000000000000000000,1176450050,,,,0,,6,,34.070770263671875,-4.362151958048344,2.0030959125014354,-4.362151958048344,1.5000000237487257,Q,119963567885000
Raw,1676592459000,418697000000,,,-1360627258303476670,0.0,8.956439120508984,287.0,1.0,15,11,0.0,84003,432476913531600,9,35.72080993652344,561.170577739334,0.5291328002085471,16,232460.00342039438,340282346638528860000000000000000000000,1176450050,,,,0,,6,,31.620811462402344,4.134257324039933,2.0030959125014354,4.134257324039933,1.5000000237487257,Q,119963567885000
Raw,1676592459000,418697000000,,,-1360627258303476670,0.0,8.956439120508984,287.0,1.0,15,25,0.0,84003,432476915006120,26,30.398517608642578,440.3027352040567,0.7687355982269053,16,180306.65699040573,340282346638528860000000000000000000000,1176450050,,,,0,,6,,26.29851722717285,-8.795061148703097,2.0030959125014354,-8.795061148703097,1.5000000237487257,Q,119963567885000
Raw,1676592459000,418697000000,,,-1360627258303476670,0.0,8.956439120508984,287.0,1.0,15,30,0.0,84003,432476914061625,42,26.278654098510742,-324.58816009502834,0.9538314285454779,16,-136144.50969752425,340282346638528860000000000000000000000,1176450050,,,,0,,6,,22.178653717041016,-8.425652049481869,2.0030959125014354,-8.425652049481869,1.5000000237487257,Q,119963567885000
Raw,1676592459000,418697000000,,,-1360627258303476670,0.0,8.956439120508984,287.0,1.0,15,34,0.0,84003,432476917840997,47,25.9637393951416,-363.8550354093495,0.9686724744768207,16,-157892.4542669453,340282346638528860000000000000000000000,1176450050,,,,0,,6,,21.863739013671875,-10.0879929959774,2.0030959125014354,-10.0879929959774,1.5000000237487257,Q,119963567885000
Raw,1676592459000,418697000000,,,-1360627258303476670,0.0,8.956439120508984,287.0,1.0,15,36,0.0,84003,432476922080275,21,29.72640609741211,142.4092672322696,0.8002321149283453,16,52180.05023871123,340282346638528860000000000000000000000,1176450050,,,,0,,6,,25.626405715942383,-11.011515744030472,2.0030959125014354,-11.011515744030472,1.5000000237487257,Q,119963567885000
UncalGyro,1676592460025,119963655995067,-1.2279918,0.61911196,2.4020748,0.00064039225,-0.0009795674,-0.003356137
UncalAccel,1676592460025,119963655995067,2.2576282,0.7112665,9.1974125,0.006110925,-0.043260336,-0.038735468
UncalMag,1676592460027,119963657876232,-62.524998,-33.5622,-101.540596,-47.646854,1.2478232,-64.42538
OrientationDeg,1676592460024,119963655995067,173.0,-13.0,-22.0
Status,0,29,0,6,2,1575420030,38.67,38.0,79.0,0,1,1,34.468616
Status,0,29,1,6,2,1176450050,38.72,38.0,79.0,1,1,1,34.619827
Status,0,29,2,6,36,1176450050,37.58,80.0,71.0,1,1,1,33.477516
Status,0,29,3,6,36,1575420030,40.57,80.0,71.0,1,1,1,36.367893
Status,0,29,4,3,17,1604249980,37.26,248.0,70.0,1,1,1,33.06007
Status,0,29,5,3,14,1598062460,42.91,134.0,64.0,1,1,1,38.71104
Status,0,29,6,1,11,1575420030,41.92,161.0,62.0,1,1,1,37.718502
Status,0,29,7,1,11,1176450050,41.88,161.0,62.0,1,1,1,37.783592
Status,0,29,8,1,6,1176450050,42.42,64.0,57.0,1,1,1,38.323475
Status,0,29,9,1,6,1575420030,45.12,64.0,57.0,1,1,1,40.91813
Status,0,29,10,3,15,1602000000,39.51,331.0,57.0,1,1,1,35.310944
Status,0,29,11,1,24,1176450050,41.98,235.0,50.0,1,1,1,37.878883
Status,0,29,12,1,24,1575420030,45.12,235.0,50.0,1,1,1,40.92169
Status,0,29,13,1,12,1575420030,39.48,317.0,49.0,1,1,1,35.275154
Status,0,29,14,3,24,1603124990,45.43,28.0,48.0,1,1,1,41.22657
Status,0,29,15,6,34,1176450050,33.83,198.0,45.0,1,1,1,29.727646
Status,0,29,16,6,34,1575420030,35.08,198.0,45.0,1,1,1,30.876593
Status,0,29,17,1,19,1575420030,45.49,50.0,38.0,1,1,1,41.29114
Status,0,29,18,6,25,1176450050,37.34,115.0,36.0,1,1,1,33.2421
Status,0,29,19,6,25,1575420030,41.84,115.0,36.0,1,1,1,37.641804
Status,0,29,20,6,30,1575420030,37.61,312.0,34.0,1,1,1,33.413475
Status,0,29,21,6,30,1176450050,34.37,312.0,34.0,1,1,1,30.268372
Status,0,29,22,6,11,1575420030,40.14,41.0,25.0,1,1,1,35.93722
Status,0,29,23,6,11,1176450050,39.28,41.0,25.0,1,1,1,35.175816
Status,0,29,24,3,18,1600312450,38.37,224.0,21.0,1,1,1,34.16747
Status,0,29,25,1,25,1575420030,39.93,307.0,21.0,1,1,1,35.73451
Status,0,29,26,1,25,1176450050,34.68,307.0,21.0,1,1,1,30.579433
Status,0,29,27,1,20,1575420030,41.38,152.0,14.0,1,1,1,37.175713
Status,0,29,28,1,17,1575420030,43.42,61.0,11.0,1,1,1,39.223343
Fix,GPS,37.4307960944,-122.1550410977,-18.470334517953606,0.26379272,3.569209,156.86139,1676592459000,0.14513846,38.68716,119963567885000,3.0835497
Fix,FLP,37.4308077000,-122.1550479000,-15.80000114440918,0.24892263,4.227,79.80256,1676592459746,,,119963377606273,4.135734
UncalGyro,1676592460033,119963664972057,-1.238682,0.71868294,2.6288586,0.00064039225,-0.0009795674,-0.003356137
UncalAccel,1676592460033,119963664972057,2.37368,0.46121657,9.458828,0.006110925,-0.043260336,-0.038735468
OrientationDeg,1676592460034,119963664972057,172.0,-14.0,-21.0
UncalMag,1676592460036,119963667876232,-63.7938,-33.2816,-101.2722,-47.646854,1.2478232,-64.42538
UncalGyro,1676592460043,119963673952281,-1.2105823,0.77534074,2.8884764,0.00064039225,-0.0009795674,-0.003356137
UncalAccel,1676592460042,119963673952281,2.437688,0.18245272,9.557532,0.006110925,-0.043260336,-0.038735468
OrientationDeg,1676592460043,119963673952281,170.0,-14.0,-20.0
UncalMag,1676592460047,119963677876232,-66.368,-33.2206,-103.443794,-47.646854,1.2478232,-64.42538
UncalGyro,1676592460052,119963682933910,-1.1594223,0.8228355,3.123354,0.00064039225,-0.0009795674,-0.003356137
UncalAccel,1676592460052,119963682933910,2.7643085,0.98644114,10.24487,0.006110925,-0.043260336,-0.038735468
OrientationDeg,1676592460051,119963682933910,168.0,-14.0,-19.0
UncalMag,1676592460057,119963687873546,-63.6718,-31.5614,-101.1868,-47.646854,1.2478232,-64.42538
UncalGyro,1676592460061,119963691912914,-1.0564915,0.83108217,3.2881348,0.00064039225,-0.0009795674,-0.003356137
UncalAccel,1676592460061,119963691912914,2.7409782,1.820938,10.525429,0.006110925,-0.043260336,-0.038735468
OrientationDeg,1676592460060,119963691912914,167.0,-14.0,-18.0
UncalMag,1676592460066,119963697875744,-64.7454,-31.4516,-100.7232,-47.646854,1.2478232,-64.42538
UncalGyro,1676592460070,119963700893016,-0.8775079,0.7124216,3.3197472,0.00064039225,-0.0009795674,-0.003356137
UncalAccel,1676592460069,119963700893016,2.3150558,2.9599216,10.705488,0.006110925,-0.043260336,-0.038735468
OrientationDeg,1676592460070,119963700893016,165.0,-14.0,-17.0
UncalMag,1676592460077,119963707875744,-58.682,-27.7794,-98.7224,-47.646854,1.2478232,-64.42538
UncalGyro,1676592460079,119963709873485,-0.67164636,0.60231316,3.1050282,0.00064039225,-0.0009795674,-0.003356137
UncalAccel,1676592460078,119963709873485,2.4993033,4.2251267,11.056037,0.006110925,-0.043260336,-0.038735468
OrientationDeg,1676592460078,119963709873485,164.0,-14.0,-16.0
UncalMag,1676592460086,119963717875988,-62.3908,-28.6822,-100.637794,-47.646854,1.2478232,-64.42538
UncalGyro,1676592460088,119963718851939,-0.47036624,0.5459608,2.5320365,0.00064039225,-0.0009795674,-0.003356137
UncalAccel,1676592460088,119963718851939,3.5766716,5.2348976,10.556536,0.006110925,-0.043260336,-0.038735468
OrientationDeg,1676592460088,119963718851939,162.0,-14.0,-16.0
UncalGyro,1676592460096,119963727833568,-0.26511553,0.53023106,1.7206547,0.00064039225,-0.0009795674,-0.003356137
UncalAccel,1676592460097,119963727833568,4.903492,5.265406,10.286146,0.006110925,-0.043260336,-0.038735468
UncalMag,1676592460097,119963727864269,-63.0984,-28.535799,-101.2844,-47.646854,1.2478232,-64.42538
OrientationDeg,1676592460097,119963727833568,162.0,-14.0,-16.0
UncalGyro,1676592460106,119963736816723,-0.04841107,0.49266282,1.0036516,0.00064039225,-0.0009795674,-0.003356137
UncalAccel,1676592460105,119963736816723,5.656633,4.1288157,9.625728,0.006110925,-0.043260336,-0.038735468
UncalMag,1676592460106,119963737864513,-63.769398,-29.084799,-99.1738,-47.646854,1.2478232,-64.42538
OrientationDeg,1676592460105,119963736816723,161.0,-14.0,-15.0
UncalGyro,1676592460114,119963745791087,0.12675454,0.2764165,0.59971696,0.00064039225,-0.0009795674,-0.003356137
UncalAccel,1676592460115,119963745791087,5.42752,2.3748765,8.891729,0.006110925,-0.043260336,-0.038735468
OrientationDeg,1676592460115,119963745791087,161.0,-14.0,-15.0
UncalMag,1676592460117,119963747876232,-62.7934,-28.0478,-100.015594,-47.646854,1.2478232,-64.42538
UncalGyro,1676592460124,119963754775585,0.22296582,0.0022907446,0.4476115,0.00064039225,-0.0009795674,-0.003356137
UncalAccel,1676592460124,119963754775585,4.613362,1.1138589,8.671589,0.006110925,-0.043260336,-0.038735468
OrientationDeg,1676592460123,119963754775585,161.0,-14.0,-15.0
UncalMag,1676592460126,119963757876232,-65.904396,-29.463,-100.8086,-47.646854,1.2478232,-64.42538
UncalGyro,1676592460133,119963763755809,0.17333302,-0.049938235,0.4605924,0.00064039225,-0.0009795674,-0.003356137
UncalAccel,1676592460133,119963763755809,3.6005998,0.19980069,9.625129,0.006110925,-0.043260336,-0.038735468
OrientationDeg,1676592460132,119963763755809,160.0,-14.0,-15.0
UncalMag,1676592460136,119963767876232,-65.4042,-29.0604,-101.857796,-47.646854,1.2478232,-64.42538
UncalGyro,1676592460142,119963772734691,-0.010537425,0.047800206,0.55481833,0.00064039225,-0.0009795674,-0.003356137
UncalAccel,1676592460141,119963772734691,2.9383862,0.14536397,8.554341,0.006110925,-0.043260336,-0.038735468
OrientationDeg,1676592460141,119963772734691,160.0,-14.0,-15.0
UncalMag,1676592460147,119963777875988,-64.830795,-28.7554,-102.321396,-47.646854,1.2478232,-64.42538
UncalGyro,1676592460151,119963781716930,-0.1339322,0.03390302,0.61498857,0.00064039225,-0.0009795674,-0.003356137
UncalAccel,1676592460151,119963781716930,3.0155547,0.37088752,8.712866,0.006110925,-0.043260336,-0.038735468
OrientationDeg,1676592460150,119963781716930,160.0,-14.0,-15.0
UncalMag,1676592460156,119963787864513,-63.5254,-27.840399,-101.9798,-47.646854,1.2478232,-64.42538
UncalGyro,1676592460159,119963790696483,-0.26221392,0.30298916,0.70661837,0.00064039225,-0.0009795674,-0.003356137
UncalAccel,1676592460159,119963790696483,3.0610185,0.23688944,10.86162,0.006110925,-0.043260336,-0.038735468
OrientationDeg,1676592460159,119963790696483,159.0,-14.0,-15.0
UncalMag,1676592460167,119963797876232,-63.5254,-27.9746,-100.8696,-47.646854,1.2478232,-64.42538
UncalGyro,1676592460169,119963799675487,-0.38362336,0.64766985,0.80481493,0.00064039225,-0.0009795674,-0.003356137
UncalAccel,1676592460169,119963799675487,2.841477,0.4438686,10.213763,0.006110925,-0.043260336,-0.038735468
OrientationDeg,1676592460169,119963799675487,159.0,-14.0,-15.0
UncalMag,1676592460176,119963807875988,-65.575,-28.8774,-101.504,-47.646854,1.2478232,-64.42538
UncalGyro,1676592460178,119963808651989,-0.4156938,0.66553766,0.88529646,0.00064039225,-0.0009795674,-0.003356137
UncalAccel,1676592460178,119963808651989,2.9455647,0.40438703,8.39821,0.006110925,-0.043260336,-0.038735468
OrientationDeg,1676592460177,119963808651989,159.0,-14.0,-14.0
UncalGyro,1676592460187,119963817636058,-0.36926803,0.6178902,0.91232723,0.00064039225,-0.0009795674,-0.003356137
UncalAccel,1676592460187,119963817636058,3.278167,0.637089,7.996215,0.006110925,-0.043260336,-0.038735468
UncalMag,1676592460186,119963817864025,-62.683598,-26.827799,-100.161995,-47.646854,1.2478232,-64.42538
OrientationDeg,1676592460186,119963817636058,158.0,-14.0,-14.0
UncalGyro,1676592460195,119963826620738,-0.3370449,0.56688297,0.87995136,0.00064039225,-0.0009795674,-0.003356137
UncalAccel,1676592460196,119963826620738,3.4492538,0.8039884,7.3830543,0.006110925,-0.043260336,-0.038735468
OrientationDeg,1676592460195,119963826620738,158.0,-14.0,-14.0
UncalMag,1676592460196,119963827875988,-63.5132,-26.6814,-99.9668,-47.646854,1.2478232,-64.42538
UncalGyro,1676592460204,119963835584850,-0.3494149,0.4005749,0.820392,0.00064039225,-0.0009795674,-0.003356137
UncalAccel,1676592460204,119963835584850,3.690929,0.7495517,6.6975107,0.006110925,-0.043260336,-0.038735468
OrientationDeg,1676592460205,119963835584850,157.0,-13.0,-13.0
UncalMag,1676592460207,119963837876232,-64.6356,-27.0108,-100.711,-47.646854,1.2478232,-64.42538
UncalGyro,1676592460213,119963844576732,-0.37003163,0.13026701,0.75594574,0.00064039225,-0.0009795674,-0.003356137
UncalAccel,1676592460213,119963844576732,3.7740796,0.7579266,6.250053,0.006110925,-0.043260336,-0.038735468
OrientationDeg,1676592460214,119963844576732,157.0,-14.0,-13.0
UncalMag,1676592460217,119963847876232,-66.185,-27.218199,-101.0526,-47.646854,1.2478232,-64.42538
UncalGyro,1676592460222,119963853556835,-0.37782016,-0.14614952,0.6916522,0.00064039225,-0.0009795674,-0.003356137
UncalAccel,1676592460222,119963853556835,3.6017964,0.7543373,6.41097,0.006110925,-0.043260336,-0.038735468
OrientationDeg,1676592460223,119963853556835,157.0,-14.0,-13.0
UncalMag,1676592460227,119963857876232,-63.684,-26.046999,-101.443,-47.646854,1.2478232,-64.42538
UncalGyro,1676592460231,119963862526805,-0.3559817,-0.3820962,0.63789606,0.00064039225,-0.0009795674,-0.003356137
UncalAccel,1676592460231,119963862526805,3.4695928,0.40558344,6.580262,0.006110925,-0.043260336,-0.038735468
OrientationDeg,1676592460231,119963862526805,156.0,-14.0,-13.0
UncalMag,1676592460237,119963867875988,-64.111,-26.0592,-100.149796,-47.646854,1.2478232,-64.42538
UncalGyro,1676592460240,119963871517162,-0.2855795,-0.6310238,0.6267477,0.00064039225,-0.0009795674,-0.003356137
UncalAccel,1676592460240,119963871517162,3.3266218,-0.025124637,6.8392854,0.006110925,-0.043260336,-0.038735468
OrientationDeg,1676592460240,119963871517162,156.0,-14.0,-12.0
UncalMag,1676592460247,119963877876232,-63.0252,-24.9124,-101.2112,-47.646854,1.2478232,-64.42538
UncalGyro,1676592460250,119963880497448,-0.18646662,-0.84574294,0.66339964,0.00064039225,-0.0009795674,-0.003356137
UncalAccel,1676592460249,119963880497448,3.1932218,-0.44147578,7.1892357,0.006110925,-0.043260336,-0.038735468
OrientationDeg,1676592460249,119963880497448,156.0,-15.0,-12.0
UncalMag,1676592460257,119963887876232,-65.5506,-26.108,-99.308,-47.646854,1.2478232,-64.42538
UncalGyro,1676592460258,119963889477672,-0.07971791,-0.9954049,0.8029824,0.00064039225,-0.0009795674,-0.003356137
UncalAccel,1676592460258,119963889477672,2.5674987,-1.9483558,7.031309,0.006110925,-0.043260336,-0.038735468
OrientationDeg,1676592460259,119963889477672,155.0,-16.0,-12.0
UncalMag,1676592460267,119963897875988,-65.916595,-24.8148,-101.5284,-47.646854,1.2478232,-64.42538
UncalGyro,1676592460267,119963898459117,-0.046883907,-1.1765264,1.0968086,0.00064039225,-0.0009795674,-0.003356137
UncalAccel,1676592460267,119963898459117,1.9004993,-3.071188,6.174081,0.006110925,-0.043260336,-0.038735468
OrientationDeg,1676592460268,119963898459117,155.0,-16.0,-12.0
UncalGyro,1676592460276,119963907437449,-0.15760323,-1.3183999,1.3523029,0.00064039225,-0.0009795674,-0.003356137
UncalAccel,1676592460277,119963907437449,2.4239295,-1.2861422,6.2380886,0.006110925,-0.043260336,-0.038735468
UncalMag,1676592460277,119963907864757,-69.344795,-26.8034,-100.8574,-47.646854,1.2478232,-64.42538
OrientationDeg,1676592460276,119963907437449,154.0,-17.0,-11.0
UncalGyro,1676592460286,119963916406566,-0.34880406,-1.491733,1.4905112,0.00064039225,-0.0009795674,-0.003356137
UncalAccel,1676592460286,119963916406566,2.9922247,-0.05682954,6.003592,0.006110925,-0.043260336,-0.038735468
UncalMag,1676592460286,119963917876232,-69.052,-25.1442,-100.296196,-47.646854,1.2478232,-64.42538
OrientationDeg,1676592460286,119963916406566,153.0,-18.0,-11.0
UncalGyro,1676592460295,119963925399424,-0.4801401,-1.7244726,1.5037975,0.00064039225,-0.0009795674,-0.003356137
UncalAccel,1676592460294,119963925399424,3.5814574,-0.050847482,6.378069,0.006110925,-0.043260336,-0.038735468
OrientationDeg,1676592460294,119963925399424,153.0,-19.0,-10.0
UncalMag,1676592460297,119963927876232,-70.9674,-25.7298,-102.3702,-47.646854,1.2478232,-64.42538
UncalGyro,1676592460304,119963934368358,-0.49174652,-1.892155,1.4343116,0.00064039225,-0.0009795674,-0.003356137
UncalAccel,1676592460303,119963934368358,4.5272202,-0.31046873,7.5009007,0.006110925,-0.043260336,-0.038735468
OrientationDeg,1676592460303,119963934368358,152.0,-20.0,-10.0
UncalMag,1676592460307,119963937876232,-71.248,-24.7416,-101.9066,-47.646854,1.2478232,-64.42538
UncalGyro,1676592460312,119963943359386,-0.42256603,-2.02624,1.3089315,0.00064039225,-0.0009795674,-0.003356137
UncalAccel,1676592460312,119963943359386,5.473582,-0.109471634,8.249854,0.006110925,-0.043260336,-0.038735468
OrientationDeg,1676592460312,119963943359386,152.0,-21.0,-9.0
Fix,FLP,37.4308050000,-122.1550461000,-16.100000381469727,0.2181347,4.31,82.68236,1676592460285,,,119963916406566,4.4222293
UncalMag,1676592460316,119963947877941,-73.4806,-24.9734,-103.0656,-47.646854,1.2478232,-64.42538
Fix,NLP,37.4312529000,-122.1537201000,-16.100000381469727,,64.218,,1676592460294,,,119963925000000,7.089657
UncalGyro,1676592460321,119963952338878,-0.33108896,-2.1659753,1.1220068,0.00064039225,-0.0009795674,-0.003356137
UncalAccel,1676592460321,119963952338878,5.892326,0.32004002,9.0544405,0.006110925,-0.043260336,-0.038735468
OrientationDeg,1676592460322,119963952338878,151.0,-23.0,-9.0
UncalMag,1676592460327,119963957875988,-74.2248,-24.7416,-101.5772,-47.646854,1.2478232,-64.42538
UncalGyro,1676592460330,119963961319469,-0.26343563,-2.1736112,0.91690874,0.00064039225,-0.0009795674,-0.003356137
UncalAccel,1676592460330,119963961319469,5.5866427,0.39900318,10.321441,0.006110925,-0.043260336,-0.038735468
OrientationDeg,1676592460330,119963961319469,151.0,-24.0,-9.0
UncalMag,1676592460336,119963967875988,-75.554596,-24.8148,-99.9424,-47.646854,1.2478232,-64.42538
UncalGyro,1676592460339,119963970300975,-0.23900102,-1.9249891,0.7837401,0.00064039225,-0.0009795674,-0.003356137
UncalAccel,1676592460339,119963970300975,5.1846485,-0.12023934,12.728022,0.006110925,-0.043260336,-0.038735468
OrientationDeg,1676592460340,119963970300975,150.0,-25.0,-8.0
UncalMag,1676592460347,119963977876232,-75.9694,-25.01,-98.600395,-47.646854,1.2478232,-64.42538
UncalGyro,1676592460348,119963979261608,-0.24373524,-1.2618948,0.7283041,0.00064039225,-0.0009795674,-0.003356137
UncalAccel,1676592460348,119963979261608,5.4442697,-0.65324056,14.337195,0.006110925,-0.043260336,-0.038735468
OrientationDeg,1676592460349,119963979261608,150.0,-25.0,-8.0
UncalMag,1676592460357,119963987876232,-75.1642,-23.4118,-100.479195,-47.646854,1.2478232,-64.42538
UncalGyro,1676592460358,119963988260143,-0.3313944,-0.9326385,0.72189003,0.00064039225,-0.0009795674,-0.003356137
UncalAccel,1676592460358,119963988260143,5.5184474,-1.0480564,12.243475,0.006110925,-0.043260336,-0.038735468
OrientationDeg,1676592460358,119963988260143,150.0,-26.0,-8.0
UncalGyro,1676592460366,119963997240001,-0.38087448,-0.5899431,0.7136433,0.00064039225,-0.0009795674,-0.003356137
UncalAccel,1676592460366,119963997240001,5.962914,-0.34037903,13.049856,0.006110925,-0.043260336,-0.038735468
UncalMag,1676592460366,119963997865490,-76.4696,-23.6436,-100.65,-47.646854,1.2478232,-64.42538
OrientationDeg,1676592460366,119963997240001,150.0,-26.0,-7.0
UncalGyro,1676592460375,119964006210094,-0.41645738,-0.2996294,0.65469486,0.00064039225,-0.0009795674,-0.003356137
UncalAccel,1676592460375,119964006210094,6.142376,0.5312066,12.883555,0.006110925,-0.043260336,-0.038735468
OrientationDeg,1676592460376,119964006210094,149.0,-26.0,-7.0
UncalMag,1676592460376,119964007875988,-75.3716,-22.7652,-99.381195,-47.646854,1.2478232,-64.42538
UncalGyro,1676592460384,119964015201122,-0.4196644,-0.18555032,0.52641314,0.00064039225,-0.0009795674,-0.003356137
UncalAccel,1676592460384,119964015201122,6.6909304,1.0552348,12.660424,0.006110925,-0.043260336,-0.038735468
OrientationDeg,1676592460385,119964015201122,149.0,-27.0,-7.0
UncalMag,1676592460387,119964017875988,-75.2984,-22.508999,-97.6854,-47.646854,1.2478232,-64.42538
UncalGyro,1676592460393,119964024169323,-0.35445455,-0.1432479,0.34513888,0.00064039225,-0.0009795674,-0.003356137
UncalAccel,1676592460394,119964024169323,7.0606213,1.1252248,13.176676,0.006110925,-0.043260336,-0.038735468
OrientationDeg,1676592460394,119964024169323,149.0,-27.0,-6.0
UncalMag,1676592460397,119964027875988,-75.03,-22.204,-97.7952,-47.646854,1.2478232,-64.42538
UncalGyro,1676592460402,119964033161266,-0.24465153,-0.087659165,0.15317446,0.00064039225,-0.0009795674,-0.003356137
UncalAccel,1676592460403,119964033161266,6.980462,0.85244304,13.475181,0.006110925,-0.043260336,-0.038735468
OrientationDeg,1676592460403,119964033161266,149.0,-27.0,-6.0
UncalMag,1676592460406,119964037867199,-75.395996,-22.4114,-99.0396,-47.646854,1.2478232,-64.42538
UncalGyro,1676592460411,119964042142223,-0.15332718,-0.059864793,-0.039553523,0.00064039225,-0.0009795674,-0.003356137
UncalAccel,1676592460411,119964042142223,6.829116,0.11964113,13.185051,0.006110925,-0.043260336,-0.038735468
OrientationDeg,1676592460411,119964042142223,149.0,-27.0,-6.0
UncalMag,1676592460417,119964047876232,-74.6152,-21.8014,-97.1364,-47.646854,1.2478232,-64.42538
UncalGyro,1676592460421,119964051121654,-0.06047566,-0.008093964,-0.22036964,0.00064039225,-0.0009795674,-0.003356137
UncalAccel,1676592460420,119964051121654,6.762117,0.13459627,13.179667,0.006110925,-0.043260336,-0.038735468
OrientationDeg,1676592460421,119964051121654,149.0,-27.0,-6.0
UncalMag,1676592460427,119964057876232,-73.1878,-21.2036,-97.0144,-47.646854,1.2478232,-64.42538
UncalGyro,1676592460429,119964060101940,0.06337727,0.028405234,-0.36117408,0.00064039225,-0.0009795674,-0.003356137
UncalAccel,1676592460429,119964060101940,6.4941206,-0.31465617,12.709477,0.006110925,-0.043260336,-0.038735468
OrientationDeg,1676592460430,119964060101940,150.0,-27.0,-6.0
UncalMag,1676592460436,119964067876232,-74.8348,-22.313799,-97.9416,-47.646854,1.2478232,-64.42538
UncalGyro,1676592460438,119964069082225,0.20570888,0.030085113,-0.46868637,0.00064039225,-0.0009795674,-0.003356137
UncalAccel,1676592460439,119964069082225,6.1184473,-0.5240282,12.234502,0.006110925,-0.043260336,-0.038735468
OrientationDeg,1676592460439,119964069082225,150.0,-27.0,-7.0
UncalMag,1676592460446,119964077876232,-73.9076,-22.0576,-97.4414,-47.646854,1.2478232,-64.42538
UncalGyro,1676592460447,119964078060801,0.36254853,0.020005837,-0.538325,0.00064039225,-0.0009795674,-0.003356137
UncalAccel,1676592460448,119964078060801,5.7026944,-0.36370903,11.694921,0.006110925,-0.043260336,-0.038735468
OrientationDeg,1676592460448,119964078060801,150.0,-27.0,-7.0
UncalGyro,1676592460456,119964087042430,0.52824575,0.0022907446,-0.54626626,0.00064039225,-0.0009795674,-0.003356137
UncalAccel,1676592460457,119964087042430,4.9812584,-0.45044887,10.957334,0.006110925,-0.043260336,-0.038735468
UncalMag,1676592460457,119964087864269,-75.152,-22.935999,-98.429596,-47.646854,1.2478232,-64.42538
OrientationDeg,1676592460456,119964087042430,150.0,-27.0,-7.0
UncalGyro,1676592460465,119964096026134,0.66538495,-0.0125227375,-0.45921794,0.00064039225,-0.0009795674,-0.003356137
UncalAccel,1676592460466,119964096026134,4.2035913,-1.0887343,10.116854,0.006110925,-0.043260336,-0.038735468
OrientationDeg,1676592460465,119964096026134,150.0,-27.0,-8.0
UncalMag,1676592460466,119964097875744,-75.6278,-23.6314,-98.0636,-47.646854,1.2478232,-64.42538
UncalGyro,1676592460474,119964105003002,0.7612908,-0.074067414,-0.31245756,0.00064039225,-0.0009795674,-0.003356137
UncalAccel,1676592460474,119964105003002,4.1461635,-0.71007013,8.740981,0.006110925,-0.043260336,-0.038735468
OrientationDeg,1676592460474,119964105003002,150.0,-27.0,-8.0
UncalMag,1676592460476,119964107875744,-73.81,-23.1922,-97.050995,-47.646854,1.2478232,-64.42538
UncalGyro,1676592460483,119964113983775,0.8049677,-0.15195273,-0.16218472,0.00064039225,-0.0009795674,-0.003356137
UncalAccel,1676592460482,119964113983775,3.8213377,-0.22911277,7.6983085,0.006110925,-0.043260336,-0.038735468
OrientationDeg,1676592460482,119964113983775,150.0,-27.0,-8.0
UncalMag,1676592460486,119964117875988,-73.749,-23.302,-96.587395,-47.646854,1.2478232,-64.42538
UncalGyro,1676592460491,119964122951488,0.78786343,-0.20387627,0.0010690142,0.00064039225,-0.0009795674,-0.003356137
UncalAccel,1676592460492,119964122951488,3.2009985,-0.24047868,6.9188466,0.006110925,-0.043260336,-0.038735468
OrientationDeg,1676592460492,119964122951488,150.0,-27.0,-9.0
UncalMag,1676592460496,119964127864269,-74.944595,-24.1194,-95.184395,-47.646854,1.2478232,-64.42538
UncalGyro,1676592460501,119964131943736,0.73273283,-0.2733622,0.15760323,0.00064039225,-0.0009795674,-0.003356137
UncalAccel,1676592460500,119964131943736,3.3631122,-0.7932207,5.977869,0.006110925,-0.043260336,-0.038735468
OrientationDeg,1676592460501,119964131943736,149.0,-27.0,-9.0
UncalMag,1676592460506,119964137875988,-74.115,-24.2048,-95.831,-47.646854,1.2478232,-64.42538
UncalGyro,1676592460510,119964140923656,0.63713247,-0.36361754,0.2864958,0.00064039225,-0.0009795674,-0.003356137
UncalAccel,1676592460510,119964140923656,3.6520455,-1.6007984,5.131408,0.006110925,-0.043260336,-0.038735468
OrientationDeg,1676592460509,119964140923656,149.0,-27.0,-9.0
UncalMag,1676592460517,119964147876232,-73.846596,-23.973,-95.159996,-47.646854,1.2478232,-64.42538
UncalGyro,1676592460518,119964149905650,0.4972443,-0.46211955,0.41386122,0.00064039225,-0.0009795674,-0.003356137
UncalAccel,1676592460518,119964149905650,3.5449667,-2.449054,4.36391,0.006110925,-0.043260336,-0.038735468
OrientationDeg,1676592460519,119964149905650,149.0,-28.0,-9.0
UncalMag,1676592460527,119964157875744,-74.2248,-23.6924,-94.879395,-47.646854,1.2478232,-64.42538
UncalGyro,1676592460528,119964158884776,0.32620203,-0.58001655,0.5589417,0.00064039225,-0.0009795674,-0.003356137
UncalAccel,1676592460527,119964158884776,3.6029928,-2.8905299,3.4707892,0.006110925,-0.043260336,-0.038735468
OrientationDeg,1676592460527,119964158884776,149.0,-28.0,-9.0
UncalGyro,1676592460537,119964167864208,0.14737125,-0.74479747,0.7328856,0.00064039225,-0.0009795674,-0.003356137
UncalAccel,1676592460537,119964167864208,3.7459638,-3.2997024,2.806781,0.006110925,-0.043260336,-0.038735468
UncalMag,1676592460537,119964167875744,-76.4452,-24.3634,-95.940796,-47.646854,1.2478232,-64.42538
OrientationDeg,1676592460536,119964167864208,148.0,-28.0,-9.0
UncalGyro,1676592460545,119964176844860,-0.021991149,-0.93691456,0.93660915,0.00064039225,-0.0009795674,-0.003356137
UncalAccel,1676592460545,119964176844860,3.4911282,-3.6861434,2.6512475,0.006110925,-0.043260336,-0.038735468
OrientationDeg,1676592460546,119964176844860,148.0,-29.0,-9.0
UncalMag,1676592460547,119964177865246,-76.372,-23.8266,-96.7948,-47.646854,1.2478232,-64.42538
UncalGyro,1676592460555,119964185824535,-0.1656972,-1.1392636,1.16492,0.00064039225,-0.0009795674,-0.003356137
UncalAccel,1676592460555,119964185824535,3.1782668,-4.0103707,2.786442,0.006110925,-0.043260336,-0.038735468
UncalMag,1676592460557,119964187865246,-75.6522,-23.2288,-96.428795,-47.646854,1.2478232,-64.42538
OrientationDeg,1676592460554,119964185824535,147.0,-30.0,-8.0
UncalGyro,1676592460564,119964194805553,-0.2846632,-1.3182472,1.398576,0.00064039225,-0.0009795674,-0.003356137
UncalAccel,1676592460564,119964194805553,3.237489,-4.3561335,2.870789,0.006110925,-0.043260336,-0.038735468
OrientationDeg,1676592460563,119964194805553,147.0,-31.0,-8.0
UncalMag,1676592460567,119964197876232,-76.433,-22.326,-95.526,-47.646854,1.2478232,-64.42538
UncalGyro,1676592460573,119964203787242,-0.37797287,-1.442711,1.6409367,0.00064039225,-0.0009795674,-0.003356137
UncalAccel,1676592460573,119964203787242,3.219543,-4.8065825,2.9395826,0.006110925,-0.043260336,-0.038735468
OrientationDeg,1676592460572,119964203787242,146.0,-31.0,-7.0
UncalMag,1676592460576,119964207865246,-77.2382,-22.0576,-93.9522,-47.646854,1.2478232,-64.42538
UncalGyro,1676592460581,119964212753795,-0.4625777,-1.5118915,1.9240729,0.00064039225,-0.0009795674,-0.003356137
UncalAccel,1676592460582,119964212753795,3.12383,-5.4628143,2.9742785,0.006110925,-0.043260336,-0.038735468
OrientationDeg,1676592460581,119964212753795,145.0,-32.0,-6.0
UncalMag,1676592460587,119964217864025,-79.8246,-21.923399,-91.0608,-47.646854,1.2478232,-64.42538
UncalGyro,1676592460591,119964221747508,-0.5510005,-1.5711454,2.2339342,0.00064039225,-0.0009795674,-0.003356137
UncalAccel,1676592460590,119964221747508,3.2817562,-6.0921264,2.8241289,0.006110925,-0.043260336,-0.038735468
OrientationDeg,1676592460590,119964221747508,144.0,-33.0,-5.0
UncalMag,1676592460596,119964227876232,-79.788,-20.6668,-91.121796,-47.646854,1.2478232,-64.42538
UncalGyro,1676592460600,119964230726207,-0.6591236,-1.6927075,2.5428793,0.00064039225,-0.0009795674,-0.003356137
UncalAccel,1676592460599,119964230726207,3.8644085,-6.4797635,2.0237298,0.006110925,-0.043260336,-0.038735468
OrientationDeg,1676592460599,119964230726207,144.0,-34.0,-4.0
UncalMag,1676592460606,119964237875988,-82.4354,-20.5936,-91.256,-47.646854,1.2478232,-64.42538
UncalGyro,1676592460608,119964239706127,-0.79626286,-1.9588921,2.806162,0.00064039225,-0.0009795674,-0.003356137
UncalAccel,1676592460609,119964239706127,4.727619,-6.5234327,0.8739785,0.006110925,-0.043260336,-0.038735468
OrientationDeg,1676592460609,119964239706127,143.0,-35.0,-3.0
UncalMag,1676592460616,119964247875988,-83.033195,-19.044199,-91.426796,-47.646854,1.2478232,-64.42538
UncalGyro,1676592460618,119964248686595,-0.95707315,-2.342821,2.9714012,0.00064039225,-0.0009795674,-0.003356137
UncalAccel,1676592460617,119964248686595,5.7074804,-6.6448684,0.14895321,0.006110925,-0.043260336,-0.038735468
OrientationDeg,1676592460617,119964248686595,142.0,-37.0,-1.0
UncalGyro,1676592460626,119964257667797,-1.110553,-2.7876835,3.0447052,0.00064039225,-0.0009795674,-0.003356137
UncalAccel,1676592460627,119964257667797,6.728019,-6.780661,-0.12861422,0.006110925,-0.043260336,-0.038735468
UncalMag,1676592460627,119964257862316,-86.254,-18.8368,-90.8778,-47.646854,1.2478232,-64.42538
OrientationDeg,1676592460626,119964257667797,141.0,-38.0,0.0
UncalGyro,1676592460635,119964266647167,-1.2341005,-3.2852333,3.1064024,0.00064039225,-0.0009795674,-0.003356137
UncalAccel,1676592460636,119964266647167,7.4380894,-7.1826553,0.28713873,0.006110925,-0.043260336,-0.038735468
UncalMag,1676592460637,119964267864513,-87.3398,-17.202,-90.1092,-47.646854,1.2478232,-64.42538
OrientationDeg,1676592460636,119964266647167,140.0,-40.0,1.0
UncalGyro,1676592460644,119964275627391,-1.3197744,-3.7340665,3.2391129,0.00064039225,-0.0009795674,-0.003356137
UncalAccel,1676592460644,119964275627391,8.044071,-8.077571,1.7102699,0.006110925,-0.043260336,-0.038735468
OrientationDeg,1676592460645,119964275627391,139.0,-42.0,2.0
UncalMag,1676592460646,119964277876232,-87.84,-15.7624,-87.095795,-47.646854,1.2478232,-64.42538
UncalGyro,1676592460654,119964284607738,-1.3295482,-4.0825653,3.4698672,0.00064039225,-0.0009795674,-0.003356137
UncalAccel,1676592460654,119964284607738,8.852845,-9.093325,3.3290145,0.006110925,-0.043260336,-0.038735468
OrientationDeg,1676592460653,119964284607738,138.0,-44.0,4.0
UncalMag,1676592460657,119964287881847,-87.083595,-13.6152,-85.3268,-47.646854,1.2478232,-64.42538
UncalGyro,1676592460662,119964293589000,-1.2385293,-4.3278275,3.7911825,0.00064039225,-0.0009795674,-0.003356137
UncalAccel,1676592460663,119964293589000,9.622138,-10.113863,5.291129,0.006110925,-0.043260336,-0.038735468
OrientationDeg,1676592460662,119964293589000,137.0,-46.0,6.0
UncalMag,1676592460667,119964297876232,-89.9628,-12.675799,-82.6916,-47.646854,1.2478232,-64.42538
UncalGyro,1676592460671,119964302557811,-1.0415252,-4.3504295,4.161214,0.00064039225,-0.0009795674,-0.003356137
UncalAccel,1676592460672,119964302557811,10.432707,-10.462617,7.585248,0.006110925,-0.043260336,-0.038735468
OrientationDeg,1676592460672,119964302557811,136.0,-48.0,8.0
UncalMag,1676592460676,119964307875988,-91.2438,-10.748199,-81.2886,-47.646854,1.2478232,-64.42538
UncalGyro,1676592460680,119964311540905,-0.728915,-4.212985,4.489096,0.00064039225,-0.0009795674,-0.003356137
UncalAccel,1676592460680,119964311540905,11.555539,-9.442677,8.624929,0.006110925,-0.043260336,-0.038735468
OrientationDeg,1676592460681,119964311540905,135.0,-50.0,10.0
