# 
# Header Description:
# 
# Version: v3.0.5.6 Platform: 13 Manufacturer: Google Model: Pixel 6
# 
# Raw,utcTimeMillis,TimeNanos,LeapSecond,TimeUncertaintyNanos,FullBiasNanos,BiasNanos,BiasUncertaintyNanos,DriftNanosPerSecond,DriftUncertaintyNanosPerSecond,HardwareClockDiscontinuityCount,Svid,TimeOffsetNanos,State,ReceivedSvTimeNanos,ReceivedSvTimeUncertaintyNanos,Cn0DbHz,PseudorangeRateMetersPerSecond,PseudorangeRateUncertaintyMetersPerSecond,AccumulatedDeltaRangeState,AccumulatedDeltaRangeMeters,AccumulatedDeltaRangeUncertaintyMeters,CarrierFrequencyHz,CarrierCycles,CarrierPhase,CarrierPhaseUncertainty,MultipathIndicator,SnrInDb,ConstellationType,AgcDb,BasebandCn0DbHz,FullInterSignalBiasNanos,FullInterSignalBiasUncertaintyNanos,SatelliteInterSignalBiasNanos,SatelliteInterSignalBiasUncertaintyNanos,CodeType,ChipsetElapsedRealtimeNanos
# 
# UncalAccel,utcTimeMillis,elapsedRealtimeNanos,UncalAccelXMps2,UncalAccelYMps2,UncalAccelZMps2,BiasXMps2,BiasYMps2,BiasZMps2
# 
# Accel,utcTimeMillis,elapsedRealtimeNanos,AccelXMps2,AccelYMps2,AccelZMps2
# 
# UncalGyro,utcTimeMillis,elapsedRealtimeNanos,UncalGyroXRadPerSec,UncalGyroYRadPerSec,UncalGyroZRadPerSec,DriftXRadPerSec,DriftYRadPerSec,DriftZRadPerSec
# 
# Gyro,utcTimeMillis,elapsedRealtimeNanos,GyroXRadPerSec,GyroYRadPerSec,GyroZRadPerSec
# 
# UncalMag,utcTimeMillis,elapsedRealtimeNanos,UncalMagXMicroT,UncalMagYMicroT,UncalMagZMicroT,BiasXMicroT,BiasYMicroT,BiasZMicroT
# 
# Mag,utcTimeMillis,elapsedRealtimeNanos,MagXMicroT,MagYMicroT,MagZMicroT
# 
# OrientationDeg,utcTimeMillis,elapsedRealtimeNanos,yawDeg,rollDeg,pitchDeg
# 
# Fix,Provider,LatitudeDegrees,LongitudeDegrees,AltitudeMeters,SpeedMps,AccuracyMeters,BearingDegrees,UnixTimeMillis,SpeedAccuracyMps,BearingAccuracyDegrees,elapsedRealtimeNanos,VerticalAccuracyMeters
# 
# Nav,Svid,Type,Status,MessageId,Sub-messageId,Data(Bytes)
# 
# Status,UnixTimeMillis,SignalCount,SignalIndex,ConstellationType,Svid,CarrierFrequencyHz,Cn0DbHz,AzimuthDegrees,ElevationDegrees,UsedInFix,HasAlmanacData,HasEphemerisData,BasebandCn0DbHz
# 
UncalAccel,1676595091698,122595328098461,-0.9607183,3.8267217,8.749356,0.006110925,-0.043260336,-0.038735468
UncalMag,1676595091702,122595332154064,-67.2342,-13.2126,-103.0412,-45.491467,0.31409264,-60.09035
UncalGyro,1676595091702,122595332588268,-0.26389378,0.10567969,-0.1142318,0.00034467055,-0.00073837844,-0.0032794788
UncalGyro,1676595091711,122595341560009,-0.26984972,0.087964594,-0.044593163,0.00034467055,-0.00073837844,-0.0032794788
UncalAccel,1676595091707,122595337067638,-1.1383854,3.7651064,8.839087,0.006110925,-0.043260336,-0.038735468
UncalMag,1676595091711,122595342154308,-66.6486,-13.0418,-102.174995,-45.491467,0.31409264,-60.09035
UncalAccel,1676595091715,122595346046398,-1.0857433,3.7363925,8.839087,0.006110925,-0.043260336,-0.038735468
OrientationDeg,1676595091697,122595328098461,79.0,4.0,-28.0
OrientationDeg,1676595091706,122595337067638,79.0,5.0,-27.0
OrientationDeg,1676595091715,122595346046398,79.0,5.0,-27.0
UncalGyro,1676595091720,122595350536876,-0.30115658,0.12889257,0.011911872,0.00034467055,-0.00073837844,-0.0032794788
UncalMag,1676595091721,122595352154308,-70.1012,-13.6518,-104.200195,-45.491467,0.31409264,-60.09035
UncalAccel,1676595091724,122595355024058,-0.8853444,3.735196,8.806784,0.006110925,-0.043260336,-0.038735468
OrientationDeg,1676595091725,122595355024058,79.0,5.0,-27.0
Fix,FLP,37.4311514000,-122.1551412000,-16.5,0.24053444,4.313,78.04244,1676595090921,,,122594551368053,3.4619198
UncalGyro,1676595091729,122595359509838,-0.38453966,0.20754147,0.062155537,0.00034467055,-0.00073837844,-0.0032794788
UncalMag,1676595091732,122595362155529,-67.1122,-13.163799,-102.3702,-45.491467,0.31409264,-60.09035
UncalAccel,1676595091734,122595364006236,-0.8243274,3.7393837,8.964112,0.006110925,-0.043260336,-0.038735468
OrientationDeg,1676595091734,122595364006236,79.0,5.0,-27.0
UncalGyro,1676595091738,122595368497570,-0.4999932,0.32635477,0.12186762,0.00034467055,-0.00073837844,-0.0032794788
UncalMag,1676595091742,122595372155773,-68.722595,-13.4566,-103.6878,-45.491467,0.31409264,-60.09035
UncalAccel,1676595091742,122595372988109,-0.93559366,3.726223,9.302098,0.006110925,-0.043260336,-0.038735468
OrientationDeg,1676595091741,122595372988109,79.0,5.0,-27.0
UncalGyro,1676595091746,122595377476756,-0.6133087,0.48838675,0.19807306,0.00034467055,-0.00073837844,-0.0032794788
UncalAccel,1676595091751,122595381969554,-0.9631111,3.4289148,9.61496,0.006110925,-0.043260336,-0.038735468
UncalMag,1676595091751,122595382150158,-65.8068,-12.053599,-103.8098,-45.491467,0.31409264,-60.09035
OrientationDeg,1676595091750,122595381969554,79.0,5.0,-26.0
UncalGyro,1676595091756,122595386460155,-0.7110472,0.66614854,0.3036,0.00034467055,-0.00073837844,-0.0032794788
UncalAccel,1676595091759,122595390944652,-1.1306087,2.8881369,9.796814,0.006110925,-0.043260336,-0.038735468
OrientationDeg,1676595091760,122595390944652,79.0,5.0,-26.0
UncalMag,1676595091762,122595392153820,-66.734,-11.834,-102.784996,-45.491467,0.31409264,-60.09035
UncalGyro,1676595091764,122595395436107,-0.7849618,0.8176431,0.4427246,0.00034467055,-0.00073837844,-0.0032794788
UncalAccel,1676595091769,122595399922557,-1.2059826,3.071188,9.917053,0.006110925,-0.043260336,-0.038735468
OrientationDeg,1676595091768,122595399922557,78.0,6.0,-25.0
UncalMag,1676595091771,122595402154552,-66.855995,-11.370399,-103.565796,-45.491467,0.31409264,-60.09035
UncalGyro,1676595091774,122595404414562,-0.79305583,0.9236283,0.5713117,0.00034467055,-0.00073837844,-0.0032794788
UncalAccel,1676595091777,122595408903697,-1.082154,3.6693935,9.934999,0.006110925,-0.043260336,-0.038735468
OrientationDeg,1676595091778,122595408903697,78.0,6.0,-25.0
UncalMag,1676595091781,122595412154308,-66.9414,-11.346,-104.1392,-45.491467,0.31409264,-60.09035
UncalGyro,1676595091782,122595413394786,-0.73761976,0.97784257,0.65209866,0.00034467055,-0.00073837844,-0.0032794788
UncalAccel,1676595091786,122595417885448,-1.1102697,4.2975097,9.766306,0.006110925,-0.043260336,-0.038735468
OrientationDeg,1676595091787,122595417885448,77.0,6.0,-25.0
UncalMag,1676595091792,122595422153820,-65.7458,-10.98,-103.7,-45.491467,0.31409264,-60.09035
UncalGyro,1676595091791,122595422379833,-0.6151413,0.92011577,0.6711882,0.00034467055,-0.00073837844,-0.0032794788
UncalAccel,1676595091795,122595426863292,-1.2807583,3.9146578,9.029915,0.006110925,-0.043260336,-0.038735468
OrientationDeg,1676595091795,122595426863292,77.0,7.0,-24.0
UncalGyro,1676595091801,122595431355297,-0.42439863,0.67363167,0.70081514,0.00034467055,-0.00073837844,-0.0032794788
UncalMag,1676595091802,122595432154308,-66.0996,-10.748199,-104.3832,-45.491467,0.31409264,-60.09035
UncalAccel,1676595091804,122595435840709,-1.3076776,3.219543,8.530413,0.006110925,-0.043260336,-0.038735468
OrientationDeg,1676595091805,122595435840709,77.0,7.0,-24.0
UncalGyro,1676595091809,122595440336558,-0.18371773,0.3631594,0.7495316,0.00034467055,-0.00073837844,-0.0032794788
UncalMag,1676595091812,122595442165294,-64.965,-10.0162,-104.5906,-45.491467,0.31409264,-60.09035
UncalAccel,1676595091813,122595444836314,-0.9702896,3.586841,9.300901,0.006110925,-0.043260336,-0.038735468
OrientationDeg,1676595091813,122595444836314,76.0,7.0,-24.0
UncalGyro,1676595091818,122595449326549,0.079107046,0.20906863,0.7619017,0.00034467055,-0.00073837844,-0.0032794788
UncalMag,1676595091822,122595452165294,-65.440796,-10.223599,-104.663795,-45.491467,0.31409264,-60.09035
UncalAccel,1676595091822,122595453815257,-0.6897311,3.9116669,9.923634,0.006110925,-0.043260336,-0.038735468
OrientationDeg,1676595091823,122595453815257,76.0,6.0,-25.0
UncalGyro,1676595091828,122595458304210,0.36636642,0.18096884,0.74082685,0.00034467055,-0.00073837844,-0.0032794788
UncalMag,1676595091831,122595462165294,-66.7584,-11.1996,-110.5076,-45.491467,0.31409264,-60.09035
UncalAccel,1676595091831,122595462792003,-0.49830532,3.94397,9.824331,0.006110925,-0.043260336,-0.038735468
OrientationDeg,1676595091832,122595462792003,75.0,6.0,-25.0
UncalGyro,1676595091836,122595467282848,0.65225136,0.107359566,0.6818783,0.00034467055,-0.00073837844,-0.0032794788
UncalAccel,1676595091841,122595471771435,-0.20279172,4.071388,9.102298,0.006110925,-0.043260336,-0.038735468
UncalMag,1676595091841,122595472153576,-65.1846,-9.8576,-105.432396,-45.491467,0.31409264,-60.09035
OrientationDeg,1676595091840,122595471771435,75.0,6.0,-25.0
UncalGyro,1676595091846,122595476262523,0.79427755,-0.21426098,0.537256,0.00034467055,-0.00073837844,-0.0032794788
UncalAccel,1676595091849,122595480752330,0.17048861,4.462016,7.528418,0.006110925,-0.043260336,-0.038735468
OrientationDeg,1676595091850,122595480752330,75.0,6.0,-26.0
UncalMag,1676595091852,122595482165294,-66.551,-10.5529995,-105.298195,-45.491467,0.31409264,-60.09035
UncalGyro,1676595091855,122595485242199,0.62949663,-0.88300574,0.3061962,0.00034467055,-0.00073837844,-0.0032794788
UncalAccel,1676595091859,122595489730846,0.7220342,4.6259246,7.112067,0.006110925,-0.043260336,-0.038735468
OrientationDeg,1676595091858,122595489730846,75.0,5.0,-26.0
UncalMag,1676595091862,122595492165294,-65.4896,-10.248,-103.7,-45.491467,0.31409264,-60.09035
UncalGyro,1676595091863,122595494221447,0.33582318,-1.563815,0.055283304,0.00034467055,-0.00073837844,-0.0032794788
UncalAccel,1676595091867,122595498709239,1.358525,4.4410787,9.139386,0.006110925,-0.043260336,-0.038735468
OrientationDeg,1676595091867,122595498709239,75.0,4.0,-26.0
UncalMag,1676595091872,122595502165539,-66.917,-11.0898,-103.761,-45.491467,0.31409264,-60.09035
UncalGyro,1676595091872,122595503197277,0.23136522,-1.869095,-0.16294831,0.00034467055,-0.00073837844,-0.0032794788
UncalAccel,1676595091877,122595507689647,1.9669002,3.982255,10.741381,0.006110925,-0.043260336,-0.038735468
OrientationDeg,1676595091876,122595507689647,75.0,3.0,-26.0
UncalGyro,1676595091881,122595512176463,0.32345316,-1.8903224,-0.3662137,0.00034467055,-0.00073837844,-0.0032794788
UncalMag,1676595091881,122595512173351,-66.0996,-10.8824,-103.3828,-45.491467,0.31409264,-60.09035
UncalAccel,1676595091886,122595516654307,2.6985056,4.323232,10.84188,0.006110925,-0.043260336,-0.038735468
OrientationDeg,1676595091885,122595516654307,75.0,2.0,-26.0
UncalGyro,1676595091890,122595521156261,0.52305335,-1.8982637,-0.6035349,0.00034467055,-0.00073837844,-0.0032794788
UncalMag,1676595091891,122595522156994,-69.0032,-11.8949995,-104.212395,-45.491467,0.31409264,-60.09035
UncalAccel,1676595091895,122595525633434,3.0622149,4.56072,10.877771,0.006110925,-0.043260336,-0.038735468
OrientationDeg,1676595091894,122595525633434,76.0,2.0,-27.0
UncalGyro,1676595091899,122595530144908,0.7499898,-1.8988746,-0.86727595,0.00034467055,-0.00073837844,-0.0032794788
UncalMag,1676595091901,122595532153576,-69.0642,-11.9316,-103.456,-45.491467,0.31409264,-60.09035
UncalAccel,1676595091904,122595534628551,2.9886355,4.5469613,10.305887,0.006110925,-0.043260336,-0.038735468
OrientationDeg,1676595091903,122595534628551,76.0,1.0,-27.0
UncalGyro,1676595091908,122595539123607,0.9450085,-1.9485074,-1.1435398,0.00034467055,-0.00073837844,-0.0032794788
UncalMag,1676595091911,122595542165294,-68.6616,-12.3952,-101.418594,-45.491467,0.31409264,-60.09035
UncalAccel,1676595091913,122595543607616,2.5669005,4.6354957,9.965508,0.006110925,-0.043260336,-0.038735468
OrientationDeg,1676595091913,122595543607616,77.0,0.0,-28.0
UncalGyro,1676595091917,122595548099010,1.1023064,-1.9914207,-1.4153748,0.00034467055,-0.00073837844,-0.0032794788
UncalMag,1676595091921,122595552165294,-69.4668,-12.932,-100.8574,-45.491467,0.31409264,-60.09035
UncalAccel,1676595091921,122595552588817,2.149353,4.64746,9.5348,0.006110925,-0.043260336,-0.038735468
OrientationDeg,1676595091921,122595552588817,78.0,0.0,-28.0
UncalGyro,1676595091926,122595557078502,1.2105823,-2.0387628,-1.6633861,0.00034467055,-0.00073837844,-0.0032794788
UncalAccel,1676595091930,122595561567455,1.3776677,4.5272202,9.316455,0.006110925,-0.043260336,-0.038735468
UncalMag,1676595091931,122595562153820,-73.1024,-15.591599,-103.6634,-45.491467,0.31409264,-60.09035
OrientationDeg,1676595091930,122595561567455,79.0,0.0,-29.0
UncalGyro,1676595091935,122595566057506,1.2308935,-1.9691241,-1.8472565,0.00034467055,-0.00073837844,-0.0032794788
UncalAccel,1676595091940,122595570546459,0.25603202,4.0163527,9.790234,0.006110925,-0.043260336,-0.038735468
OrientationDeg,1676595091939,122595570546459,80.0,0.0,-29.0
UncalMag,1676595091942,122595572165539,-73.0414,-16.2992,-103.9196,-45.491467,0.31409264,-60.09035
UncalGyro,1676595091945,122595575037609,1.0245737,-1.5112807,-1.9491183,0.00034467055,-0.00073837844,-0.0032794788
UncalAccel,1676595091949,122595579526500,-0.7399804,3.6963127,9.216555,0.006110925,-0.043260336,-0.038735468
OrientationDeg,1676595091949,122595579526500,81.0,0.0,-30.0
UncalMag,1676595091951,122595582165294,-71.1504,-16.653,-102.0652,-45.491467,0.31409264,-60.09035
UncalGyro,1676595091953,122595584017711,0.8029824,-1.0517572,-1.9240729,0.00034467055,-0.00073837844,-0.0032794788
UncalAccel,1676595091958,122595588502452,-1.588236,3.2685957,7.4901333,0.006110925,-0.043260336,-0.038735468
OrientationDeg,1676595091957,122595588502452,82.0,0.0,-30.0
UncalMag,1676595091961,122595592165539,-71.0162,-17.0068,-103.4682,-45.491467,0.31409264,-60.09035
UncalGyro,1676595091962,122595592979076,0.61682117,-0.7284568,-1.7457001,0.00034467055,-0.00073837844,-0.0032794788
UncalAccel,1676595091967,122595597485851,-3.8207395,3.996612,6.9882383,0.006110925,-0.043260336,-0.038735468
OrientationDeg,1676595091966,122595597485851,83.0,0.0,-31.0
UncalGyro,1676595091971,122595601977123,0.3678936,-0.38606682,-1.271516,0.00034467055,-0.00073837844,-0.0032794788
UncalMag,1676595091971,122595602153087,-70.271996,-17.263,-103.0046,-45.491467,0.31409264,-60.09035
UncalAccel,1676595091975,122595606469554,-9.338589,5.132006,6.3595243,0.006110925,-0.043260336,-0.038735468
OrientationDeg,1676595091975,122595606469554,84.0,0.0,-31.0
UncalGyro,1676595091980,122595610956981,0.11285736,-0.20570888,-0.31398472,0.00034467055,-0.00073837844,-0.0032794788
UncalMag,1676595091982,122595612165539,-75.7864,-19.397999,-106.7256,-45.491467,0.31409264,-60.09035
UncalAccel,1676595091985,122595615449047,-9.676575,5.5896335,5.9264235,0.006110925,-0.043260336,-0.038735468
OrientationDeg,1676595091984,122595615449047,84.0,0.0,-31.0
UncalGyro,1676595091988,122595619935802,-0.18112154,-0.21655174,0.59223384,0.00034467055,-0.00073837844,-0.0032794788
UncalMag,1676595091991,122595622154064,-71.6994,-17.1532,-105.225,-45.491467,0.31409264,-60.09035
UncalAccel,1676595091994,122595624425060,-4.260421,3.993621,5.2516475,0.006110925,-0.043260336,-0.038735468
OrientationDeg,1676595091993,122595624425060,83.0,0.0,-30.0
UncalGyro,1676595091997,122595628913707,-0.5233588,-0.36987892,0.95294976,0.00034467055,-0.00073837844,-0.0032794788
UncalMag,1676595092002,122595632153576,-75.578995,-18.812399,-106.4816,-45.491467,0.31409264,-60.09035
UncalAccel,1676595092002,122595633401622,-0.3696911,2.781058,5.163113,0.006110925,-0.043260336,-0.038735468
OrientationDeg,1676595092002,122595633401622,83.0,-1.0,-30.0
UncalGyro,1676595092006,122595637885631,-0.74128497,-0.5656612,0.9992228,0.00034467055,-0.00073837844,-0.0032794788
UncalMag,1676595092012,122595642165294,-76.506195,-17.9828,-104.8468,-45.491467,0.31409264,-60.09035
UncalAccel,1676595092012,122595642380809,1.1641082,3.0125637,6.8249283,0.006110925,-0.043260336,-0.038735468
OrientationDeg,1676595092012,122595642380809,82.0,-1.0,-30.0
UncalGyro,1676595092016,122595646862804,-0.7796168,-0.6414085,0.9579894,0.00034467055,-0.00073837844,-0.0032794788
UncalAccel,1676595092021,122595651365001,1.777269,3.8578284,8.390432,0.006110925,-0.043260336,-0.038735468
UncalMag,1676595092021,122595652153576,-74.542,-16.4822,-105.444595,-45.491467,0.31409264,-60.09035
OrientationDeg,1676595092021,122595651365001,81.0,-2.0,-29.0
UncalGyro,1676595092025,122595655853832,-0.7286095,-0.6666067,0.8717047,0.00034467055,-0.00073837844,-0.0032794788
UncalAccel,1676595092029,122595660346629,2.018944,4.2981076,9.432507,0.006110925,-0.043260336,-0.038735468
OrientationDeg,1676595092029,122595660346629,81.0,-3.0,-29.0
UncalMag,1676595092032,122595662165539,-73.7856,-16.2992,-104.212395,-45.491467,0.31409264,-60.09035
UncalGyro,1676595092033,122595664833263,-0.6721045,-0.6430884,0.733191,0.00034467055,-0.00073837844,-0.0032794788
UncalAccel,1676595092039,122595669322154,2.021337,4.0827537,10.456037,0.006110925,-0.043260336,-0.038735468
OrientationDeg,1676595092038,122595669322154,81.0,-3.0,-28.0
UncalMag,1676595092042,122595672165539,-77.3602,-16.909199,-105.408,-45.491467,0.31409264,-60.09035
UncalGyro,1676595092043,122595673813671,-0.61682117,-0.45570546,0.5861252,0.00034467055,-0.00073837844,-0.0032794788
UncalAccel,1676595092047,122595678301647,1.9130617,3.676572,11.506486,0.006110925,-0.043260336,-0.038735468
OrientationDeg,1676595092048,122595678301647,80.0,-3.0,-28.0
UncalMag,1676595092052,122595682165294,-77.7018,-16.043,-107.311195,-45.491467,0.31409264,-60.09035
UncalGyro,1676595092052,122595682792858,-0.5364924,-0.0852157,0.4914411,0.00034467055,-0.00073837844,-0.0032794788
UncalAccel,1676595092057,122595687282481,1.6761723,3.3326037,11.694323,0.006110925,-0.043260336,-0.038735468
OrientationDeg,1676595092057,122595687282481,80.0,-3.0,-28.0
UncalGyro,1676595092060,122595691778209,-0.4428773,0.28985557,0.4642576,0.00034467055,-0.00073837844,-0.0032794788
UncalMag,1676595092062,122595692153331,-78.5436,-16.3724,-109.068,-45.491467,0.31409264,-60.09035
UncalAccel,1676595092066,122595696261974,1.3812568,3.0514472,11.115259,0.006110925,-0.043260336,-0.038735468
Status,0,33,0,3,15,1602000000,41.34,302.0,80.0,1,1,1,37.142475
Status,0,33,1,1,11,1176450050,44.55,106.0,77.0,1,1,1,40.450123
Status,0,33,2,1,11,1575420030,43.82,106.0,77.0,1,1,1,39.62145
Status,0,33,3,6,2,1575420030,43.57,116.0,74.0,1,1,1,39.373177
Status,0,33,4,6,2,1176450050,41.01,116.0,74.0,1,1,1,36.90578
Status,0,33,5,3,17,1604249980,44.41,333.0,71.0,1,1,1,40.212532
Status,0,33,6,1,12,1575420030,43.69,329.0,69.0,1,1,1,39.489384
Status,0,33,7,6,34,1575420030,41.55,209.0,62.0,1,1,1,37.345173
Status,0,33,8,6,34,1176450050,40.89,209.0,62.0,1,1,1,36.790764
Status,0,33,9,6,36,1575420030,43.41,48.0,60.0,1,1,1,39.206425
Status,0,33,10,6,36,1176450050,38.18,48.0,60.0,1,1,1,34.078144
Status,0,33,11,6,30,1176450050,44.31,316.0,49.0,1,1,1,40.206337
Status,0,33,12,6,30,1575420030,42.79,316.0,49.0,1,1,1,38.594288
Status,0,33,13,3,14,1598062460,42.43,155.0,41.0,1,1,1,38.230263
Status,0,33,14,1,6,1176450050,41.18,46.0,41.0,1,1,1,37.081783
Status,0,33,15,1,6,1575420030,45.71,46.0,41.0,1,1,1,41.512512
Status,0,33,16,3,18,1600312450,39.30,244.0,39.0,1,1,1,35.097248
Status,0,33,17,1,25,1575420030,46.52,313.0,38.0,1,1,1,42.317657
Status,0,33,18,1,25,1176450050,45.30,313.0,38.0,1,1,1,41.20207
Status,0,33,19,1,24,1575420030,33.89,216.0,35.0,1,1,1,29.69162
Status,0,33,20,1,24,1176450050,36.24,216.0,35.0,1,1,1,32.14337
Status,0,33,21,1,20,1575420030,40.55,139.0,29.0,1,1,1,36.35218
Status,0,33,22,3,24,1603124990,46.03,36.0,27.0,1,1,1,41.827496
Status,0,33,23,3,16,1601437440,45.64,328.0,25.0,1,1,1,41.44123
Status,0,33,24,6,25,1575420030,37.44,129.0,23.0,1,1,1,33.23646
Status,0,33,25,6,25,1176450050,35.04,129.0,23.0,0,1,1,30.935305
Status,0,33,26,1,19,1575420030,47.22,63.0,22.0,1,1,1,43.02453
Status,0,33,27,1,29,1575420030,42.49,267.0,17.0,1,1,1,38.2866
Status,0,33,28,1,2,1575420030,39.82,218.0,15.0,1,1,1,35.616116
Status,0,33,29,6,15,1176450050,36.62,217.0,12.0,1,1,1,32.52342
Status,0,33,30,6,15,1575420030,36.89,217.0,12.0,1,1,1,32.691208
Status,0,33,31,6,11,1176450050,33.46,41.0,11.0,1,1,1,29.358828
Status,0,33,32,6,11,1575420030,38.85,41.0,11.0,1,1,1,34.65296
OrientationDeg,1676595092065,122595696261974,80.0,-3.0,-28.0
Fix,GPS,37.4311463845,-122.1551377895,-9.297467268721567,0.21779914,3.0574498,71.161606,1676595090999,0.09470667,180.0,122595611392000,3.0
Fix,FLP,37.4311502000,-122.1551417000,-16.5,0.18993968,4.109,77.5111,1676595091997,,,122595628913707,3.52726
Raw,1676595090999,54136000000,,,-1360630254863938258,0.0,7.308927678625134,295.0,1.0,23,2,0.0,16431,435108919588564,22,36.967647552490234,-539.3320733100607,0.15,16,-29134.002370879218,340282346638528860000000000000000000000,1575420030,,,,0,,1,,32.76764678955078,0.0,1.0,0.0,1.0,C,122595611392000
Raw,1676595090999,54136000000,,,-1360630254863938258,0.0,7.308927678625134,295.0,1.0,23,6,0.0,16431,435108927128203,10,45.7125129699707,584.8289149346429,0.15,16,31459.928610841303,340282346638528860000000000000000000000,1575420030,,,,0,,1,,41.51251220703125,0.320142130558394,1.0,0.320142130558394,1.0,C,122595611392000
Raw,1676595090999,54136000000,,,-1360630254863938258,0.0,7.308927678625134,295.0,1.0,23,11,0.0,16431,435108931998285,12,43.821449279785156,82.91878244363886,0.15,16,4320.339766115273,340282346638528860000000000000000000000,1575420030,,,,0,,1,,39.6214485168457,-0.20372681261465636,1.0,-0.20372681261465636,1.0,C,122595611392000
Raw,1676595090999,54136000000,,,-1360630254863938258,0.0,7.308927678625134,295.0,1.0,23,12,0.0,16431,435108931785967,18,39.37689971923828,-138.1163262147977,0.15,16,-7519.265274753085,340282346638528860000000000000000000000,1575420030,,,,0,,1,,35.17689895629883,-0.6984919076624261,1.0,-0.6984919076624261,1.0,C,122595611392000
Raw,1676595090999,54136000000,,,-1360630254863938258,0.0,7.308927678625134,295.0,1.0,23,19,0.0,16431,435108922684226,11,47.22452926635742,602.796436199425,0.15,16,32449.498962073074,340282346638528860000000000000000000000,1575420030,,,,0,,1,,43.02452850341797,0.0,1.0,0.0,1.0,C,122595611392000
Raw,1676595090999,54136000000,,,-1360630254863938258,0.0,7.308927678625134,295.0,1.0,23,20,0.0,16431,435108923844211,18,39.359153747558594,-427.53858257661204,0.15,16,-23104.74626434056,340282346638528860000000000000000000000,1575420030,,,,0,,1,,35.15915298461914,0.0,1.0,0.0,1.0,C,122595611392000
Raw,1676595090999,54136000000,,,-1360630254863938258,0.0,7.308927678625134,295.0,1.0,23,24,0.0,16431,435108924425696,47,27.554443359375,629.8295500747095,0.8992242770623586,16,32576.328839328864,340282346638528860000000000000000000000,1575420030,,,,0,,1,,23.354442596435547,-0.20372681261465636,1.0,-0.20372681261465636,1.0,C,122595611392000
Raw,1676595090999,54136000000,,,-1360630254863938258,0.0,7.308927678625134,295.0,1.0,23,25,0.0,16431,435108927394220,13,45.8112678527832,-420.13157863033575,0.15,16,-22696.61570339035,340282346638528860000000000000000000000,1575420030,,,,0,,1,,41.61126708984375,-2.0372682255564105,1.0,-2.0372682255564105,1.0,C,122595611392000
Raw,1676595090999,54136000000,,,-1360630254863938258,0.0,7.308927678625134,295.0,1.0,23,29,0.0,16431,435108919275508,20,37.94135665893555,-397.4218243649698,0.15,16,-21352.594643679597,340282346638528860000000000000000000000,1575420030,,,,0,,1,,33.741355895996094,-0.6984919076624261,1.0,-0.6984919076624261,1.0,C,122595611392000
Raw,1676595090999,54136000000,,,-1360630254863938258,0.0,7.308927678625134,295.0,1.0,23,6,0.0,81921,435108927128764,11,40.07233428955078,584.6076516268968,0.15,16,33244.755278833676,340282346638528860000000000000000000000,1176450050,,,,0,,1,,35.97233581542969,1.9208527336454408,2.6214259003862685,1.9208527336454408,1.0,Q,122595611392000
Raw,1676595090999,54136000000,,,-1360630254863938258,0.0,7.308927678625134,295.0,1.0,23,11,0.0,81921,435108931998829,7,44.55012130737305,83.06788467031203,0.15,16,4531.407900088242,340282346638528860000000000000000000000,1176450050,,,,0,,1,,40.45012283325195,0.0,2.6214259003862685,0.0,1.0,Q,122595611392000
Raw,1676595090999,54136000000,,,-1360630254863938258,0.0,7.308927678625134,295.0,1.0,23,24,0.0,81921,435108924426219,11,33.971405029296875,630.4382627482069,0.6061638116609513,16,33186.40373859433,340282346638528860000000000000000000000,1176450050,,,,0,,1,,29.87140464782715,3.5215636101095664,2.6214259003862685,3.5215636101095664,1.0,Q,122595611392000
Raw,1676595090999,54136000000,,,-1360630254863938258,0.0,7.308927678625134,295.0,1.0,23,25,0.0,81921,435108927394750,8,43.07603454589844,-420.0905774351388,0.15,16,-24006.993399298255,340282346638528860000000000000000000000,1176450050,,,,0,,1,,38.976036071777344,1.0186341127782053,2.6214259003862685,1.0186341127782053,1.0,Q,122595611392000
Raw,1676595090999,54136000000,,,-1360630254863938258,0.0,7.308927678625134,295.0,1.0,23,14,0.0,32867,13890930415820,33,42.43026351928711,708.9502687695876,0.15,16,38744.629724865445,340282346638528860000000000000000000000,1598062460,,,,0,,3,,38.230262756347656,50.29141902923584,2.0000000474974513,50.29141902923584,2.0000000474974513,C,122595611392000
Raw,1676595090999,54136000000,,,-1360630254863938258,0.0,7.308927678625134,295.0,1.0,23,18,0.0,32995,13890930016722,73,30.700397491455078,-360.81235818573214,0.7587599560987894,16,-19763.637190952944,340282346638528860000000000000000000000,1600312450,,,,0,,3,,26.500396728515625,50.29141902923584,2.0000000474974513,50.29141902923584,2.0000000474974513,C,122595611392000
Raw,1676595090999,54136000000,,,-1360630254863938258,0.0,7.308927678625134,295.0,1.0,23,16,0.0,32995,13890926128994,33,44.141056060791016,-625.5285485562699,0.15,16,-33127.604064317864,340282346638528860000000000000000000000,1601437440,,,,0,,3,,39.94105529785156,50.29141902923584,2.0000000474974513,50.29141902923584,2.0000000474974513,C,122595611392000
Raw,1676595090999,54136000000,,,-1360630254863938258,0.0,7.308927678625134,295.0,1.0,23,15,0.0,32995,13890935927252,33,41.34247589111328,-8.986259302484896,0.15,16,-668.2110590824167,340282346638528860000000000000000000000,1602000000,,,,0,,3,,37.14247512817383,50.29141902923584,2.0000000474974513,50.29141902923584,2.0000000474974513,C,122595611392000
Raw,1676595090999,54136000000,,,-1360630254863938258,0.0,7.308927678625134,295.0,1.0,23,24,0.0,32995,13890926568210,33,40.845699310302734,736.9806353227295,0.15,16,39369.300963466674,340282346638528860000000000000000000000,1603124990,,,,0,,3,,36.64569854736328,50.29141902923584,2.0000000474974513,50.29141902923584,2.0000000474974513,C,122595611392000
Raw,1676595090999,54136000000,,,-1360630254863938258,0.0,7.308927678625134,295.0,1.0,23,17,0.0,32995,13890935722598,33,41.0413932800293,234.22259947835107,0.15,16,12488.365240006102,340282346638528860000000000000000000000,1604249980,,,,0,,3,,36.841392517089844,50.29141902923584,2.0000000474974513,50.29141902923584,2.0000000474974513,C,122595611392000
Raw,1676595090999,54136000000,,,-1360630254863938258,0.0,7.308927678625134,295.0,1.0,23,2,0.0,85026,435108921782579,12,43.573177337646484,209.8806022876512,0.15,16,11238.341121379572,340282346638528860000000000000000000000,1575420030,,,,0,,6,,39.37317657470703,-6.024492904543876,1.5000000237487257,-6.024492904543876,1.5000000237487257,C,122595611392000
Raw,1676595090999,54136000000,,,-1360630254863938258,0.0,7.308927678625134,295.0,1.0,23,11,0.0,85026,435108908494248,28,33.72994613647461,624.0548913011366,0.6215310055148651,16,32257.645518766993,340282346638528860000000000000000000000,1575420030,,,,0,,6,,29.52994728088379,-6.024492904543876,1.5000000237487257,-6.024492904543876,1.5000000237487257,C,122595611392000
Raw,1676595090999,54136000000,,,-1360630254863938258,0.0,7.308927678625134,295.0,1.0,23,15,0.0,85026,435108907753257,22,36.89120864868164,-462.48976683373235,0.15,16,-24314.13319861774,340282346638528860000000000000000000000,1575420030,,,,0,,6,,32.69120788574219,-6.024492904543876,1.5000000237487257,-6.024492904543876,1.5000000237487257,C,122595611392000
Raw,1676595090999,54136000000,,,-1360630254863938258,0.0,7.308927678625134,295.0,1.0,23,25,0.0,85026,435108910890011,50,26.729507446289062,552.1474518696591,0.9367637730668079,16,28741.31499316846,340282346638528860000000000000000000000,1575420030,,,,1,,6,,22.529508590698242,-6.024492904543876,1.5000000237487257,-6.024492904543876,1.5000000237487257,C,122595611392000
Raw,1676595090999,54136000000,,,-1360630254863938258,0.0,7.308927678625134,295.0,1.0,23,30,0.0,85026,435108916900277,19,38.59869384765625,-260.40688977393495,0.15,16,-13726.388769378696,340282346638528860000000000000000000000,1575420030,,,,0,,6,,34.3986930847168,-6.024492904543876,1.5000000237487257,-6.024492904543876,1.5000000237487257,C,122595611392000
Raw,1676595090999,54136000000,,,-1360630254863938258,0.0,7.308927678625134,295.0,1.0,23,34,0.0,85026,435108920508213,15,41.54517364501953,-185.95279214984475,0.15,16,-10369.875338302552,340282346638528860000000000000000000000,1575420030,,,,0,,6,,37.34517288208008,-6.024492904543876,1.5000000237487257,-6.024492904543876,1.5000000237487257,C,122595611392000
Raw,1676595090999,54136000000,,,-1360630254863938258,0.0,7.308927678625134,295.0,1.0,23,36,0.0,85026,435108920136073,13,42.84556198120117,343.3929169042933,0.15,16,17971.816656585346,340282346638528860000000000000000000000,1575420030,,,,0,,6,,38.64556121826172,-6.024492904543876,1.5000000237487257,-6.024492904543876,1.5000000237487257,C,122595611392000
Raw,1676595090999,54136000000,,,-1360630254863938258,0.0,7.308927678625134,295.0,1.0,23,2,0.0,84003,435108921783123,7,40.7681884765625,209.89334912639072,0.15,16,11283.051243078462,340282346638528860000000000000000000000,1176450050,,,,0,,6,,36.668190002441406,-4.362151958048344,3.121425924134994,-4.362151958048344,1.5000000237487257,Q,122595611392000
Raw,1676595090999,54136000000,,,-1360630254863938258,0.0,7.308927678625134,295.0,1.0,23,11,0.0,84003,435108908494782,68,24.202350616455078,624.8733474120754,1.0461989463274657,16,32255.897811032733,340282346638528860000000000000000000000,1176450050,,,,0,,6,,20.10235023498535,4.134257324039933,3.121425924134994,4.134257324039933,1.5000000237487257,Q,122595611392000
Raw,1676595090999,54136000000,,,-1360630254863938258,0.0,7.308927678625134,295.0,1.0,23,15,0.0,84003,435108907753759,22,29.842355728149414,-462.56747483460435,0.7924410783825842,16,-23865.170622686772,340282346638528860000000000000000000000,1176450050,,,,0,,6,,25.742355346679688,-11.196220293641087,3.121425924134994,-11.196220293641087,1.5000000237487257,Q,122595611392000
Raw,1676595090999,54136000000,,,-1360630254863938258,0.0,7.308927678625134,295.0,1.0,23,25,0.0,16384,435108910890521,1000000000,31.17536163330078,546.8825303158414,299792458,16,28192.90198312747,340282346638528860000000000000000000000,1176450050,,,,0,,6,,27.075361251831055,-8.795061148703097,3.121425924134994,-8.795061148703097,1.5000000237487257,Q,122595611392000
Raw,1676595090999,54136000000,,,-1360630254863938258,0.0,7.308927678625134,295.0,1.0,23,30,0.0,84003,435108916900831,8,41.748512268066406,-260.3858608982604,0.15,16,-13412.768613578457,340282346638528860000000000000000000000,1176450050,,,,0,,6,,37.64851379394531,-8.425652049481869,3.121425924134994,-8.425652049481869,1.5000000237487257,Q,122595611392000
Raw,1676595090999,54136000000,,,-1360630254863938258,0.0,7.308927678625134,295.0,1.0,23,34,0.0,84003,435108920508780,11,40.89076232910156,-185.98697685373713,0.15,16,-10506.260891148007,340282346638528860000000000000000000000,1176450050,,,,0,,6,,36.79076385498047,-10.0879929959774,3.121425924134994,-10.0879929959774,1.5000000237487257,Q,122595611392000
Raw,1676595090999,54136000000,,,-1360630254863938258,0.0,7.308927678625134,295.0,1.0,23,36,0.0,84003,435108920136634,7,38.17814254760742,343.3179014174866,0.15,16,18652.387508709642,340282346638528860000000000000000000000,1176450050,,,,0,,6,,34.07814407348633,-11.011515744030472,3.121425924134994,-11.011515744030472,1.5000000237487257,Q,122595611392000
UncalGyro,1676595092069,122595700751781,-0.3465133,0.5021312,0.46471575,0.00034467055,-0.00073837844,-0.0032794788
UncalMag,1676595092071,122595702165294,-77.2382,-15.6648,-106.9452,-45.491467,0.31409264,-60.09035
UncalAccel,1676595092074,122595705239025,1.1623136,3.0855448,10.094122,0.006110925,-0.043260336,-0.038735468
OrientationDeg,1676595092075,122595705239025,80.0,-3.0,-27.0
UncalGyro,1676595092079,122595709732066,-0.26526824,0.52015173,0.47494772,0.00034467055,-0.00073837844,-0.0032794788
UncalMag,1676595092082,122595712165294,-75.1154,-14.969399,-106.676796,-45.491467,0.31409264,-60.09035
UncalAccel,1676595092083,122595714225353,1.1324034,3.109473,9.470194,0.006110925,-0.043260336,-0.038735468
OrientationDeg,1676595092084,122595714225353,79.0,-3.0,-27.0
UncalGyro,1676595092088,122595718710704,-0.20112738,0.46761733,0.49571714,0.00034467055,-0.00073837844,-0.0032794788
UncalMag,1676595092092,122595722153820,-72.9804,-14.2252,-104.249,-45.491467,0.31409264,-60.09035
UncalAccel,1676595092092,122595723199596,1.1563315,2.7738798,9.863813,0.006110925,-0.043260336,-0.038735468
OrientationDeg,1676595092093,122595723199596,79.0,-3.0,-27.0
UncalGyro,1676595092097,122595727689342,-0.13072516,0.49388456,0.5494733,0.00034467055,-0.00073837844,-0.0032794788
UncalMag,1676595092101,122595732153576,-78.9584,-15.8722,-107.665,-45.491467,0.31409264,-60.09035
UncalAccel,1676595092102,122595732180248,1.2819548,2.7110682,10.445868,0.006110925,-0.043260336,-0.038735468
OrientationDeg,1676595092102,122595732180248,79.0,-3.0,-27.0
UncalGyro,1676595092105,122595736670971,-0.021533,0.5401576,0.60139686,0.00034467055,-0.00073837844,-0.0032794788
UncalAccel,1676595092111,122595741158946,1.683949,3.0681968,10.625927,0.006110925,-0.043260336,-0.038735468
UncalMag,1676595092112,122595742153820,-74.310196,-14.347199,-104.127,-45.491467,0.31409264,-60.09035
OrientationDeg,1676595092111,122595741158946,78.0,-3.0,-27.0
UncalGyro,1676595092114,122595745648143,0.14187345,0.52931476,0.59498274,0.00034467055,-0.00073837844,-0.0032794788
UncalAccel,1676595092119,122595750129649,1.8532411,3.196811,10.389038,0.006110925,-0.043260336,-0.038735468
OrientationDeg,1676595092119,122595750129649,78.0,-3.0,-27.0
UncalMag,1676595092122,122595752165294,-75.7742,-14.457,-105.5544,-45.491467,0.31409264,-60.09035
UncalGyro,1676595092124,122595754628856,0.33841935,0.4353942,0.54076844,0.00034467055,-0.00073837844,-0.0032794788
UncalAccel,1676595092128,122595759117260,2.021337,3.6843486,9.906285,0.006110925,-0.043260336,-0.038735468
OrientationDeg,1676595092129,122595759117260,78.0,-3.0,-27.0
UncalMag,1676595092132,122595762165539,-73.3342,-14.115399,-106.1034,-45.491467,0.31409264,-60.09035
UncalGyro,1676595092132,122595763611034,0.52519137,0.2591596,0.42103887,0.00034467055,-0.00073837844,-0.0032794788
UncalAccel,1676595092137,122595768098461,2.0703897,4.168297,9.379865,0.006110925,-0.043260336,-0.038735468
OrientationDeg,1676595092138,122595768098461,77.0,-3.0,-28.0
UncalMag,1676595092141,122595772165050,-75.8596,-14.7864,-106.5792,-45.491467,0.31409264,-60.09035
UncalGyro,1676595092141,122595772588268,0.674548,0.041691553,0.2657264,0.00034467055,-0.00073837844,-0.0032794788
UncalAccel,1676595092147,122595777076793,1.7336,4.342973,9.302696,0.006110925,-0.043260336,-0.038735468
OrientationDeg,1676595092146,122595777076793,77.0,-3.0,-28.0
UncalGyro,1676595092150,122595781566906,0.7910705,-0.11178834,0.15103643,0.00034467055,-0.00073837844,-0.0032794788
UncalMag,1676595092152,122595782154552,-72.8218,-13.481,-104.92,-45.491467,0.31409264,-60.09035
UncalAccel,1676595092155,122595786056408,1.5918252,4.022933,9.591031,0.006110925,-0.043260336,-0.038735468
OrientationDeg,1676595092156,122595786056408,77.0,-3.0,-28.0
UncalGyro,1676595092160,122595790547191,0.90209526,-0.17180584,0.122783914,0.00034467055,-0.00073837844,-0.0032794788
UncalMag,1676595092162,122595792165294,-71.797,-13.8592,-104.370995,-45.491467,0.31409264,-60.09035
UncalAccel,1676595092164,122595795036327,1.8831514,3.699902,9.938589,0.006110925,-0.043260336,-0.038735468
OrientationDeg,1676595092165,122595795036327,77.0,-3.0,-29.0
UncalGyro,1676595092169,122595799524242,1.0158689,-0.15027285,0.14630222,0.00034467055,-0.00073837844,-0.0032794788
UncalMag,1676595092171,122595802165539,-71.7482,-14.1642,-102.333595,-45.491467,0.31409264,-60.09035
UncalAccel,1676595092173,122595804004955,2.1026928,3.8757744,10.083953,0.006110925,-0.043260336,-0.038735468
OrientationDeg,1676595092174,122595804004955,77.0,-3.0,-29.0
UncalGyro,1676595092177,122595808506359,1.1090258,-0.055588737,0.14630222,0.00034467055,-0.00073837844,-0.0032794788
UncalMag,1676595092181,122595812165539,-72.5534,-14.884,-102.162796,-45.491467,0.31409264,-60.09035
UncalAccel,1676595092181,122595812995433,2.035694,4.3316073,9.93799,0.006110925,-0.043260336,-0.038735468
OrientationDeg,1676595092182,122595812995433,77.0,-3.0,-30.0
UncalGyro,1676595092186,122595817489757,1.1400273,0.07498371,0.09315695,0.00034467055,-0.00073837844,-0.0032794788
UncalAccel,1676595092190,122595821971385,2.1302104,4.747958,8.791828,0.006110925,-0.043260336,-0.038735468
UncalMag,1676595092192,122595822153331,-72.9926,-15.4086,-104.212395,-45.491467,0.31409264,-60.09035
OrientationDeg,1676595092191,122595821971385,77.0,-3.0,-31.0
UncalGyro,1676595092196,122595826452526,1.057255,0.10629055,-0.0056505036,0.00034467055,-0.00073837844,-0.0032794788
UncalAccel,1676595092199,122595830954356,2.3419752,4.8179483,7.578069,0.006110925,-0.043260336,-0.038735468
UncalMag,1676595092202,122595832154064,-75.103195,-16.531,-104.7126,-45.491467,0.31409264,-60.09035
OrientationDeg,1676595092200,122595830954356,77.0,-3.0,-31.0
UncalGyro,1676595092205,122595835445445,0.8570439,0.063682705,-0.11866058,0.00034467055,-0.00073837844,-0.0032794788
UncalAccel,1676595092209,122595839938366,2.3102703,4.5876393,6.8668027,0.006110925,-0.043260336,-0.038735468
OrientationDeg,1676595092209,122595839938366,77.0,-3.0,-31.0
UncalMag,1676595092211,122595842165539,-73.9442,-16.4212,-105.0908,-45.491467,0.31409264,-60.09035
UncalGyro,1676595092214,122595844421581,0.61575216,0.00030543262,-0.20799962,0.00034467055,-0.00073837844,-0.0032794788
UncalAccel,1676595092217,122595848901683,2.0991037,4.3058844,6.745367,0.006110925,-0.043260336,-0.038735468
OrientationDeg,1676595092217,122595848901683,77.0,-3.0,-32.0
UncalMag,1676595092222,122595852165294,-74.5786,-17.1166,-104.663795,-45.491467,0.31409264,-60.09035
UncalGyro,1676595092222,122595853404063,0.3717115,-0.020616703,-0.2678644,0.00034467055,-0.00073837844,-0.0032794788
UncalAccel,1676595092226,122595857893199,1.9513469,4.000201,7.171888,0.006110925,-0.043260336,-0.038735468
OrientationDeg,1676595092226,122595857893199,77.0,-3.0,-32.0
UncalMag,1676595092232,122595862165294,-74.4932,-16.2016,-106.5792,-45.491467,0.31409264,-60.09035
UncalGyro,1676595092231,122595862384166,0.17394388,-0.003970624,-0.2930626,0.00034467055,-0.00073837844,-0.0032794788
UncalAccel,1676595092236,122595866861156,1.7407784,3.795615,8.018349,0.006110925,-0.043260336,-0.038735468
OrientationDeg,1676595092235,122595866861156,77.0,-3.0,-32.0
UncalGyro,1676595092241,122595871363841,0.0627664,0.0364992,-0.2593123,0.00034467055,-0.00073837844,-0.0032794788
UncalMag,1676595092242,122595872165294,-73.9564,-17.1654,-104.822395,-45.491467,0.31409264,-60.09035
UncalAccel,1676595092245,122595875853283,1.8825532,4.0588255,8.706285,0.006110925,-0.043260336,-0.038735468
OrientationDeg,1676595092244,122595875853283,77.0,-3.0,-32.0
UncalGyro,1676595092249,122595880345958,0.052839845,0.041691553,-0.2144137,0.00034467055,-0.00073837844,-0.0032794788
UncalMag,1676595092252,122595882165294,-73.9808,-16.945799,-103.4682,-45.491467,0.31409264,-60.09035
UncalAccel,1676595092254,122595884832103,2.2564318,4.6031923,9.101699,0.006110925,-0.043260336,-0.038735468
OrientationDeg,1676595092253,122595884832103,77.0,-3.0,-32.0
UncalGyro,1676595092259,122595889323497,0.13469578,0.023518313,-0.20158553,0.00034467055,-0.00073837844,-0.0032794788
UncalMag,1676595092262,122595892165294,-72.5046,-16.4578,-103.3096,-45.491467,0.31409264,-60.09035
UncalAccel,1676595092263,122595893811290,2.7828526,5.0847483,9.440284,0.006110925,-0.043260336,-0.038735468
OrientationDeg,1676595092263,122595893811290,77.0,-3.0,-32.0
UncalGyro,1676595092267,122595898302013,0.2706133,0.043676864,-0.2585487,0.00034467055,-0.00073837844,-0.0032794788
UncalMag,1676595092272,122595902161876,-73.2732,-17.0922,-102.7118,-45.491467,0.31409264,-60.09035
UncalAccel,1676595092271,122595902787609,3.2069805,5.0823555,9.456435,0.006110925,-0.043260336,-0.038735468
OrientationDeg,1676595092271,122595902787609,78.0,-3.0,-32.0
UncalGyro,1676595092277,122595907270336,0.3817908,0.08689558,-0.4071417,0.00034467055,-0.00073837844,-0.0032794788
UncalAccel,1676595092281,122595911771617,3.3589249,4.7694936,9.083753,0.006110925,-0.043260336,-0.038735468
UncalMag,1676595092281,122595912153576,-72.5534,-16.9702,-103.8586,-45.491467,0.31409264,-60.09035
OrientationDeg,1676595092280,122595911771617,78.0,-2.0,-32.0
UncalGyro,1676595092285,122595916261547,0.41645738,0.15561792,-0.57848936,0.00034467055,-0.00073837844,-0.0032794788
UncalAccel,1676595092289,122595920752940,2.9431717,4.546363,8.880363,0.006110925,-0.043260336,-0.038735468
OrientationDeg,1676595092290,122595920752940,78.0,-2.0,-33.0
UncalMag,1676595092292,122595922165050,-72.8706,-17.019,-105.1152,-45.491467,0.31409264,-60.09035
UncalGyro,1676595092294,122595925240490,0.41355577,0.26297748,-0.66431594,0.00034467055,-0.00073837844,-0.0032794788
UncalAccel,1676595092299,122595929729503,2.2331018,4.4021955,8.633304,0.006110925,-0.043260336,-0.038735468
OrientationDeg,1676595092298,122595929729503,79.0,-2.0,-33.0
UncalMag,1676595092302,122595932166027,-73.1146,-17.0678,-104.8468,-45.491467,0.31409264,-60.09035
UncalGyro,1676595092304,122595934220531,0.40026945,0.41065416,-0.6824892,0.00034467055,-0.00073837844,-0.0032794788
UncalAccel,1676595092307,122595938709301,2.1978076,4.4596233,8.147561,0.006110925,-0.043260336,-0.038735468
OrientationDeg,1676595092307,122595938709301,79.0,-1.0,-33.0
UncalMag,1676595092312,122595942165294,-73.3464,-17.9706,-104.810196,-45.491467,0.31409264,-60.09035
UncalGyro,1676595092312,122595943200267,0.33444872,0.5702427,-0.7464773,0.00034467055,-0.00073837844,-0.0032794788
UncalAccel,1676595092316,122595947689769,2.0745773,4.5128636,7.12762,0.006110925,-0.043260336,-0.038735468
OrientationDeg,1676595092316,122595947689769,79.0,-1.0,-33.0
UncalGyro,1676595092321,122595952175914,0.21609358,0.56505036,-0.83291477,0.00034467055,-0.00073837844,-0.0032794788
UncalMag,1676595092321,122595952173107,-70.259796,-17.507,-102.5166,-45.491467,0.31409264,-60.09035
UncalAccel,1676595092325,122595956653453,0.9086744,4.092923,7.010372,0.006110925,-0.043260336,-0.038735468
OrientationDeg,1676595092326,122595956653453,80.0,0.0,-33.0
UncalGyro,1676595092330,122595961160289,0.09743301,0.53969944,-0.7835874,0.00034467055,-0.00073837844,-0.0032794788
UncalMag,1676595092331,122595962165294,-69.7474,-17.7876,-103.2974,-45.491467,0.31409264,-60.09035
UncalAccel,1676595092335,122595965645213,0.032901313,3.8536408,7.4386873,0.006110925,-0.043260336,-0.038735468
OrientationDeg,1676595092334,122595965645213,80.0,0.0,-33.0
UncalGyro,1676595092339,122595970130504,-0.018936822,0.6073528,-0.61575216,0.00034467055,-0.00073837844,-0.0032794788
UncalMag,1676595092342,122595972165294,-68.8446,-17.7388,-101.564995,-45.491467,0.31409264,-60.09035
UncalAccel,1676595092344,122595974626903,0.35114673,3.7513478,7.435098,0.006110925,-0.043260336,-0.038735468
OrientationDeg,1676595092343,122595974626903,81.0,0.0,-33.0
UncalGyro,1676595092348,122595979118419,-0.13836098,0.6649268,-0.45020768,0.00034467055,-0.00073837844,-0.0032794788
UncalMag,1676595092352,122595982165294,-69.8694,-18.2146,-102.797195,-45.491467,0.31409264,-60.09035
UncalAccel,1676595092353,122595983611155,0.81834537,3.662215,7.289136,0.006110925,-0.043260336,-0.038735468
OrientationDeg,1676595092353,122595983611155,81.0,0.0,-33.0
UncalGyro,1676595092357,122595988097667,-0.2133447,0.57757306,-0.35476,0.00034467055,-0.00073837844,-0.0032794788
UncalMag,1676595092362,122595992165539,-68.5762,-17.6656,-103.4682,-45.491467,0.31409264,-60.09035
UncalAccel,1676595092362,122595992586254,1.8622142,3.9098723,7.7473617,0.006110925,-0.043260336,-0.038735468
OrientationDeg,1676595092362,122595992586254,81.0,1.0,-33.0
UncalGyro,1676595092367,122595997077099,-0.16783522,0.38347065,-0.36987892,0.00034467055,-0.00073837844,-0.0032794788
UncalAccel,1676595092370,122596001566051,2.2564318,4.152744,8.422736,0.006110925,-0.043260336,-0.038735468
UncalMag,1676595092371,122596002153820,-69.027596,-18.226799,-103.6634,-45.491467,0.31409264,-60.09035
OrientationDeg,1676595092371,122596001566051,81.0,1.0,-33.0
UncalGyro,1676595092375,122596006057262,-0.018784106,0.20189096,-0.43783766,0.00034467055,-0.00073837844,-0.0032794788
UncalAccel,1676595092380,122596010545604,2.8348966,4.316652,8.297112,0.006110925,-0.043260336,-0.038735468
UncalMag,1676595092381,122596012165539,-70.1378,-18.421999,-105.4202,-45.491467,0.31409264,-60.09035
OrientationDeg,1676595092379,122596010545604,81.0,1.0,-33.0
UncalGyro,1676595092385,122596015036510,0.16417004,-0.022449298,-0.56413406,0.00034467055,-0.00073837844,-0.0032794788
UncalAccel,1676595092388,122596019526378,2.7643085,4.8442693,7.8945203,0.006110925,-0.043260336,-0.038735468
OrientationDeg,1676595092388,122596019526378,82.0,1.0,-33.0
UncalMag,1676595092391,122596022153820,-68.9544,-18.483,-105.5422,-45.491467,0.31409264,-60.09035
UncalGyro,1676595092393,122596024016124,0.33108896,-0.29917124,-0.73746705,0.00034467055,-0.00073837844,-0.0032794788
UncalAccel,1676595092398,122596028505016,1.2155539,4.5804605,7.457232,0.006110925,-0.043260336,-0.038735468
OrientationDeg,1676595092397,122596028505016,82.0,1.0,-33.0
UncalMag,1676595092401,122596032162365,-68.6128,-18.788,-104.517395,-45.491467,0.31409264,-60.09035
UncalGyro,1676595092401,122596032995860,0.44684792,-0.5439755,-0.7704538,0.00034467055,-0.00073837844,-0.0032794788
UncalAccel,1676595092406,122596037482555,-0.9314062,3.7686956,7.4865437,0.006110925,-0.043260336,-0.038735468
OrientationDeg,1676595092407,122596037482555,82.0,1.0,-34.0
UncalGyro,1676595092410,122596041975658,0.505491,-0.72021013,-0.57650405,0.00034467055,-0.00073837844,-0.0032794788
UncalMag,1676595092411,122596042152111,-68.0516,-19.1418,-101.711395,-45.491467,0.31409264,-60.09035
UncalAccel,1676595092416,122596046463634,-1.3920245,2.9653056,6.851249,0.006110925,-0.043260336,-0.038735468
OrientationDeg,1676595092416,122596046463634,83.0,1.0,-34.0
UncalGyro,1676595092420,122596050955455,0.45372015,-0.8791878,-0.2941316,0.00034467055,-0.00073837844,-0.0032794788
UncalMag,1676595092421,122596052165294,-69.966995,-20.0446,-103.1754,-45.491467,0.31409264,-60.09035
UncalAccel,1676595092425,122596055444591,-1.0683953,2.6943183,5.588437,0.006110925,-0.043260336,-0.038735468
OrientationDeg,1676595092424,122596055444591,83.0,1.0,-34.0
UncalGyro,1676595092429,122596059933727,0.2959642,-1.1081096,-0.04184427,0.00034467055,-0.00073837844,-0.0032794788
UncalMag,1676595092432,122596062165294,-66.9658,-18.6294,-101.2234,-45.491467,0.31409264,-60.09035
UncalAccel,1676595092433,122596064423412,-0.83748794,2.894119,5.4664035,0.006110925,-0.043260336,-0.038735468
OrientationDeg,1676595092434,122596064423412,83.0,0.0,-34.0
UncalGyro,1676595092437,122596068913585,0.11560625,-1.3295482,0.16768251,0.00034467055,-0.00073837844,-0.0032794788
UncalMag,1676595092441,122596072165294,-71.369995,-20.2032,-102.5166,-45.491467,0.31409264,-60.09035
UncalAccel,1676595092442,122596073403087,-0.25184458,3.3990045,5.476573,0.006110925,-0.043260336,-0.038735468
OrientationDeg,1676595092443,122596073403087,83.0,0.0,-34.0
UncalGyro,1676595092446,122596077890636,-0.05131268,-1.5488489,0.32986724,0.00034467055,-0.00073837844,-0.0032794788
UncalMag,1676595092452,122596082165539,-69.6254,-18.9222,-102.479996,-45.491467,0.31409264,-60.09035
UncalAccel,1676595092451,122596082367992,0.36909288,3.879962,5.9724855,0.006110925,-0.043260336,-0.038735468
OrientationDeg,1676595092451,122596082367992,82.0,-1.0,-34.0
UncalGyro,1676595092456,122596086862621,-0.21410827,-1.6620116,0.4428773,0.00034467055,-0.00073837844,-0.0032794788
UncalAccel,1676595092460,122596091363109,0.66759753,4.3005004,6.929016,0.006110925,-0.043260336,-0.038735468
UncalMag,1676595092461,122596092153576,-71.357796,-19.2882,-100.345,-45.491467,0.31409264,-60.09035
OrientationDeg,1676595092460,122596091363109,82.0,-2.0,-34.0
UncalGyro,1676595092464,122596095855784,-0.46777007,-1.4999796,0.5109888,0.00034467055,-0.00073837844,-0.0032794788
UncalAccel,1676595092470,122596100344615,1.1551352,4.4751763,6.960721,0.006110925,-0.043260336,-0.038735468
UncalMag,1676595092471,122596102165539,-73.017,-19.6786,-100.0278,-45.491467,0.31409264,-60.09035
OrientationDeg,1676595092469,122596100344615,82.0,-3.0,-33.0
UncalGyro,1676595092474,122596104833202,-0.7191411,-1.2620476,0.54076844,0.00034467055,-0.00073837844,-0.0032794788
UncalAccel,1676595092478,122596109320812,1.3357933,3.8943188,8.073982,0.006110925,-0.043260336,-0.038735468
OrientationDeg,1676595092479,122596109320812,81.0,-4.0,-33.0
UncalMag,1676595092482,122596112165539,-72.138596,-18.4342,-100.942795,-45.491467,0.31409264,-60.09035
UncalGyro,1676595092482,122596113811840,-0.9286679,-0.9025534,0.6186538,0.00034467055,-0.00073837844,-0.0032794788
UncalAccel,1676595092488,122596118300487,1.1820544,3.7226338,9.077771,0.006110925,-0.043260336,-0.038735468
OrientationDeg,1676595092487,122596118300487,81.0,-4.0,-32.0
UncalMag,1676595092492,122596122153576,-69.0032,-16.518799,-100.149796,-45.491467,0.31409264,-60.09035
UncalGyro,1676595092491,122596122791637,-1.1279627,-0.50885075,0.7377725,0.00034467055,-0.00073837844,-0.0032794788
UncalAccel,1676595092497,122596127278514,1.1766706,3.4683964,8.824132,0.006110925,-0.043260336,-0.038735468
OrientationDeg,1676595092496,122596127278514,81.0,-5.0,-32.0
UncalGyro,1676595092500,122596131759716,-1.2695307,-0.3061962,0.8933904,0.00034467055,-0.00073837844,-0.0032794788
UncalMag,1676595092501,122596132154308,-70.943,-16.958,-100.4304,-45.491467,0.31409264,-60.09035
UncalAccel,1676595092506,122596136259594,1.3316058,2.7481568,8.14457,0.006110925,-0.043260336,-0.038735468
OrientationDeg,1676595092506,122596136259594,80.0,-5.0,-31.0
UncalGyro,1676595092510,122596140750255,-1.3602442,-0.30268374,1.1044444,0.00034467055,-0.00073837844,-0.0032794788
UncalMag,1676595092511,122596142165294,-71.736,-16.0308,-101.9188,-45.491467,0.31409264,-60.09035
UncalAccel,1676595092514,122596145242137,1.0247263,2.5292134,8.136793,0.006110925,-0.043260336,-0.038735468
OrientationDeg,1676595092515,122596145242137,79.0,-5.0,-30.0
UncalGyro,1676595092519,122596149730236,-1.3767376,-0.28496864,1.3518448,0.00034467055,-0.00073837844,-0.0032794788
UncalMag,1676595092522,122596152165050,-72.712,-15.8356,-99.9424,-45.491467,0.31409264,-60.09035
UncalAccel,1676595092523,122596154219921,0.2757728,3.2147572,8.370692,0.006110925,-0.043260336,-0.038735468
OrientationDeg,1676595092524,122596154219921,78.0,-6.0,-29.0
UncalGyro,1676595092527,122596158715404,-1.2959507,-0.19547687,1.5963436,0.00034467055,-0.00073837844,-0.0032794788
UncalMag,1676595092531,122596162165294,-73.749,-14.9572,-101.0404,-45.491467,0.31409264,-60.09035
UncalAccel,1676595092532,122596163199474,0.008973085,4.1222353,7.85444,0.006110925,-0.043260336,-0.038735468
OrientationDeg,1676595092533,122596163199474,78.0,-7.0,-29.0
UncalGyro,1676595092537,122596167686351,-1.1850786,-0.17928895,1.7712038,0.00034467055,-0.00073837844,-0.0032794788
UncalAccel,1676595092542,122596172160778,0.5198407,4.9292145,7.0079794,0.006110925,-0.043260336,-0.038735468
UncalMag,1676595092542,122596172173107,-74.3346,-14.396,-100.5524,-45.491467,0.31409264,-60.09035
OrientationDeg,1676595092542,122596172160778,77.0,-7.0,-28.0
UncalGyro,1676595092545,122596176649913,-1.0526736,-0.3145956,1.8383989,0.00034467055,-0.00073837844,-0.0032794788
UncalAccel,1676595092551,122596181145824,1.6372889,4.7784667,6.378667,0.006110925,-0.043260336,-0.038735468
UncalMag,1676595092552,122596182153576,-73.846596,-13.2736,-100.3572,-45.491467,0.31409264,-60.09035
OrientationDeg,1676595092551,122596181145824,76.0,-8.0,-27.0
UncalGyro,1676595092555,122596185651439,-0.8929323,-0.6704246,1.8408424,0.00034467055,-0.00073837844,-0.0032794788
UncalAccel,1676595092559,122596190141002,2.656033,4.0773697,6.555736,0.006110925,-0.043260336,-0.038735468
OrientationDeg,1676595092560,122596190141002,75.0,-9.0,-27.0
UncalMag,1676595092561,122596192165539,-74.310196,-12.4684,-100.65,-45.491467,0.31409264,-60.09035
UncalGyro,1676595092564,122596194631481,-0.70203686,-1.1215485,1.8536706,0.00034467055,-0.00073837844,-0.0032794788
UncalAccel,1676595092568,122596199117931,3.2925239,3.6903307,7.366903,0.006110925,-0.043260336,-0.038735468
OrientationDeg,1676595092569,122596199117931,74.0,-10.0,-26.0
UncalMag,1676595092572,122596202165539,-73.8832,-11.236199,-100.8208,-45.491467,0.31409264,-60.09035
UncalGyro,1676595092572,122596203607494,-0.46593747,-1.5167783,1.88849,0.00034467055,-0.00073837844,-0.0032794788
UncalAccel,1676595092577,122596208096202,3.7154553,3.5539398,8.340183,0.006110925,-0.043260336,-0.038735468
OrientationDeg,1676595092578,122596208096202,73.0,-11.0,-26.0
UncalMag,1676595092582,122596212165539,-75.762,-11.4802,-99.2958,-45.491467,0.31409264,-60.09035
UncalGyro,1676595092582,122596212586925,-0.22143865,-1.7508925,1.918575,0.00034467055,-0.00073837844,-0.0032794788
UncalAccel,1676595092587,122596217076000,4.0791645,4.180261,9.031709,0.006110925,-0.043260336,-0.038735468
OrientationDeg,1676595092586,122596217076000,71.0,-13.0,-26.0
UncalGyro,1676595092591,122596221564708,0.0096211275,-1.8104519,1.9107865,0.00034467055,-0.00073837844,-0.0032794788
UncalMag,1676595092591,122596222153576,-77.1772,-11.2484,-100.2474,-45.491467,0.31409264,-60.09035
UncalAccel,1676595092596,122596226047374,4.4243293,4.7246284,8.492725,0.006110925,-0.043260336,-0.038735468
OrientationDeg,1676595092596,122596226047374,70.0,-14.0,-26.0
UncalGyro,1676595092600,122596230546459,0.21197024,-1.8674151,1.8400788,0.00034467055,-0.00073837844,-0.0032794788
UncalMag,1676595092601,122596232165294,-78.019,-10.675,-100.04,-45.491467,0.31409264,-60.09035
UncalAccel,1676595092604,122596235036266,4.601996,4.339384,7.6576304,0.006110925,-0.043260336,-0.038735468
OrientationDeg,1676595092605,122596235036266,69.0,-16.0,-25.0
UncalGyro,1676595092609,122596239528148,0.312763,-1.905136,1.7754798,0.00034467055,-0.00073837844,-0.0032794788
UncalMag,1676595092612,122596242165050,-79.7148,-10.321199,-100.9794,-45.491467,0.31409264,-60.09035
UncalAccel,1676595092614,122596244011790,4.037888,4.256233,6.901499,0.006110925,-0.043260336,-0.038735468
OrientationDeg,1676595092614,122596244011790,68.0,-17.0,-25.0
UncalGyro,1676595092617,122596248494396,0.31016684,-1.9593502,1.7673858,0.00034467055,-0.00073837844,-0.0032794788
UncalMag,1676595092622,122596252165294,-80.764,-10.0528,-97.6244,-45.491467,0.31409264,-60.09035
UncalAccel,1676595092621,122596252994091,3.7322052,4.2191443,5.985048,0.006110925,-0.043260336,-0.038735468
OrientationDeg,1676595092621,122596252994091,67.0,-19.0,-25.0
UncalGyro,1676595092626,122596257484996,0.22540927,-2.0098994,1.7828102,0.00034467055,-0.00073837844,-0.0032794788
UncalAccel,1676595092630,122596261976573,3.6753755,4.267599,6.003592,0.006110925,-0.043260336,-0.038735468
UncalMag,1676595092632,122596262151867,-82.9722,-10.028399,-98.1856,-45.491467,0.31409264,-60.09035
OrientationDeg,1676595092631,122596261976573,66.0,-20.0,-25.0
UncalGyro,1676595092636,122596266460094,0.06383542,-1.9355265,1.7792977,0.00034467055,-0.00073837844,-0.0032794788
UncalAccel,1676595092639,122596270936107,3.778865,3.3846476,5.928218,0.006110925,-0.043260336,-0.038735468
OrientationDeg,1676595092640,122596270936107,65.0,-21.0,-25.0
UncalMag,1676595092642,122596272165539,-82.8258,-9.2842,-93.2324,-45.491467,0.31409264,-60.09035
UncalGyro,1676595092644,122596275443981,-0.13179417,-1.8235855,1.8330538,0.00034467055,-0.00073837844,-0.0032794788
UncalAccel,1676595092648,122596279932445,3.8069808,3.4420755,6.0861444,0.006110925,-0.043260336,-0.038735468
OrientationDeg,1676595092649,122596279932445,64.0,-23.0,-24.0
UncalMag,1676595092652,122596282165539,-81.74,-8.479,-91.622,-45.491467,0.31409264,-60.09035
UncalGyro,1676595092653,122596284427928,-0.22953261,-1.8154916,1.9376645,0.00034467055,-0.00073837844,-0.0032794788
UncalAccel,1676595092657,122596288909496,3.8943188,3.4271202,5.771488,0.006110925,-0.043260336,-0.038735468
OrientationDeg,1676595092658,122596288909496,63.0,-24.0,-24.0
UncalMag,1676595092661,122596292165539,-82.838,-7.8324,-90.4264,-45.491467,0.31409264,-60.09035
UncalGyro,1676595092662,122596293391796,-0.19730948,-1.9845484,2.0679317,0.00034467055,-0.00073837844,-0.0032794788
UncalAccel,1676595092666,122596297892162,4.8999023,3.871587,5.511867,0.006110925,-0.043260336,-0.038735468
OrientationDeg,1676595092666,122596297892162,62.0,-26.0,-23.0
UncalMag,1676595092671,122596302165294,-82.9722,-6.7832,-88.962395,-45.491467,0.31409264,-60.09035
UncalGyro,1676595092671,122596302380260,-0.0693332,-2.254398,2.1054997,0.00034467055,-0.00073837844,-0.0032794788
UncalAccel,1676595092675,122596306864024,6.361917,4.0307097,6.0341005,0.006110925,-0.043260336,-0.038735468
OrientationDeg,1676595092675,122596306864024,61.0,-27.0,-23.0
UncalGyro,1676595092681,122596311362316,0.078343466,-2.4457517,2.0500638,0.00034467055,-0.00073837844,-0.0032794788
UncalMag,1676595092681,122596312165294,-84.887596,-6.5392,-88.4134,-45.491467,0.31409264,-60.09035
UncalAccel,1676595092685,122596315851390,6.7034926,4.384249,6.9858456,0.006110925,-0.043260336,-0.038735468
OrientationDeg,1676595092685,122596315851390,60.0,-29.0,-22.0
UncalGyro,1676595092690,122596320345714,0.18921551,-2.350915,1.9680551,0.00034467055,-0.00073837844,-0.0032794788
UncalMag,1676595092691,122596322150646,-84.7656,-5.4533997,-86.9982,-45.491467,0.31409264,-60.09035
OrientationDeg,1676595092693,122596324830944,59.0,-31.0,-22.0
UncalAccel,1676595092693,122596324830944,6.0454664,5.395217,7.569096,0.006110925,-0.043260336,-0.038735468
UncalGyro,1676595092698,122596329321788,0.19440787,-1.9614882,1.8267925,0.00034467055,-0.00073837844,-0.0032794788
UncalMag,1676595092701,122596332165294,-85.949,-4.7702,-86.156395,-45.491467,0.31409264,-60.09035
UncalAccel,1676595092702,122596333809887,5.697311,4.4572306,7.1007013,0.006110925,-0.043260336,-0.038735468
OrientationDeg,1676595092703,122596333809887,58.0,-32.0,-21.0
UncalGyro,1676595092708,122596338301586,0.01817324,-1.509448,1.7508925,0.00034467055,-0.00073837844,-0.0032794788
UncalMag,1676595092711,122596342165294,-87.083595,-4.5628,-85.949,-45.491467,0.31409264,-60.09035
UncalAccel,1676595092711,122596342788097,5.4927244,2.5836504,6.0747786,0.006110925,-0.043260336,-0.038735468
OrientationDeg,1676595092711,122596342788097,58.0,-33.0,-21.0
UncalGyro,1676595092717,122596347269237,-0.22922719,-1.1713341,1.8434386,0.00034467055,-0.00073837844,-0.0032794788
UncalAccel,1676595092720,122596351769786,5.7206407,2.9078777,5.8486567,0.006110925,-0.043260336,-0.038735468
UncalMag,1676595092722,122596352153576,-87.6814,-3.8307998,-85.1804,-45.491467,0.31409264,-60.09035
OrientationDeg,1676595092721,122596351769786,57.0,-34.0,-20.0
UncalGyro,1676595092725,122596356260021,-0.37308595,-0.9931142,1.9373591,0.00034467055,-0.00073837844,-0.0032794788
UncalAccel,1676595092729,122596360751903,6.2009997,3.226123,5.61416,0.006110925,-0.043260336,-0.038735468
OrientationDeg,1676595092729,122596360751903,56.0,-34.0,-19.0
UncalMag,1676595092732,122596362165294,-86.3516,-2.1227999,-83.2772,-45.491467,0.31409264,-60.09035
UncalGyro,1676595092734,122596365239452,-0.3736968,-1.0025826,1.9898936,0.00034467055,-0.00073837844,-0.0032794788
UncalAccel,1676595092738,122596369728588,6.6221366,3.2045877,5.1822557,0.006110925,-0.043260336,-0.038735468
OrientationDeg,1676595092738,122596369728588,55.0,-35.0,-19.0
UncalMag,1676595092742,122596372165294,-87.376396,-1.7324,-83.8384,-45.491467,0.31409264,-60.09035
UncalGyro,1676595092743,122596374219799,-0.29642236,-1.1588113,2.021353,0.00034467055,-0.00073837844,-0.0032794788
OrientationDeg,1676595092748,122596378709423,54.0,-36.0,-18.0
UncalAccel,1676595092747,122596378709423,6.6311097,2.9455647,4.9286165,0.006110925,-0.043260336,-0.038735468
UncalMag,1676595092751,122596382165539,-88.45,-1.0613999,-84.2532,-45.491467,0.31409264,-60.09035
