# 
# Header Description:
# 
# Version: v3.0.5.6 Platform: 13 Manufacturer: Google Model: Pixel 6
# 
# Raw,utcTimeMillis,TimeNanos,LeapSecond,TimeUncertaintyNanos,FullBiasNanos,BiasNanos,BiasUncertaintyNanos,DriftNanosPerSecond,DriftUncertaintyNanosPerSecond,HardwareClockDiscontinuityCount,Svid,TimeOffsetNanos,State,ReceivedSvTimeNanos,ReceivedSvTimeUncertaintyNanos,Cn0DbHz,PseudorangeRateMetersPerSecond,PseudorangeRateUncertaintyMetersPerSecond,AccumulatedDeltaRangeState,AccumulatedDeltaRangeMeters,AccumulatedDeltaRangeUncertaintyMeters,CarrierFrequencyHz,CarrierCycles,CarrierPhase,CarrierPhaseUncertainty,MultipathIndicator,SnrInDb,ConstellationType,AgcDb,BasebandCn0DbHz,FullInterSignalBiasNanos,FullInterSignalBiasUncertaintyNanos,SatelliteInterSignalBiasNanos,SatelliteInterSignalBiasUncertaintyNanos,CodeType,ChipsetElapsedRealtimeNanos
# 
# UncalAccel,utcTimeMillis,elapsedRealtimeNanos,UncalAccelXMps2,UncalAccelYMps2,UncalAccelZMps2,BiasXMps2,BiasYMps2,BiasZMps2
# 
# Accel,utcTimeMillis,elapsedRealtimeNanos,AccelXMps2,AccelYMps2,AccelZMps2
# 
# UncalGyro,utcTimeMillis,elapsedRealtimeNanos,UncalGyroXRadPerSec,UncalGyroYRadPerSec,UncalGyroZRadPerSec,DriftXRadPerSec,DriftYRadPerSec,DriftZRadPerSec
# 
# Gyro,utcTimeMillis,elapsedRealtimeNanos,GyroXRadPerSec,GyroYRadPerSec,GyroZRadPerSec
# 
# UncalMag,utcTimeMillis,elapsedRealtimeNanos,UncalMagXMicroT,UncalMagYMicroT,UncalMagZMicroT,BiasXMicroT,BiasYMicroT,BiasZMicroT
# 
# Mag,utcTimeMillis,elapsedRealtimeNanos,MagXMicroT,MagYMicroT,MagZMicroT
# 
# OrientationDeg,utcTimeMillis,elapsedRealtimeNanos,yawDeg,rollDeg,pitchDeg
# 
# Fix,Provider,LatitudeDegrees,LongitudeDegrees,AltitudeMeters,SpeedMps,AccuracyMeters,BearingDegrees,UnixTimeMillis,SpeedAccuracyMps,BearingAccuracyDegrees,elapsedRealtimeNanos,VerticalAccuracyMeters
# 
# Nav,Svid,Type,Status,MessageId,Sub-messageId,Data(Bytes)
# 
# Status,UnixTimeMillis,SignalCount,SignalIndex,ConstellationType,Svid,CarrierFrequencyHz,Cn0DbHz,AzimuthDegrees,ElevationDegrees,UsedInFix,HasAlmanacData,HasEphemerisData,BasebandCn0DbHz
# 
UncalMag,1676593613499,121117129999279,-36.966,17.7388,-105.7984,-44.47528,5.575939,-61.08579
UncalAccel,1676593613500,121117131734264,-1.0342976,0.3912265,10.728819,0.006110925,-0.043260336,-0.038735468
UncalGyro,1676593613505,121117136213451,-0.2910773,0.21991149,0.63071835,0.00046982768,-0.0010077124,-0.0032421262
UncalMag,1676593613509,121117140000011,-38.7716,17.0556,-106.4328,-44.47528,5.575939,-61.08579
UncalAccel,1676593613509,121117140702953,-1.041476,0.94755775,11.184053,0.006110925,-0.043260336,-0.038735468
UncalGyro,1676593613514,121117145194164,-0.27122417,0.35033122,0.77350813,0.00046982768,-0.0010077124,-0.0032421262
OrientationDeg,1676593613509,121117140702953,354.0,4.0,-14.0
UncalAccel,1676593613518,121117149683056,-0.8554341,1.1431711,11.37189,0.006110925,-0.043260336,-0.038735468
UncalMag,1676593613518,121117149995861,-37.4052,18.117,-105.9936,-44.47528,5.575939,-61.08579
OrientationDeg,1676593613518,121117149683056,354.0,4.0,-13.0
Fix,FLP,37.4312914000,-122.1550445000,-16.200000762939453,0.12847286,3.74,280.22827,1676593613371,,,121117001528209,3.9880886
UncalGyro,1676593613523,121117154173167,-0.25885415,0.5708536,0.8585711,0.00046982768,-0.0010077124,-0.0032421262
UncalAccel,1676593613528,121117158663463,-0.67178494,0.9026923,11.476576,0.006110925,-0.043260336,-0.038735468
OrientationDeg,1676593613527,121117158663463,353.0,5.0,-13.0
UncalMag,1676593613530,121117160004894,-37.8444,17.4948,-105.432396,-44.47528,5.575939,-61.08579
UncalGyro,1676593613533,121117163154734,-0.268628,0.84788096,0.915687,0.00046982768,-0.0010077124,-0.0032421262
UncalAccel,1676593613536,121117167648937,-0.50009996,0.20638095,11.4353,0.006110925,-0.043260336,-0.038735468
OrientationDeg,1676593613536,121117167648937,353.0,5.0,-13.0
UncalMag,1676593613539,121117169999279,-38.1982,17.1166,-106.7256,-44.47528,5.575939,-61.08579
UncalGyro,1676593613542,121117172136364,-0.2996294,1.1033753,0.9896017,0.00046982768,-0.0010077124,-0.0032421262
UncalAccel,1676593613546,121117176622814,-0.07178468,-0.055633128,11.102098,0.006110925,-0.043260336,-0.038735468
OrientationDeg,1676593613546,121117176622814,352.0,5.0,-13.0
UncalMag,1676593613549,121117179999279,-37.9908,17.5802,-107.6528,-44.47528,5.575939,-61.08579
UncalGyro,1676593613550,121117181110729,-0.32696563,1.2664764,1.0693196,0.00046982768,-0.0010077124,-0.0032421262
UncalAccel,1676593613555,121117185599986,0.16630118,0.18245272,10.637891,0.006110925,-0.043260336,-0.038735468
OrientationDeg,1676593613554,121117185599986,352.0,6.0,-13.0
UncalMag,1676593613559,121117189999523,-32.5984,18.6904,-106.1156,-44.47528,5.575939,-61.08579
UncalGyro,1676593613560,121117190093150,-0.32543847,1.2932017,1.1181889,0.00046982768,-0.0010077124,-0.0032421262
UncalAccel,1676593613563,121117194579174,0.20279172,0.7860422,9.902099,0.006110925,-0.043260336,-0.038735468
OrientationDeg,1676593613563,121117194579174,351.0,6.0,-13.0
UncalGyro,1676593613569,121117199073497,-0.23075435,1.0558805,1.1195632,0.00046982768,-0.0010077124,-0.0032421262
UncalMag,1676593613570,121117200010998,-31.927399,18.4708,-105.456795,-44.47528,5.575939,-61.08579
UncalAccel,1676593613572,121117203573619,0.15613168,1.4913267,9.805787,0.006110925,-0.043260336,-0.038735468
OrientationDeg,1676593613572,121117203573619,350.0,7.0,-13.0
UncalGyro,1676593613578,121117208066111,-0.0010690142,0.679893,1.0687088,0.00046982768,-0.0010077124,-0.0032421262
UncalMag,1676593613580,121117210010753,-30.951399,18.8734,-104.980995,-44.47528,5.575939,-61.08579
UncalAccel,1676593613581,121117212553843,-0.04127619,1.9818554,10.922637,0.006110925,-0.043260336,-0.038735468
OrientationDeg,1676593613581,121117212553843,350.0,7.0,-13.0
UncalGyro,1676593613586,121117217041881,0.37293324,0.49189925,0.96684694,0.00046982768,-0.0010077124,-0.0032421262
UncalMag,1676593613589,121117220010998,-34.6968,16.6408,-106.066795,-44.47528,5.575939,-61.08579
UncalAccel,1676593613590,121117221530346,-0.21355942,1.5714862,12.39183,0.006110925,-0.043260336,-0.038735468
OrientationDeg,1676593613591,121117221530346,350.0,7.0,-13.0
UncalGyro,1676593613595,121117226021373,0.8605564,0.6424775,0.88117313,0.00046982768,-0.0010077124,-0.0032421262
UncalMag,1676593613600,121117230010753,-31.500399,17.9828,-106.542595,-44.47528,5.575939,-61.08579
UncalAccel,1676593613600,121117230510326,-0.37567315,0.4031906,13.490734,0.006110925,-0.043260336,-0.038735468
OrientationDeg,1676593613600,121117230510326,349.0,7.0,-14.0
UncalGyro,1676593613603,121117234998119,1.4095715,1.0604621,0.8353582,0.00046982768,-0.0010077124,-0.0032421262
UncalAccel,1676593613609,121117239478465,-0.1369891,0.39661035,13.501502,0.006110925,-0.043260336,-0.038735468
UncalMag,1676593613608,121117239999279,-30.5732,17.263,-101.6016,-44.47528,5.575939,-61.08579
OrientationDeg,1676593613608,121117239478465,349.0,8.0,-15.0
UncalGyro,1676593613613,121117243982006,1.9847012,1.4445436,0.7788532,0.00046982768,-0.0010077124,-0.0032421262
UncalAccel,1676593613618,121117248469616,0.09571291,0.6681957,12.093326,0.006110925,-0.043260336,-0.038735468
OrientationDeg,1676593613617,121117248469616,349.0,9.0,-16.0
UncalMag,1676593613620,121117250010998,-34.0746,13.261399,-107.2136,-44.47528,5.575939,-61.08579
UncalGyro,1676593613622,121117252963512,2.5082128,1.4492778,0.699288,0.00046982768,-0.0010077124,-0.0032421262
UncalAccel,1676593613627,121117257447277,0.42831525,1.4506488,7.752745,0.006110925,-0.043260336,-0.038735468
OrientationDeg,1676593613627,121117257447277,349.0,9.0,-18.0
UncalMag,1676593613630,121117260010998,-29.1946,15.189,-103.395,-44.47528,5.575939,-61.08579
UncalGyro,1676593613631,121117261933239,2.5969408,0.5476407,0.4474588,0.00046982768,-0.0010077124,-0.0032421262
UncalAccel,1676593613636,121117266429088,0.4325027,3.1597223,1.8185452,0.006110925,-0.043260336,-0.038735468
OrientationDeg,1676593613635,121117266429088,349.0,9.0,-19.0
UncalMag,1676593613640,121117270010753,-27.633,14.5789995,-101.564995,-44.47528,5.575939,-61.08579
UncalGyro,1676593613640,121117270920055,2.0581577,-1.239751,0.032070424,0.00046982768,-0.0010077124,-0.0032421262
UncalAccel,1676593613645,121117275410838,0.4408776,3.8602211,3.14716,0.006110925,-0.043260336,-0.038735468
OrientationDeg,1676593613645,121117275410838,349.0,8.0,-20.0
UncalGyro,1676593613649,121117279897838,1.6041322,-2.6468792,-0.30176744,0.00046982768,-0.0010077124,-0.0032421262
UncalMag,1676593613649,121117280009533,-31.231998,12.968599,-102.541,-44.47528,5.575939,-61.08579
UncalAccel,1676593613654,121117284376903,1.3836497,3.1609187,7.117451,0.006110925,-0.043260336,-0.038735468
OrientationDeg,1676593613654,121117284376903,349.0,6.0,-20.0
UncalGyro,1676593613658,121117288879711,1.5279267,-3.2620203,-0.57635134,0.00046982768,-0.0010077124,-0.0032421262
UncalMag,1676593613658,121117289999279,-30.719599,12.8832,-103.0412,-44.47528,5.575939,-61.08579
UncalAccel,1676593613663,121117293367809,2.120041,2.481357,8.42812,0.006110925,-0.043260336,-0.038735468
OrientationDeg,1676593613662,121117293367809,350.0,5.0,-21.0
UncalGyro,1676593613667,121117297862132,1.6756034,-3.5361462,-0.8081747,0.00046982768,-0.0010077124,-0.0032421262
UncalMag,1676593613670,121117300010753,-35.4776,11.2972,-104.7492,-44.47528,5.575939,-61.08579
UncalAccel,1676593613672,121117302345775,2.3341985,2.3407788,8.270791,0.006110925,-0.043260336,-0.038735468
OrientationDeg,1676593613672,121117302345775,350.0,3.0,-22.0
UncalGyro,1676593613675,121117306831188,1.8606955,-3.776827,-0.9925033,0.00046982768,-0.0010077124,-0.0032421262
UncalMag,1676593613680,121117310010753,-37.6858,9.698999,-105.7008,-44.47528,5.575939,-61.08579
UncalAccel,1676593613680,121117311327770,2.024328,2.8510482,8.105088,0.006110925,-0.043260336,-0.038735468
OrientationDeg,1676593613680,121117311327770,351.0,1.0,-23.0
UncalGyro,1676593613684,121117315819774,1.947133,-3.9232821,-1.1511755,0.00046982768,-0.0010077124,-0.0032421262
UncalMag,1676593613690,121117320010753,-38.564198,9.882,-104.993195,-44.47528,5.575939,-61.08579
UncalAccel,1676593613690,121117320306529,1.3082758,3.4067812,9.162716,0.006110925,-0.043260336,-0.038735468
OrientationDeg,1676593613689,121117320306529,352.0,0.0,-24.0
UncalGyro,1676593613694,121117324787120,1.8964312,-3.7942367,-1.2814425,0.00046982768,-0.0010077124,-0.0032421262
UncalAccel,1676593613699,121117329288402,0.5599205,3.5365918,10.375279,0.006110925,-0.043260336,-0.038735468
UncalMag,1676593613700,121117330000499,-39.9062,9.076799,-105.151794,-44.47528,5.575939,-61.08579
OrientationDeg,1676593613699,121117329288402,352.0,-1.0,-25.0
UncalGyro,1676593613702,121117333778942,1.5741998,-3.1464143,-1.4037683,0.00046982768,-0.0010077124,-0.0032421262
UncalAccel,1676593613708,121117338269909,0.07238288,3.162115,12.954144,0.006110925,-0.043260336,-0.038735468
OrientationDeg,1676593613708,121117338269909,353.0,-2.0,-26.0
UncalMag,1676593613710,121117340010753,-43.7248,8.2716,-108.3116,-44.47528,5.575939,-61.08579
UncalGyro,1676593613712,121117342757641,1.1354458,-2.044108,-1.4659239,0.00046982768,-0.0010077124,-0.0032421262
UncalAccel,1676593613716,121117347243907,-0.046660043,1.3830515,11.176874,0.006110925,-0.043260336,-0.038735468
OrientationDeg,1676593613717,121117347243907,354.0,-2.0,-26.0
UncalMag,1676593613720,121117350010753,-41.906998,8.0276,-107.2502,-44.47528,5.575939,-61.08579
UncalGyro,1676593613721,121117351727184,0.86758137,-1.2855659,-1.2771665,0.00046982768,-0.0010077124,-0.0032421262
UncalAccel,1676593613726,121117356226390,0.16630118,0.43130627,9.032906,0.006110925,-0.043260336,-0.038735468
OrientationDeg,1676593613726,121117356226390,355.0,-3.0,-26.0
UncalMag,1676593613730,121117360010509,-40.967598,7.7836,-105.9936,-44.47528,5.575939,-61.08579
UncalGyro,1676593613730,121117360717174,0.6056729,-0.8929323,-0.90377516,0.00046982768,-0.0010077124,-0.0032421262
UncalAccel,1676593613734,121117365208751,0.008973085,0.5952146,8.341978,0.006110925,-0.043260336,-0.038735468
OrientationDeg,1676593613734,121117365208751,355.0,-3.0,-27.0
UncalGyro,1676593613739,121117369696910,0.37094793,-0.66355234,-0.48151454,0.00046982768,-0.0010077124,-0.0032421262
UncalMag,1676593613739,121117369999035,-39.833,8.6132,-105.3592,-44.47528,5.575939,-61.08579
UncalAccel,1676593613744,121117374185924,-2.7463622,1.1294123,8.189436,0.006110925,-0.043260336,-0.038735468
OrientationDeg,1676593613744,121117374185924,355.0,-3.0,-27.0
UncalGyro,1676593613747,121117378676647,0.18768835,-0.6418667,0.14462234,0.00046982768,-0.0010077124,-0.0032421262
UncalMag,1676593613749,121117379995128,-44.9326,6.9417996,-106.7988,-44.47528,5.575939,-61.08579
UncalAccel,1676593613752,121117383165965,-5.2055855,2.132005,8.607581,0.006110925,-0.043260336,-0.038735468
OrientationDeg,1676593613752,121117383165965,355.0,-3.0,-27.0
UncalGyro,1676593613757,121117387657604,0.06429356,-0.6197228,0.89812464,0.00046982768,-0.0010077124,-0.0032421262
UncalMag,1676593613760,121117390010998,-42.760998,7.6738,-107.2868,-44.47528,5.575939,-61.08579
UncalAccel,1676593613761,121117392145458,-3.4899318,2.7936203,9.766904,0.006110925,-0.043260336,-0.038735468
OrientationDeg,1676593613762,121117392145458,354.0,-4.0,-27.0
UncalGyro,1676593613766,121117396636303,-0.04886922,-0.31902438,1.4085026,0.00046982768,-0.0010077124,-0.0032421262
UncalMag,1676593613770,121117400010998,-43.383198,7.5396,-107.5186,-44.47528,5.575939,-61.08579
UncalAccel,1676593613770,121117401124889,0.083748795,2.786442,10.073783,0.006110925,-0.043260336,-0.038735468
OrientationDeg,1676593613770,121117401124889,353.0,-4.0,-27.0
UncalGyro,1676593613775,121117405617076,-0.08582657,0.037110064,1.5296066,0.00046982768,-0.0010077124,-0.0032421262
UncalMag,1676593613780,121117410010998,-45.5304,6.9052,-109.2144,-44.47528,5.575939,-61.08579
UncalAccel,1676593613780,121117410102183,2.635694,2.737389,9.6376915,0.006110925,-0.043260336,-0.038735468
OrientationDeg,1676593613780,121117410102183,352.0,-5.0,-27.0
UncalGyro,1676593613783,121117414582286,-0.00061086525,0.2003638,1.3863586,0.00046982768,-0.0010077124,-0.0032421262
UncalAccel,1676593613788,121117419073131,3.8273199,2.9994032,10.068399,0.006110925,-0.043260336,-0.038735468
UncalMag,1676593613788,121117419999035,-45.506,6.588,-107.8358,-44.47528,5.575939,-61.08579
OrientationDeg,1676593613788,121117419073131,351.0,-5.0,-27.0
UncalGyro,1676593613792,121117423573558,0.17852537,0.25885415,1.1238394,0.00046982768,-0.0010077124,-0.0032421262
UncalAccel,1676593613797,121117428055064,4.345964,3.3559337,10.839486,0.006110925,-0.043260336,-0.038735468
OrientationDeg,1676593613797,121117428055064,351.0,-5.0,-27.0
UncalMag,1676593613800,121117430010998,-43.151398,7.8202,-108.384796,-44.47528,5.575939,-61.08579
UncalGyro,1676593613801,121117432558116,0.40378192,0.30955598,0.8391761,0.00046982768,-0.0010077124,-0.0032421262
UncalAccel,1676593613807,121117437043590,4.345964,3.3702908,10.840085,0.006110925,-0.043260336,-0.038735468
UncalMag,1676593613810,121117440010998,-44.7984,5.8315997,-107.7138,-44.47528,5.575939,-61.08579
UncalGyro,1676593613811,121117441537975,0.63346726,0.33643404,0.5983425,0.00046982768,-0.0010077124,-0.0032421262
OrientationDeg,1676593613806,121117437043590,350.0,-5.0,-27.0
UncalAccel,1676593613816,121117446020275,3.9218364,3.1573296,10.488938,0.006110925,-0.043260336,-0.038735468
OrientationDeg,1676593613816,121117446020275,350.0,-5.0,-27.0
UncalMag,1676593613820,121117450010998,-43.6028,6.954,-107.9822,-44.47528,5.575939,-61.08579
UncalGyro,1676593613819,121117450501598,0.8367327,0.37323865,0.4352415,0.00046982768,-0.0010077124,-0.0032421262
UncalAccel,1676593613825,121117455003490,3.3643086,2.8438697,10.003195,0.006110925,-0.043260336,-0.038735468
OrientationDeg,1676593613824,121117455003490,350.0,-5.0,-28.0
UncalGyro,1676593613829,121117459495311,0.97509366,0.43508878,0.36560285,0.00046982768,-0.0010077124,-0.0032421262
UncalMag,1676593613829,121117459993908,-43.7858,5.9414,-107.8114,-44.47528,5.575939,-61.08579
UncalAccel,1676593613832,121117463986522,2.7625136,2.2761726,9.316455,0.006110925,-0.043260336,-0.038735468
OrientationDeg,1676593613832,121117463986522,350.0,-5.0,-28.0
UncalGyro,1676593613838,121117468473949,1.0225884,0.49098295,0.4100433,0.00046982768,-0.0010077124,-0.0032421262
UncalMag,1676593613840,121117470010753,-42.834198,5.4045997,-107.5552,-44.47528,5.575939,-61.08579
UncalAccel,1676593613842,121117472962596,2.1260228,1.9920249,8.472985,0.006110925,-0.043260336,-0.038735468
UncalGyro,1676593613846,121117477454906,0.9934196,0.46914452,0.52534413,0.00046982768,-0.0010077124,-0.0032421262
OrientationDeg,1676593613841,121117472962596,349.0,-5.0,-29.0
UncalMag,1676593613848,121117479996593,-42.138798,5.6242,-106.1278,-44.47528,5.575939,-61.08579
UncalAccel,1676593613850,121117481942516,1.7545372,2.300699,7.881958,0.006110925,-0.043260336,-0.038735468
OrientationDeg,1676593613850,121117481942516,349.0,-5.0,-29.0
UncalGyro,1676593613855,121117486433544,0.93508196,0.33124167,0.6275113,0.00046982768,-0.0010077124,-0.0032421262
UncalMag,1676593613860,121117490010753,-45.2132,3.5867999,-110.227,-44.47528,5.575939,-61.08579
UncalAccel,1676593613859,121117490921336,1.6402799,2.7236304,7.5266237,0.006110925,-0.043260336,-0.038735468
OrientationDeg,1676593613859,121117490921336,348.0,-5.0,-29.0
UncalGyro,1676593613865,121117495410717,0.8979719,0.07147124,0.6750061,0.00046982768,-0.0010077124,-0.0032421262
UncalAccel,1676593613868,121117499901744,1.9423738,2.8989046,7.4476604,0.006110925,-0.043260336,-0.038735468
UncalMag,1676593613869,121117499998790,-46.0672,2.9768,-110.3124,-44.47528,5.575939,-61.08579
OrientationDeg,1676593613869,121117499901744,348.0,-5.0,-30.0
UncalGyro,1676593613874,121117504392955,0.93187493,-0.2489276,0.6646214,0.00046982768,-0.0010077124,-0.0032421262
UncalAccel,1676593613877,121117508882274,2.30369,2.8348966,7.591828,0.006110925,-0.043260336,-0.038735468
OrientationDeg,1676593613878,121117508882274,347.0,-6.0,-30.0
UncalMag,1676593613880,121117510010509,-45.0302,3.4404,-112.313194,-44.47528,5.575939,-61.08579
UncalGyro,1676593613883,121117513367992,1.044885,-0.57833666,0.6377433,0.00046982768,-0.0010077124,-0.0032421262
UncalAccel,1676593613886,121117517843395,2.6004,2.4442682,7.719844,0.006110925,-0.043260336,-0.038735468
OrientationDeg,1676593613886,121117517843395,347.0,-7.0,-31.0
UncalMag,1676593613890,121117520010998,-45.5792,2.562,-110.6418,-44.47528,5.575939,-61.08579
UncalGyro,1676593613891,121117522352428,1.2114985,-0.9126327,0.62964934,0.00046982768,-0.0010077124,-0.0032421262
UncalAccel,1676593613895,121117526841503,2.9688947,2.0685952,7.719844,0.006110925,-0.043260336,-0.038735468
OrientationDeg,1676593613896,121117526841503,346.0,-7.0,-31.0
UncalMag,1676593613900,121117530010753,-44.2128,2.806,-108.946,-44.47528,5.575939,-61.08579
UncalGyro,1676593613900,121117531337657,1.3909402,-1.2463179,0.62781674,0.00046982768,-0.0010077124,-0.0032421262
UncalAccel,1676593613905,121117535818004,3.3397822,1.8741783,7.7156568,0.006110925,-0.043260336,-0.038735468
OrientationDeg,1676593613905,121117535818004,346.0,-8.0,-32.0
UncalMag,1676593613910,121117540010509,-42.4682,2.3424,-107.8602,-44.47528,5.575939,-61.08579
UncalGyro,1676593613910,121117540297252,1.5441146,-1.5728253,0.6107125,0.00046982768,-0.0010077124,-0.0032421262
UncalAccel,1676593613914,121117544788951,3.7034912,1.963311,7.541579,0.006110925,-0.043260336,-0.038735468
OrientationDeg,1676593613913,121117544788951,345.0,-10.0,-33.0
UncalGyro,1676593613918,121117549292614,1.6349808,-1.8842138,0.5870415,0.00046982768,-0.0010077124,-0.0032421262
UncalMag,1676593613920,121117550010998,-46.3722,0.92719996,-109.9342,-44.47528,5.575939,-61.08579
UncalAccel,1676593613923,121117553783275,3.8458643,2.408376,7.3776703,0.006110925,-0.043260336,-0.038735468
OrientationDeg,1676593613922,121117553783275,345.0,-11.0,-34.0
UncalGyro,1676593613928,121117558271556,1.6748397,-2.2182045,0.5703954,0.00046982768,-0.0010077124,-0.0032421262
UncalMag,1676593613930,121117560010509,-47.043198,-0.3904,-110.885796,-44.47528,5.575939,-61.08579
UncalAccel,1676593613931,121117562750133,3.8691943,2.9066813,7.2179494,0.006110925,-0.043260336,-0.038735468
OrientationDeg,1676593613931,121117562750133,344.0,-13.0,-34.0
UncalGyro,1676593613936,121117567252025,1.662317,-2.5692992,0.57818395,0.00046982768,-0.0010077124,-0.0032421262
UncalMag,1676593613939,121117569999279,-47.579998,-1.1223999,-109.8854,-44.47528,5.575939,-61.08579
UncalAccel,1676593613941,121117571739574,3.9774694,3.313461,7.201798,0.006110925,-0.043260336,-0.038735468
OrientationDeg,1676593613940,121117571739574,344.0,-14.0,-35.0
UncalGyro,1676593613946,121117576232860,1.617724,-2.887102,0.6275113,0.00046982768,-0.0010077124,-0.0032421262
UncalMag,1676593613949,121117579995617,-49.5808,-1.9519999,-110.3124,-44.47528,5.575939,-61.08579
UncalAccel,1676593613950,121117580719372,4.1347976,3.4420755,7.3363943,0.006110925,-0.043260336,-0.038735468
OrientationDeg,1676593613949,121117580719372,343.0,-16.0,-36.0
UncalGyro,1676593613954,121117585210582,1.538006,-3.092658,0.7107417,0.00046982768,-0.0010077124,-0.0032421262
UncalAccel,1676593613959,121117589696605,4.2161536,3.2117662,7.893324,0.006110925,-0.043260336,-0.038735468
UncalMag,1676593613959,121117590012462,-52.704,-3.0988,-113.3258,-44.47528,5.575939,-61.08579
UncalGyro,1676593613963,121117594179699,1.4393512,-3.1178563,0.8246681,0.00046982768,-0.0010077124,-0.0032421262
OrientationDeg,1676593613958,121117589696605,342.0,-19.0,-36.0
UncalAccel,1676593613967,121117598678783,4.094718,2.690131,8.538189,0.006110925,-0.043260336,-0.038735468
UncalMag,1676593613970,121117600010509,-51.9232,-2.501,-115.2168,-44.47528,5.575939,-61.08579
UncalGyro,1676593613973,121117603170848,1.3406965,-2.970485,0.98670006,0.00046982768,-0.0010077124,-0.0032421262
OrientationDeg,1676593613967,121117598678783,341.0,-21.0,-37.0
UncalAccel,1676593613976,121117607661387,3.6514473,2.391028,9.072986,0.006110925,-0.043260336,-0.038735468
OrientationDeg,1676593613977,121117607661387,340.0,-23.0,-37.0
UncalMag,1676593613980,121117610011242,-53.3628,-3.233,-114.436,-44.47528,5.575939,-61.08579
UncalGyro,1676593613981,121117612149669,1.2382239,-2.6565003,1.2052372,0.00046982768,-0.0010077124,-0.0032421262
UncalAccel,1676593613986,121117616638622,3.0681968,2.096711,8.949755,0.006110925,-0.043260336,-0.038735468
OrientationDeg,1676593613985,121117616638622,339.0,-25.0,-37.0
UncalMag,1676593613990,121117620010753,-53.2042,-3.6111999,-113.1184,-44.47528,5.575939,-61.08579
UncalGyro,1676593613990,121117621127574,1.1264355,-2.2258403,1.4775304,0.00046982768,-0.0010077124,-0.0032421262
UncalAccel,1676593613994,121117625603709,2.745764,1.9118652,8.322835,0.006110925,-0.043260336,-0.038735468
OrientationDeg,1676593613994,121117625603709,338.0,-26.0,-37.0
UncalMag,1676593614000,121117630010998,-56.0224,-5.1117997,-111.874,-44.47528,5.575939,-61.08579
UncalGyro,1676593613999,121117630094554,0.9992228,-1.7443258,1.767844,0.00046982768,-0.0010077124,-0.0032421262
UncalAccel,1676593614004,121117634586010,2.8037899,1.7718852,6.930811,0.006110925,-0.043260336,-0.038735468
OrientationDeg,1676593614003,121117634586010,336.0,-28.0,-37.0
UncalGyro,1676593614008,121117639092541,0.84329945,-1.3381003,2.0525072,0.00046982768,-0.0010077124,-0.0032421262
UncalMag,1676593614010,121117640010753,-58.5966,-5.7462,-112.057,-44.47528,5.575939,-61.08579
UncalAccel,1676593614013,121117643580150,3.3643086,1.7006987,5.374878,0.006110925,-0.043260336,-0.038735468
OrientationDeg,1676593614012,121117643580150,335.0,-30.0,-37.0
UncalGyro,1676593614018,121117648071421,0.67164636,-1.0972667,2.302351,0.00046982768,-0.0010077124,-0.0032421262
UncalMag,1676593614019,121117650010998,-58.023197,-5.185,-112.789,-44.47528,5.575939,-61.08579
UncalAccel,1676593614021,121117652557018,3.8458643,1.8077775,4.543372,0.006110925,-0.043260336,-0.038735468
OrientationDeg,1676593614021,121117652557018,333.0,-31.0,-37.0
UncalGyro,1676593614026,121117657048229,0.5145013,-1.0192287,2.5042422,0.00046982768,-0.0010077124,-0.0032421262
UncalMag,1676593614030,121117660010998,-61.2318,-5.3557997,-112.8012,-44.47528,5.575939,-61.08579
UncalAccel,1676593614030,121117661537669,3.8560338,2.1667008,3.9828532,0.006110925,-0.043260336,-0.038735468
OrientationDeg,1676593614031,121117661537669,332.0,-33.0,-36.0
UncalGyro,1676593614036,121117666031627,0.3652974,-1.0462594,2.6623034,0.00046982768,-0.0010077124,-0.0032421262
UncalMag,1676593614039,121117670010998,-61.7076,-5.612,-112.2156,-44.47528,5.575939,-61.08579
UncalAccel,1676593614039,121117670517040,3.487539,2.2408783,3.414558,0.006110925,-0.043260336,-0.038735468
OrientationDeg,1676593614039,121117670517040,330.0,-34.0,-35.0
UncalGyro,1676593614045,121117675008983,0.18936823,-1.0647382,2.8528934,0.00046982768,-0.0010077124,-0.0032421262
UncalAccel,1676593614049,121117679495067,3.3194432,1.8867407,3.0592237,0.006110925,-0.043260336,-0.038735468
UncalMag,1676593614048,121117679999279,-60.353397,-5.1972,-110.349,-44.47528,5.575939,-61.08579
OrientationDeg,1676593614048,121117679495067,329.0,-36.0,-35.0
UncalGyro,1676593614052,121117683985546,-0.029168816,-1.0485502,3.1117475,0.00046982768,-0.0010077124,-0.0032421262
Status,0,30,0,6,2,1176450050,36.56,79.0,79.0,1,1,1,32.459282
Status,0,30,1,6,2,1575420030,39.78,79.0,79.0,1,1,1,35.57856
Status,0,30,2,3,17,1604249980,41.02,285.0,74.0,1,1,1,36.820816
Status,0,30,3,1,11,1575420030,40.19,148.0,71.0,1,1,1,35.987442
Status,0,30,4,1,11,1176450050,39.75,148.0,71.0,1,1,1,35.64611
Status,0,30,5,3,15,1602000000,43.07,328.0,68.0,1,1,1,38.86596
Status,0,30,6,6,36,1575420030,38.37,61.0,67.0,1,1,1,34.166355
Status,0,30,7,6,36,1176450050,37.28,61.0,67.0,1,1,1,33.177177
Status,0,30,8,1,12,1575420030,47.55,322.0,58.0,1,1,1,43.35237
Status,0,30,9,3,14,1598062460,39.31,146.0,54.0,1,1,1,35.11118
Status,0,30,10,6,34,1176450050,42.64,202.0,52.0,1,1,1,38.539455
Status,0,30,11,6,34,1575420030,45.45,202.0,52.0,1,1,1,41.24569
Status,0,30,12,1,6,1176450050,37.24,53.0,51.0,1,1,1,33.144817
Status,0,30,13,1,6,1575420030,40.26,53.0,51.0,1,1,1,36.06476
Status,0,30,14,1,24,1575420030,47.10,225.0,44.0,1,1,1,42.90013
Status,0,30,15,1,24,1176450050,46.15,225.0,44.0,1,1,1,42.04674
Status,0,30,16,6,30,1575420030,42.39,314.0,40.0,1,1,1,38.193256
Status,0,30,17,6,30,1176450050,37.08,314.0,40.0,1,1,1,32.975033
Status,0,30,18,3,24,1603124990,45.56,31.0,38.0,1,1,1,41.359093
Status,0,30,19,1,19,1575420030,39.84,56.0,31.0,1,1,1,35.64077
Status,0,30,20,6,25,1575420030,36.67,121.0,30.0,1,1,1,32.4672
Status,0,30,21,6,25,1176450050,32.32,121.0,30.0,1,1,1,28.215748
Status,0,30,22,3,18,1600312450,45.40,231.0,29.0,1,1,1,41.20373
Status,0,30,23,1,25,1176450050,35.86,310.0,28.0,1,1,1,31.761267
Status,0,30,24,1,25,1575420030,43.78,310.0,28.0,1,1,1,39.578453
Status,0,30,25,1,20,1575420030,37.73,147.0,20.0,1,1,1,33.5252
Status,0,30,26,6,11,1575420030,35.56,40.0,19.0,1,1,1,31.35777
Status,0,30,27,6,11,1176450050,29.22,40.0,19.0,1,1,1,25.116842
Status,0,30,28,3,16,1601437440,45.12,327.0,14.0,1,1,1,40.92079
Status,0,30,29,1,29,1575420030,43.83,259.0,10.0,1,1,1,39.62979
Fix,GPS,37.4312963720,-122.1550320876,-16.260444672854273,0.12938893,2.852269,341.95847,1676593613000,0.1093379,28.219551,121117586882000,3.0
UncalAccel,1676593614057,121117688476390,3.5036905,1.1473584,3.3326037,0.006110925,-0.043260336,-0.038735468
UncalMag,1676593614058,121117689999035,-63.2448,-5.3192,-112.776794,-44.47528,5.575939,-61.08579
OrientationDeg,1676593614058,121117688476390,327.0,-37.0,-34.0
Raw,1676593613000,252539000000,,,-1360628578461108165,0.0,7.0282952710436675,294.0,1.0,17,6,0.0,16431,433630929448042,17,39.55680847167969,457.09509336793235,0.15,16,112425.2344123751,340282346638528860000000000000000000000,1575420030,,,,0,,1,,35.356807708740234,0.320142130558394,1.0,0.320142130558394,1.0,C,121117586882000
Raw,1676593613000,252539000000,,,-1360628578461108165,0.0,7.0282952710436675,294.0,1.0,17,11,0.0,16431,433630931704215,22,36.852298736572266,-94.56861767568438,0.15,16,-27560.92682360177,340282346638528860000000000000000000000,1575420030,,,,0,,1,,32.65229797363281,-0.20372681261465636,1.0,-0.20372681261465636,1.0,C,121117586882000
Raw,1676593613000,252539000000,,,-1360628578461108165,0.0,7.0282952710436675,294.0,1.0,17,12,0.0,16431,433630930556958,11,47.552371978759766,-248.3412059692405,0.15,16,-64489.596672557505,340282346638528860000000000000000000000,1575420030,,,,0,,1,,43.35237121582031,-0.6984919076624261,1.0,-0.6984919076624261,1.0,C,121117586882000
Raw,1676593613000,252539000000,,,-1360628578461108165,0.0,7.0282952710436675,294.0,1.0,17,19,0.0,16431,433630925332474,23,36.20131301879883,577.0965598583998,0.15,16,144975.02584322053,340282346638528860000000000000000000000,1575420030,,,,0,,1,,32.001312255859375,0.0,1.0,0.0,1.0,C,121117586882000
Raw,1676593613000,252539000000,,,-1360628578461108165,0.0,7.0282952710436675,294.0,1.0,17,20,0.0,16431,433630921324303,29,33.56024932861328,-478.6868408119806,0.6285919319373017,16,-121193.61878793055,340282346638528860000000000000000000000,1575420030,,,,1,,1,,29.360248565673828,0.0,1.0,0.0,1.0,C,121117586882000
Raw,1676593613000,252539000000,,,-1360628578461108165,0.0,7.0282952710436675,294.0,1.0,17,24,0.0,16431,433630927027968,12,44.46207046508789,525.8676284484418,0.15,16,130112.42958070339,340282346638528860000000000000000000000,1575420030,,,,0,,1,,40.26206970214844,-0.20372681261465636,1.0,-0.20372681261465636,1.0,C,121117586882000
Raw,1676593613000,252539000000,,,-1360628578461108165,0.0,7.0282952710436675,294.0,1.0,17,25,0.0,16431,433630924897146,14,42.116844177246094,-479.5486838900729,0.15,16,-121856.59103238855,340282346638528860000000000000000000000,1575420030,,,,0,,1,,37.91684341430664,-2.0372682255564105,1.0,-2.0372682255564105,1.0,C,121117586882000
Raw,1676593613000,252539000000,,,-1360628578461108165,0.0,7.0282952710436675,294.0,1.0,17,29,0.0,16419,433630916968908,26,34.48733901977539,-429.80431612133543,0.5897158311583963,16,-34063.43796323879,340282346638528860000000000000000000000,1575420030,,,,0,,1,,30.28734016418457,-0.6984919076624261,1.0,-0.6984919076624261,1.0,C,121117586882000
Raw,1676593613000,252539000000,,,-1360628578461108165,0.0,7.0282952710436675,294.0,1.0,17,6,0.0,81921,433630929448580,20,32.56547546386719,457.0969679030411,0.6702902864451086,16,113775.47397470126,340282346638528860000000000000000000000,1176450050,,,,0,,1,,28.46547508239746,1.9208527336454408,1.5926519335070433,1.9208527336454408,1.0,Q,121117586882000
Raw,1676593613000,252539000000,,,-1360628578461108165,0.0,7.0282952710436675,294.0,1.0,17,11,0.0,81921,433630931704747,14,34.2346305847168,-95.78509723451066,0.5956359937967872,16,-27937.77600639336,340282346638528860000000000000000000000,1176450050,,,,0,,1,,30.134632110595703,0.0,1.5926519335070433,0.0,1.0,Q,121117586882000
Raw,1676593613000,252539000000,,,-1360628578461108165,0.0,7.0282952710436675,294.0,1.0,17,24,0.0,81921,433630927028522,8,46.1467399597168,525.412286829297,0.15,16,131655.67987646334,340282346638528860000000000000000000000,1176450050,,,,0,,1,,42.0467414855957,3.5215636101095664,1.5926519335070433,3.5215636101095664,1.0,Q,121117586882000
Raw,1676593613000,252539000000,,,-1360628578461108165,0.0,7.0282952710436675,294.0,1.0,17,25,0.0,81921,433630924897677,12,34.56630325317383,-480.04782146584944,0.5794966192872786,16,-123372.1154835066,340282346638528860000000000000000000000,1176450050,,,,0,,1,,30.466304779052734,1.0186341127782053,1.5926519335070433,1.0186341127782053,1.0,Q,121117586882000
Raw,1676593613000,252539000000,,,-1360628578461108165,0.0,7.0282952710436675,294.0,1.0,17,14,0.0,32995,12412933246239,66,31.862945556640625,541.532743445282,0.7070622615048157,16,132724.8255290199,340282346638528860000000000000000000000,1598062460,,,,0,,3,,27.662946701049805,50.29141902923584,2.0000000474974513,50.29141902923584,2.0000000474974513,C,121117586882000
Raw,1676593613000,252539000000,,,-1360628578461108165,0.0,7.0282952710436675,294.0,1.0,17,18,0.0,32995,12412927637213,33,45.021480560302734,-494.281302876449,0.15,16,-126915.74510394604,340282346638528860000000000000000000000,1600312450,,,,0,,3,,40.82147979736328,50.29141902923584,2.0000000474974513,50.29141902923584,2.0000000474974513,C,121117586882000
Raw,1676593613000,252539000000,,,-1360628578461108165,0.0,7.0282952710436675,294.0,1.0,17,16,0.0,32995,12412922626358,33,44.87248229980469,-678.774616073074,0.15,16,-171205.78504680705,340282346638528860000000000000000000000,1601437440,,,,0,,3,,40.672481536865234,50.29141902923584,2.0000000474974513,50.29141902923584,2.0000000474974513,C,121117586882000
Raw,1676593613000,252539000000,,,-1360628578461108165,0.0,7.0282952710436675,294.0,1.0,17,15,0.0,32995,12412935087131,33,42.706600189208984,-218.24978806402294,0.15,16,-58840.09922963305,340282346638528860000000000000000000000,1602000000,,,,0,,3,,38.50659942626953,50.29141902923584,2.0000000474974513,50.29141902923584,2.0000000474974513,C,121117586882000
Raw,1676593613000,252539000000,,,-1360628578461108165,0.0,7.0282952710436675,294.0,1.0,17,24,0.0,32867,12412929837100,33,40.72881317138672,688.7890642731713,0.15,16,173006.60972752378,340282346638528860000000000000000000000,1603124990,,,,0,,3,,36.528812408447266,50.29141902923584,2.0000000474974513,50.29141902923584,2.0000000474974513,C,121117586882000
Raw,1676593613000,252539000000,,,-1360628578461108165,0.0,7.0282952710436675,294.0,1.0,17,17,0.0,32867,12412936206809,46,36.380035400390625,64.17344413701434,0.15,16,12467.136026008811,340282346638528860000000000000000000000,1604249980,,,,0,,3,,32.18003463745117,50.29141902923584,2.0000000474974513,50.29141902923584,2.0000000474974513,C,121117586882000
Raw,1676593613000,252539000000,,,-1360628578461108165,0.0,7.0282952710436675,294.0,1.0,17,2,0.0,85026,433630922325796,17,39.778560638427734,119.64564564436932,0.15,16,28779.12617180286,340282346638528860000000000000000000000,1575420030,,,,0,,6,,35.57855987548828,-6.024492904543876,1.5000000237487257,-6.024492904543876,1.5000000237487257,C,121117586882000
Raw,1676593613000,252539000000,,,-1360628578461108165,0.0,7.0282952710436675,294.0,1.0,17,11,0.0,85026,433630911257912,28,33.5968017578125,599.8553928611586,0.6280155922721171,16,150827.6576386731,340282346638528860000000000000000000000,1575420030,,,,0,,6,,29.396800994873047,-6.024492904543876,1.5000000237487257,-6.024492904543876,1.5000000237487257,C,121117586882000
Raw,1676593613000,252539000000,,,-1360628578461108165,0.0,7.0282952710436675,294.0,1.0,17,25,0.0,85026,433630913182329,30,33.054534912109375,489.5041353579293,0.6520272819981181,16,121837.76103322435,340282346638528860000000000000000000000,1575420030,,,,0,,6,,28.854536056518555,-6.024492904543876,1.5000000237487257,-6.024492904543876,1.5000000237487257,C,121117586882000
Raw,1676593613000,252539000000,,,-1360628578461108165,0.0,7.0282952710436675,294.0,1.0,17,30,0.0,85026,433630915238473,15,41.41133499145508,-302.9119563237166,0.15,16,-76965.5442318909,340282346638528860000000000000000000000,1575420030,,,,0,,6,,37.211334228515625,-6.024492904543876,1.5000000237487257,-6.024492904543876,1.5000000237487257,C,121117586882000
Raw,1676593613000,252539000000,,,-1360628578461108165,0.0,7.0282952710436675,294.0,1.0,17,34,0.0,85026,433630919067483,18,38.94822311401367,-289.7514928918247,0.15,16,-74923.72623630235,340282346638528860000000000000000000000,1575420030,,,,0,,6,,34.74822235107422,-6.024492904543876,1.5000000237487257,-6.024492904543876,1.5000000237487257,C,121117586882000
Raw,1676593613000,252539000000,,,-1360628578461108165,0.0,7.0282952710436675,294.0,1.0,17,36,0.0,85026,433630921312314,20,37.63907241821289,237.95749139394673,0.15,16,58092.95105336699,340282346638528860000000000000000000000,1575420030,,,,0,,6,,33.43907165527344,-6.024492904543876,1.5000000237487257,-6.024492904543876,1.5000000237487257,C,121117586882000
Raw,1676593613000,252539000000,,,-1360628578461108165,0.0,7.0282952710436675,294.0,1.0,17,2,0.0,84003,433630922326351,12,32.63532638549805,118.26973687454347,0.6694655176241757,16,28700.352933774375,340282346638528860000000000000000000000,1176450050,,,,0,,6,,28.535327911376953,-3.808038309216499,2.092651957255769,-3.808038309216499,1.5000000237487257,Q,121117586882000
Raw,1676593613000,252539000000,,,-1360628578461108165,0.0,7.0282952710436675,294.0,1.0,17,11,0.0,84003,433630911258463,87,23.11934471130371,600.1579769101681,1.0953976379911214,16,152456.4390411392,340282346638528860000000000000000000000,1176450050,,,,0,,6,,19.019344329833984,5.057780072093007,2.092651957255769,5.057780072093007,1.5000000237487257,Q,121117586882000
Raw,1676593613000,252539000000,,,-1360628578461108165,0.0,7.0282952710436675,294.0,1.0,17,25,0.0,84003,433630913182873,26,29.377613067626953,489.34306166840247,0.8143165569518009,16,121228.2501244455,340282346638528860000000000000000000000,1176450050,,,,0,,6,,25.277612686157227,-8.979765698313711,2.092651957255769,-8.979765698313711,1.5000000237487257,Q,121117586882000
Raw,1676593613000,252539000000,,,-1360628578461108165,0.0,7.0282952710436675,294.0,1.0,17,30,0.0,84003,433630915239012,7,37.044395446777344,-302.9064690482164,0.15,16,-78188.30712115054,340282346638528860000000000000000000000,1176450050,,,,0,,6,,32.94439697265625,-8.425652049481869,2.092651957255769,-8.425652049481869,1.5000000237487257,Q,121117586882000
Raw,1676593613000,252539000000,,,-1360628578461108165,0.0,7.0282952710436675,294.0,1.0,17,34,0.0,84003,433630919068043,8,42.63945388793945,-289.9016601952642,0.15,16,-75650.22437973972,340282346638528860000000000000000000000,1176450050,,,,0,,6,,38.53945541381836,-11.011515744030472,2.092651957255769,-11.011515744030472,1.5000000237487257,Q,121117586882000
Raw,1676593613000,252539000000,,,-1360628578461108165,0.0,7.0282952710436675,294.0,1.0,17,36,0.0,84003,433630921312873,16,36.56982421875,237.82020725907284,0.15,16,58180.68757704009,340282346638528860000000000000000000000,1176450050,,,,0,,6,,32.469825744628906,-11.750333942472933,2.092651957255769,-11.750333942472933,1.5000000237487257,Q,121117586882000
UncalGyro,1676593614061,121117692968151,-0.26221392,-1.0173961,3.4106133,0.00046982768,-0.0010077124,-0.0032421262
UncalAccel,1676593614066,121117697456432,3.7860436,0.22552353,4.563711,0.006110925,-0.043260336,-0.038735468
UncalMag,1676593614069,121117700010998,-65.697,-5.2338,-112.3254,-44.47528,5.575939,-61.08579
UncalGyro,1676593614070,121117701945933,-0.44119743,-0.9095783,3.7643044,0.00046982768,-0.0010077124,-0.0032421262
UncalAccel,1676593614075,121117706432079,3.6394832,-0.07956135,5.805586,0.006110925,-0.043260336,-0.038735468
UncalMag,1676593614080,121117710010753,-66.8926,-4.3066,-111.752,-44.47528,5.575939,-61.08579
UncalGyro,1676593614080,121117710927867,-0.5511532,-0.7657196,4.142888,0.00046982768,-0.0010077124,-0.0032421262
OrientationDeg,1676593614067,121117697456432,325.0,-38.0,-32.0
OrientationDeg,1676593614076,121117706432079,324.0,-40.0,-31.0
Fix,FLP,37.4312922000,-122.1550446000,-16.200000762939453,0.12668371,3.732,281.83633,1676593613910,,,121117540297252,4.562875
UncalAccel,1676593614085,121117715415416,3.891926,0.23509483,5.393422,0.006110925,-0.043260336,-0.038735468
OrientationDeg,1676593614085,121117715415416,322.0,-41.0,-29.0
UncalGyro,1676593614088,121117719907237,-0.5508477,-0.86315256,4.504062,0.00046982768,-0.0010077124,-0.0032421262
UncalMag,1676593614088,121117719999035,-66.4656,-3.0744,-112.0326,-44.47528,5.575939,-61.08579
UncalAccel,1676593614094,121117724393565,5.1122656,0.07836494,4.13061,0.006110925,-0.043260336,-0.038735468
OrientationDeg,1676593614094,121117724393565,320.0,-42.0,-27.0
UncalGyro,1676593614098,121117728882030,-0.35888332,-1.3322971,4.824919,0.00046982768,-0.0010077124,-0.0032421262
UncalMag,1676593614100,121117730010753,-70.6624,-4.026,-111.569,-44.47528,5.575939,-61.08579
UncalAccel,1676593614103,121117733375133,6.1010995,-0.061615184,3.4911282,0.006110925,-0.043260336,-0.038735468
OrientationDeg,1676593614102,121117733375133,318.0,-44.0,-25.0
UncalGyro,1676593614107,121117737865795,0.007330383,-2.0352502,5.09202,0.00046982768,-0.0010077124,-0.0032421262
UncalMag,1676593614110,121117740010753,-66.8682,-1.6104,-108.884995,-44.47528,5.575939,-61.08579
UncalAccel,1676593614111,121117742355419,7.5296144,0.07776674,3.0693932,0.006110925,-0.043260336,-0.038735468
OrientationDeg,1676593614111,121117742355419,316.0,-46.0,-23.0
UncalGyro,1676593614116,121117746843639,0.45845437,-2.773023,5.269018,0.00046982768,-0.0010077124,-0.0032421262
UncalMag,1676593614120,121117750010998,-67.3928,-0.90279996,-108.091995,-44.47528,5.575939,-61.08579
UncalAccel,1676593614121,121117751322887,8.899506,0.60658056,2.516053,0.006110925,-0.043260336,-0.038735468
OrientationDeg,1676593614121,121117751322887,313.0,-49.0,-21.0
UncalGyro,1676593614125,121117755825389,0.8242099,-3.3388367,5.3479724,0.00046982768,-0.0010077124,-0.0032421262
UncalMag,1676593614129,121117760010998,-68.2224,0.5978,-107.665,-44.47528,5.575939,-61.08579
UncalAccel,1676593614129,121117760310924,9.557532,1.0576276,1.2628121,0.006110925,-0.043260336,-0.038735468
OrientationDeg,1676593614129,121117760310924,311.0,-52.0,-20.0
UncalGyro,1676593614133,121117764797191,0.8906415,-3.59876,5.4064627,0.00046982768,-0.0010077124,-0.0032421262
UncalAccel,1676593614139,121117769293834,9.830314,0.67178494,-0.42951167,0.006110925,-0.043260336,-0.038735468
UncalMag,1676593614138,121117769999035,-68.808,1.5128,-106.2864,-44.47528,5.575939,-61.08579
OrientationDeg,1676593614138,121117769293834,309.0,-54.0,-18.0
UncalGyro,1676593614142,121117773784862,0.6041457,-3.6137261,5.486028,0.00046982768,-0.0010077124,-0.0032421262
UncalAccel,1676593614148,121117778276439,10.2825575,-0.24705894,-0.76570326,0.006110925,-0.043260336,-0.038735468
OrientationDeg,1676593614147,121117778276439,307.0,-57.0,-15.0
UncalMag,1676593614150,121117780010753,-71.040596,2.1227999,-104.822395,-44.47528,5.575939,-61.08579
UncalGyro,1676593614152,121117782765270,0.10873401,-3.3400583,5.5057282,0.00046982768,-0.0010077124,-0.0032421262
UncalAccel,1676593614156,121117787253185,11.059028,-0.7692925,-0.48394838,0.006110925,-0.043260336,-0.038735468
OrientationDeg,1676593614156,121117787253185,305.0,-59.0,-13.0
UncalMag,1676593614160,121117790007091,-71.9678,3.2696,-103.6878,-44.47528,5.575939,-61.08579
UncalGyro,1676593614160,121117791743785,-0.40882155,-2.9819386,5.4788504,0.00046982768,-0.0010077124,-0.0032421262
UncalAccel,1676593614165,121117796232738,11.537593,-1.7784654,0.48035914,0.006110925,-0.043260336,-0.038735468
OrientationDeg,1676593614166,121117796232738,304.0,-60.0,-10.0
UncalMag,1676593614170,121117800010753,-73.7734,4.6359997,-104.2246,-44.47528,5.575939,-61.08579
UncalGyro,1676593614169,121117800723461,-0.71975195,-2.786309,5.5072556,0.00046982768,-0.0010077124,-0.0032421262
UncalAccel,1676593614175,121117805212657,11.911471,-3.266801,1.6612171,0.006110925,-0.043260336,-0.038735468
OrientationDeg,1676593614175,121117805212657,302.0,-62.0,-7.0
UncalGyro,1676593614179,121117809703685,-0.7101309,-2.8060095,5.5936933,0.00046982768,-0.0010077124,-0.0032421262
UncalMag,1676593614179,121117809999035,-73.7612,7.2468,-104.4808,-44.47528,5.575939,-61.08579
UncalAccel,1676593614184,121117814192638,11.821142,-4.517649,2.559722,0.006110925,-0.043260336,-0.038735468
OrientationDeg,1676593614184,121117814192638,301.0,-64.0,-5.0
UncalGyro,1676593614188,121117818684459,-0.4027129,-3.040429,5.7125063,0.00046982768,-0.0010077124,-0.0032421262
UncalMag,1676593614190,121117820010509,-77.8116,7.7226,-104.9566,-44.47528,5.575939,-61.08579
UncalAccel,1676593614192,121117823169322,11.611172,-5.1828537,2.5932214,0.006110925,-0.043260336,-0.038735468
OrientationDeg,1676593614193,121117823169322,300.0,-65.0,-2.0
UncalGyro,1676593614196,121117827652538,0.0852157,-3.4633005,5.8404827,0.00046982768,-0.0010077124,-0.0032421262
UncalMag,1676593614200,121117830010753,-78.8608,8.9426,-103.5536,-44.47528,5.575939,-61.08579
UncalAccel,1676593614201,121117832151989,10.8352995,-5.9694943,2.0141585,0.006110925,-0.043260336,-0.038735468
OrientationDeg,1676593614201,121117832151989,298.0,-67.0,0.0
UncalGyro,1676593614206,121117836643932,0.59620446,-3.9214494,6.0432897,0.00046982768,-0.0010077124,-0.0032421262
UncalMag,1676593614210,121117840010998,-77.6896,11.8828,-100.2352,-44.47528,5.575939,-61.08579
UncalAccel,1676593614210,121117841134105,9.667602,-6.7633133,1.8041883,0.006110925,-0.043260336,-0.038735468
OrientationDeg,1676593614210,121117841134105,296.0,-69.0,3.0
UncalGyro,1676593614214,121117845622326,1.0094548,-4.2282567,6.3323817,0.00046982768,-0.0010077124,-0.0032421262
UncalMag,1676593614220,121117850010998,-80.3736,12.285399,-98.4052,-44.47528,5.575939,-61.08579
UncalAccel,1676593614219,121117850107982,8.874381,-7.895118,1.4518452,0.006110925,-0.043260336,-0.038735468
OrientationDeg,1676593614219,121117850107982,295.0,-72.0,6.0
UncalGyro,1676593614223,121117854591442,1.2809844,-4.343405,6.729444,0.00046982768,-0.0010077124,-0.0032421262
UncalAccel,1676593614229,121117859090953,7.8029947,-8.752347,0.8279166,0.006110925,-0.043260336,-0.038735468
UncalMag,1676593614228,121117859999279,-82.1548,13.7128,-98.7346,-44.47528,5.575939,-61.08579
UncalGyro,1676593614232,121117863581981,1.46852,-4.425413,7.483252,0.00046982768,-0.0010077124,-0.0032421262
OrientationDeg,1676593614229,121117859090953,293.0,-74.0,9.0
UncalAccel,1676593614238,121117868073314,7.2006016,-8.810971,1.082154,0.006110925,-0.043260336,-0.038735468
OrientationDeg,1676593614238,121117868073314,291.0,-76.0,13.0
UncalMag,1676593614240,121117870010998,-83.265,15.3963995,-97.1242,-44.47528,5.575939,-61.08579
UncalGyro,1676593614241,121117872561412,1.7050776,-4.6018004,8.318305,0.00046982768,-0.0010077124,-0.0032421262
UncalAccel,1676593614246,121117877050365,8.762517,-9.333803,-0.40498522,0.006110925,-0.043260336,-0.038735468
OrientationDeg,1676593614247,121117877050365,289.0,-77.0,17.0
UncalMag,1676593614248,121117879999279,-82.6672,17.8608,-95.892,-44.47528,5.575939,-61.08579
UncalGyro,1676593614250,121117881541149,1.9300288,-4.84294,8.740413,0.00046982768,-0.0010077124,-0.0032421262
UncalAccel,1676593614255,121117886030467,10.091729,-10.208978,0.4019942,0.006110925,-0.043260336,-0.038735468
OrientationDeg,1676593614255,121117886030467,286.0,-79.0,22.0
UncalMag,1676593614260,121117890010753,-83.6188,19.6054,-92.524796,-44.47528,5.575939,-61.08579
UncalGyro,1676593614260,121117890522045,2.1424572,-4.777577,8.693376,0.00046982768,-0.0010077124,-0.0032421262
UncalAccel,1676593614264,121117895009716,11.963515,-11.236097,2.0063818,0.006110925,-0.043260336,-0.038735468
OrientationDeg,1676593614265,121117895009716,284.0,-81.0,26.0
UncalGyro,1676593614269,121117899500866,2.2967007,-4.2785,8.193383,0.00046982768,-0.0010077124,-0.0032421262
UncalMag,1676593614268,121117899996349,-85.046196,21.6428,-95.6114,-44.47528,5.575939,-61.08579
UncalAccel,1676593614273,121117903989696,11.9922285,-12.31885,5.227121,0.006110925,-0.043260336,-0.038735468
OrientationDeg,1676593614273,121117903989696,281.0,-82.0,30.0
UncalGyro,1676593614277,121117908481945,2.386956,-3.2635477,7.628027,0.00046982768,-0.0010077124,-0.0032421262
UncalMag,1676593614279,121117910010509,-82.1182,23.558199,-92.061195,-44.47528,5.575939,-61.08579
UncalAccel,1676593614281,121117912966625,12.546167,-13.90888,6.398408,0.006110925,-0.043260336,-0.038735468
OrientationDeg,1676593614281,121117912966625,279.0,-82.0,33.0
UncalGyro,1676593614286,121117917448375,2.2867742,-2.1574233,7.304574,0.00046982768,-0.0010077124,-0.0032421262
UncalMag,1676593614289,121117920010998,-83.265,25.156399,-93.9888,-44.47528,5.575939,-61.08579
UncalAccel,1676593614290,121117921949108,11.660823,-14.354543,5.4346986,0.006110925,-0.043260336,-0.038735468
OrientationDeg,1676593614290,121117921949108,277.0,-82.0,37.0
UncalGyro,1676593614295,121117926441295,2.0712914,-1.4697418,7.4136133,0.00046982768,-0.0010077124,-0.0032421262
UncalMag,1676593614300,121117930010998,-79.9466,26.8766,-91.0608,-44.47528,5.575939,-61.08579
UncalAccel,1676593614299,121117930932079,10.398011,-14.264812,7.463812,0.006110925,-0.043260336,-0.038735468
OrientationDeg,1676593614299,121117930932079,275.0,-81.0,40.0
UncalGyro,1676593614305,121117935416881,2.059074,-0.92271197,7.7314157,0.00046982768,-0.0010077124,-0.0032421262
UncalAccel,1676593614309,121117939896618,11.023734,-15.743577,10.676176,0.006110925,-0.043260336,-0.038735468
UncalMag,1676593614308,121117939999035,-77.1406,28.9628,-89.9506,-44.47528,5.575939,-61.08579
OrientationDeg,1676593614308,121117939896618,272.0,-80.0,44.0
UncalGyro,1676593614314,121117944399730,2.307849,-0.26221392,8.066781,0.00046982768,-0.0010077124,-0.0032421262
UncalAccel,1676593614318,121117948888378,12.942778,-17.667406,13.014563,0.006110925,-0.043260336,-0.038735468
OrientationDeg,1676593614317,121117948888378,269.0,-77.0,48.0
UncalMag,1676593614320,121117950010998,-75.4936,30.7684,-90.804596,-44.47528,5.575939,-61.08579
UncalGyro,1676593614322,121117953382457,2.740036,0.43127087,8.299063,0.00046982768,-0.0010077124,-0.0032421262
OrientationDeg,1676593614327,121117957865611,265.0,-74.0,52.0
UncalAccel,1676593614327,121117957865611,14.839688,-18.790836,13.279568,0.006110925,-0.043260336,-0.038735468
UncalMag,1676593614330,121117960010998,-72.2728,32.8546,-91.438995,-44.47528,5.575939,-61.08579
UncalGyro,1676593614331,121117962349498,3.2496505,0.871552,8.428871,0.00046982768,-0.0010077124,-0.0032421262
UncalAccel,1676593614335,121117966847667,16.38904,-19.567307,13.144373,0.006110925,-0.043260336,-0.038735468
OrientationDeg,1676593614335,121117966847667,259.0,-69.0,56.0
UncalMag,1676593614340,121117970010509,-70.5038,33.1718,-92.1466,-44.47528,5.575939,-61.08579
UncalGyro,1676593614340,121117971338451,3.8353174,0.9964739,8.463079,0.00046982768,-0.0010077124,-0.0032421262
UncalAccel,1676593614345,121117975829906,17.864815,-20.48316,12.107682,0.006110925,-0.043260336,-0.038735468
OrientationDeg,1676593614345,121117975829906,252.0,-63.0,59.0
UncalMag,1676593614349,121117980010265,-67.160995,33.8306,-93.293396,-44.47528,5.575939,-61.08579
UncalGyro,1676593614349,121117980316539,4.500244,0.72509706,8.392372,0.00046982768,-0.0010077124,-0.0032421262
UncalAccel,1676593614354,121117984795482,18.70589,-21.035303,10.831112,0.006110925,-0.043260336,-0.038735468
OrientationDeg,1676593614353,121117984795482,243.0,-55.0,61.0
UncalGyro,1676593614359,121117989294872,5.1830387,0.16157386,8.217207,0.00046982768,-0.0010077124,-0.0032421262
UncalMag,1676593614359,121117990000744,-66.2948,33.489,-96.6728,-44.47528,5.575939,-61.08579
UncalAccel,1676593614363,121117993775219,18.597616,-20.315662,9.729217,0.006110925,-0.043260336,-0.038735468
OrientationDeg,1676593614363,121117993775219,232.0,-46.0,62.0
UncalGyro,1676593614368,121117998281628,5.851173,-0.46960264,7.9540763,0.00046982768,-0.0010077124,-0.0032421262
UncalMag,1676593614370,121118000010753,-64.7088,33.245,-99.247,-44.47528,5.575939,-61.08579
UncalAccel,1676593614372,121118002763866,18.55275,-19.016958,8.277371,0.006110925,-0.043260336,-0.038735468
OrientationDeg,1676593614371,121118002763866,220.0,-36.0,63.0
UncalGyro,1676593614376,121118007248607,6.478837,-1.1085677,7.560068,0.00046982768,-0.0010077124,-0.0032421262
UncalMag,1676593614380,121118010010753,-60.731598,33.062,-101.235596,-44.47528,5.575939,-61.08579
UncalAccel,1676593614381,121118011746044,18.910477,-17.542978,6.6185474,0.006110925,-0.043260336,-0.038735468
OrientationDeg,1676593614380,121118011746044,209.0,-27.0,62.0
UncalGyro,1676593614385,121118016237316,6.9973087,-1.7669277,7.0125804,0.00046982768,-0.0010077124,-0.0032421262
UncalMag,1676593614390,121118020010753,-56.302998,32.3056,-101.1502,-44.47528,5.575939,-61.08579
UncalAccel,1676593614389,121118020728648,18.68914,-15.566507,5.236094,0.006110925,-0.043260336,-0.038735468
OrientationDeg,1676593614389,121118020728648,200.0,-20.0,60.0
UncalGyro,1676593614395,121118025213207,7.399105,-2.3677137,6.322608,0.00046982768,-0.0010077124,-0.0032421262
UncalAccel,1676593614399,121118029690990,17.686548,-13.403396,4.0510488,0.006110925,-0.043260336,-0.038735468
UncalMag,1676593614399,121118029999523,-55.6198,30.560999,-103.0778,-44.47528,5.575939,-61.08579
OrientationDeg,1676593614399,121118029690990,192.0,-15.0,57.0
UncalGyro,1676593614403,121118034197704,7.659792,-2.805704,5.5686474,0.00046982768,-0.0010077124,-0.0032421262
UncalAccel,1676593614407,121118038681774,16.675581,-11.743376,2.7684958,0.006110925,-0.043260336,-0.038735468
UncalMag,1676593614409,121118039999035,-56.1688,27.681799,-103.3218,-44.47528,5.575939,-61.08579
OrientationDeg,1676593614408,121118038681774,186.0,-11.0,53.0
UncalGyro,1676593614412,121118043165477,7.7462296,-3.0793717,4.7801733,0.00046982768,-0.0010077124,-0.0032421262
UncalAccel,1676593614416,121118047665172,16.09233,-10.2682,1.5200406,0.006110925,-0.043260336,-0.038735468
OrientationDeg,1676593614416,121118047665172,181.0,-9.0,50.0
UncalMag,1676593614419,121118050010998,-56.73,25.034399,-104.3954,-44.47528,5.575939,-61.08579
UncalGyro,1676593614422,121118052157116,7.6558213,-3.2632422,3.9310706,0.00046982768,-0.0010077124,-0.0032421262
OrientationDeg,1676593614425,121118056648509,177.0,-8.0,46.0
UncalAccel,1676593614425,121118056648509,15.266807,-8.748757,0.13280165,0.006110925,-0.043260336,-0.038735468
UncalMag,1676593614430,121118060010998,-58.010998,21.9722,-105.225,-44.47528,5.575939,-61.08579
UncalGyro,1676593614430,121118061135631,7.3984942,-3.4616206,3.0879238,0.00046982768,-0.0010077124,-0.0032421262
UncalAccel,1676593614434,121118065624706,13.663017,-7.411768,-1.2640085,0.006110925,-0.043260336,-0.038735468
OrientationDeg,1676593614435,121118065624706,175.0,-8.0,43.0
UncalMag,1676593614439,121118070010998,-60.5242,18.605,-107.909,-44.47528,5.575939,-61.08579
UncalGyro,1676593614440,121118070113902,6.976081,-3.68535,2.3477077,0.00046982768,-0.0010077124,-0.0032421262
UncalAccel,1676593614444,121118074592723,11.599806,-5.9994044,-2.1619153,0.006110925,-0.043260336,-0.038735468
OrientationDeg,1676593614443,121118074592723,173.0,-9.0,40.0
UncalGyro,1676593614448,121118079095226,6.4224844,-3.8843393,1.7343992,0.00046982768,-0.0010077124,-0.0032421262
UncalMag,1676593614448,121118079992443,-60.511997,16.8116,-108.262794,-44.47528,5.575939,-61.08579
UncalAccel,1676593614453,121118083583324,9.352945,-4.475775,-2.4741786,0.006110925,-0.043260336,-0.038735468
OrientationDeg,1676593614452,121118083583324,171.0,-10.0,37.0
UncalGyro,1676593614457,121118088078014,5.796042,-4.0071235,1.2432635,0.00046982768,-0.0010077124,-0.0032421262
UncalMag,1676593614458,121118089999035,-61.914997,13.9567995,-110.044,-44.47528,5.575939,-61.08579
UncalAccel,1676593614461,121118092563915,7.6127653,-3.0514472,-3.0323045,0.006110925,-0.043260336,-0.038735468
OrientationDeg,1676593614462,121118092563915,170.0,-12.0,34.0
UncalGyro,1676593614466,121118097055187,5.1466923,-4.1239514,0.84711736,0.00046982768,-0.0010077124,-0.0032421262
UncalMag,1676593614470,121118100010753,-63.745,10.5042,-107.238,-44.47528,5.575939,-61.08579
UncalAccel,1676593614471,121118101541698,5.968896,-1.8669999,-3.3385859,0.006110925,-0.043260336,-0.038735468
OrientationDeg,1676593614470,121118101541698,169.0,-13.0,32.0
UncalGyro,1676593614476,121118106027050,4.5561385,-4.2751403,0.5027421,0.00046982768,-0.0010077124,-0.0032421262
UncalMag,1676593614480,121118110010753,-66.3436,8.259399,-107.933395,-44.47528,5.575939,-61.08579
UncalAccel,1676593614480,121118110523510,5.508278,-1.125823,-3.5084763,0.006110925,-0.043260336,-0.038735468
OrientationDeg,1676593614479,121118110523510,168.0,-15.0,30.0
UncalGyro,1676593614485,121118115014354,4.042095,-4.442212,0.11285736,0.00046982768,-0.0010077124,-0.0032421262
UncalAccel,1676593614489,121118119505565,5.8067822,-0.7106683,-3.5383866,0.006110925,-0.043260336,-0.038735468
UncalMag,1676593614488,121118119999767,-68.6372,6.3561997,-106.14,-44.47528,5.575939,-61.08579
OrientationDeg,1676593614488,121118119505565,167.0,-18.0,28.0
UncalGyro,1676593614492,121118123993113,3.5958583,-4.615698,-0.35231653,0.00046982768,-0.0010077124,-0.0032421262
UncalAccel,1676593614498,121118128473583,6.369096,-0.32482567,-2.8378878,0.006110925,-0.043260336,-0.038735468
OrientationDeg,1676593614498,121118128473583,167.0,-20.0,26.0
UncalMag,1676593614500,121118130010998,-71.1382,4.3676,-104.7004,-44.47528,5.575939,-61.08579
UncalGyro,1676593614502,121118132974010,3.2210925,-4.734511,-0.8791878,0.00046982768,-0.0010077124,-0.0032421262
UncalAccel,1676593614507,121118137462719,6.815955,-0.096909314,-1.3573287,0.006110925,-0.043260336,-0.038735468
OrientationDeg,1676593614507,121118137462719,167.0,-23.0,25.0
UncalMag,1676593614510,121118140010998,-73.077995,3.5746,-105.652,-44.47528,5.575939,-61.08579
UncalGyro,1676593614511,121118141957042,2.9133692,-4.679228,-1.4520267,0.00046982768,-0.0010077124,-0.0032421262
UncalAccel,1676593614516,121118146439342,6.9523463,0.08554341,1.2077773,0.006110925,-0.043260336,-0.038735468
OrientationDeg,1676593614516,121118146439342,167.0,-25.0,23.0
UncalMag,1676593614519,121118150010998,-75.7986,1.0126,-104.798,-44.47528,5.575939,-61.08579
UncalGyro,1676593614519,121118150921703,2.689487,-4.2971315,-2.0986276,0.00046982768,-0.0010077124,-0.0032421262
UncalAccel,1676593614524,121118155421703,6.7005014,-0.38703907,3.2297122,0.006110925,-0.043260336,-0.038735468
OrientationDeg,1676593614525,121118155421703,168.0,-27.0,21.0
UncalGyro,1676593614528,121118159913036,2.4990497,-3.6738963,-2.7149906,0.00046982768,-0.0010077124,-0.0032421262
UncalMag,1676593614528,121118159999035,-77.2016,0.060999997,-105.042,-44.47528,5.575939,-61.08579
UncalAccel,1676593614534,121118164404796,5.986244,-1.1976078,3.7657046,0.006110925,-0.043260336,-0.038735468
OrientationDeg,1676593614534,121118164404796,169.0,-29.0,19.0
UncalGyro,1676593614537,121118168892467,2.2837198,-2.9509373,-3.2018502,0.00046982768,-0.0010077124,-0.0032421262
UncalMag,1676593614540,121118170010753,-77.3968,-1.6714,-100.918396,-44.47528,5.575939,-61.08579
UncalAccel,1676593614543,121118173381786,6.1854467,-2.469393,3.940979,0.006110925,-0.043260336,-0.038735468
OrientationDeg,1676593614543,121118173381786,170.0,-31.0,18.0
UncalGyro,1676593614547,121118177873607,2.0781636,-2.1804836,-3.6816847,0.00046982768,-0.0010077124,-0.0032421262
UncalMag,1676593614549,121118180010998,-75.871796,-3.4648,-99.5886,-44.47528,5.575939,-61.08579
UncalAccel,1676593614552,121118182361278,6.4008007,-3.8997028,3.4965122,0.006110925,-0.043260336,-0.038735468
OrientationDeg,1676593614551,121118182361278,171.0,-32.0,16.0
UncalGyro,1676593614556,121118186852184,1.8730656,-1.4671456,-4.1549525,0.00046982768,-0.0010077124,-0.0032421262
UncalMag,1676593614560,121118190009044,-74.310196,-4.0138,-98.5394,-44.47528,5.575939,-61.08579
UncalAccel,1676593614560,121118191338023,6.1764736,-5.413761,2.271985,0.006110925,-0.043260336,-0.038735468
OrientationDeg,1676593614561,121118191338023,173.0,-33.0,14.0
UncalGyro,1676593614565,121118195821361,1.6203201,-0.93599826,-4.533078,0.00046982768,-0.0010077124,-0.0032421262
UncalMag,1676593614569,121118200010509,-75.1642,-6.9052,-98.332,-44.47528,5.575939,-61.08579
UncalAccel,1676593614569,121118200317577,5.8857455,-7.024131,0.7375876,0.006110925,-0.043260336,-0.038735468
OrientationDeg,1676593614570,121118200317577,174.0,-34.0,12.0
UncalGyro,1676593614573,121118204800182,1.2967142,-0.64751714,-4.751768,0.00046982768,-0.0010077124,-0.0032421262
UncalAccel,1676593614579,121118209303294,5.3276196,-9.015557,-0.27098715,0.006110925,-0.043260336,-0.038735468
UncalMag,1676593614578,121118209999279,-76.738,-8.9548,-101.2966,-44.47528,5.575939,-61.08579
OrientationDeg,1676593614579,121118209303294,176.0,-35.0,10.0
UncalGyro,1676593614583,121118213792430,0.9085093,-0.54244834,-4.7279444,0.00046982768,-0.0010077124,-0.0032421262
UncalAccel,1676593614588,121118218282969,4.582854,-11.303096,-0.66759753,0.006110925,-0.043260336,-0.038735468
OrientationDeg,1676593614587,121118218282969,178.0,-35.0,8.0
UncalMag,1676593614590,121118220010753,-76.006,-10.748199,-101.4674,-44.47528,5.575939,-61.08579
UncalGyro,1676593614591,121118222768382,0.46700647,-0.5655085,-4.403575,0.00046982768,-0.0010077124,-0.0032421262
