# 
# Header Description:
# 
# Version: v3.0.5.6 Platform: 13 Manufacturer: Google Model: Pixel 7
# 
# Raw,utcTimeMillis,TimeNanos,LeapSecond,TimeUncertaintyNanos,FullBiasNanos,BiasNanos,BiasUncertaintyNanos,DriftNanosPerSecond,DriftUncertaintyNanosPerSecond,HardwareClockDiscontinuityCount,Svid,TimeOffsetNanos,State,ReceivedSvTimeNanos,ReceivedSvTimeUncertaintyNanos,Cn0DbHz,PseudorangeRateMetersPerSecond,PseudorangeRateUncertaintyMetersPerSecond,AccumulatedDeltaRangeState,AccumulatedDeltaRangeMeters,AccumulatedDeltaRangeUncertaintyMeters,CarrierFrequencyHz,CarrierCycles,CarrierPhase,CarrierPhaseUncertainty,MultipathIndicator,SnrInDb,ConstellationType,AgcDb,BasebandCn0DbHz,FullInterSignalBiasNanos,FullInterSignalBiasUncertaintyNanos,SatelliteInterSignalBiasNanos,SatelliteInterSignalBiasUncertaintyNanos,CodeType,ChipsetElapsedRealtimeNanos
# 
# UncalAccel,utcTimeMillis,elapsedRealtimeNanos,UncalAccelXMps2,UncalAccelYMps2,UncalAccelZMps2,BiasXMps2,BiasYMps2,BiasZMps2
# 
# Accel,utcTimeMillis,elapsedRealtimeNanos,AccelXMps2,AccelYMps2,AccelZMps2
# 
# UncalGyro,utcTimeMillis,elapsedRealtimeNanos,UncalGyroXRadPerSec,UncalGyroYRadPerSec,UncalGyroZRadPerSec,DriftXRadPerSec,DriftYRadPerSec,DriftZRadPerSec
# 
# Gyro,utcTimeMillis,elapsedRealtimeNanos,GyroXRadPerSec,GyroYRadPerSec,GyroZRadPerSec
# 
# UncalMag,utcTimeMillis,elapsedRealtimeNanos,UncalMagXMicroT,UncalMagYMicroT,UncalMagZMicroT,BiasXMicroT,BiasYMicroT,BiasZMicroT
# 
# Mag,utcTimeMillis,elapsedRealtimeNanos,MagXMicroT,MagYMicroT,MagZMicroT
# 
# OrientationDeg,utcTimeMillis,elapsedRealtimeNanos,yawDeg,rollDeg,pitchDeg
# 
# Fix,Provider,LatitudeDegrees,LongitudeDegrees,AltitudeMeters,SpeedMps,AccuracyMeters,BearingDegrees,UnixTimeMillis,SpeedAccuracyMps,BearingAccuracyDegrees,elapsedRealtimeNanos,VerticalAccuracyMeters
# 
# Nav,Svid,Type,Status,MessageId,Sub-messageId,Data(Bytes)
# 
# Status,UnixTimeMillis,SignalCount,SignalIndex,ConstellationType,Svid,CarrierFrequencyHz,Cn0DbHz,AzimuthDegrees,ElevationDegrees,UsedInFix,HasAlmanacData,HasEphemerisData,BasebandCn0DbHz
# 
UncalAccel,1676595149090,32205912018025,-2.8438697,3.7674992,12.636497,0.037048545,-0.031444572,0.0098014325
UncalGyro,1676595149094,32205916259235,-0.5174029,0.37782016,-0.13927728,-0.00026742637,-0.0017035446,-0.0003362017
UncalGyro,1676595149102,32205924735278,-0.52687126,0.23747386,-0.22495113,-0.00026742637,-0.0017035446,-0.0003362017
UncalAccel,1676595149098,32205920500445,-2.6572297,3.5964124,12.772289,0.037048545,-0.031444572,0.0098014325
UncalAccel,1676595149106,32205928969582,-2.4789643,3.3720853,12.783655,0.037048545,-0.031444572,0.0098014325
UncalMag,1676595149099,32205921407591,-150.95059,767.0262,391.559,-177.00775,769.7961,430.15182
UncalMag,1676595149109,32205931406655,-150.9628,766.6846,391.59558,-177.00775,769.7961,430.15182
UncalGyro,1676595149111,32205933211800,-0.5027421,0.122478485,-0.31612277,-0.00026742637,-0.0017035446,-0.0003362017
UncalAccel,1676595149115,32205937449938,-2.370689,3.0185459,12.614363,0.037048545,-0.031444572,0.0098014325
Status,0,33,0,3,15,1602000000,41.09,299.0,81.0,1,1,1,37.485115
Status,0,33,1,1,11,1176450050,40.79,104.0,77.0,1,1,1,37.185028
Status,0,33,2,1,11,1575420030,42.72,104.0,77.0,1,1,1,39.12288
Status,0,33,3,6,2,1575420030,41.89,117.0,73.0,1,1,1,38.294056
Status,0,33,4,6,2,1176450050,37.39,117.0,73.0,1,1,1,33.791874
Status,0,33,5,3,17,1604249980,44.28,335.0,70.0,1,1,1,40.68459
Status,0,33,6,1,12,1575420030,46.19,330.0,69.0,1,1,1,42.594383
Status,0,33,7,6,34,1575420030,41.37,210.0,63.0,1,1,1,37.769554
Status,0,33,8,6,34,1176450050,34.71,210.0,63.0,1,1,1,31.114391
Status,0,33,9,6,36,1575420030,42.01,48.0,60.0,1,1,1,38.40696
Status,0,33,10,6,36,1176450050,37.92,48.0,60.0,1,1,1,34.32492
Status,0,33,11,6,30,1176450050,39.51,316.0,49.0,1,1,1,35.90517
Status,0,33,12,6,30,1575420030,43.04,316.0,49.0,1,1,1,39.44046
Status,0,33,13,3,14,1598062460,40.35,155.0,41.0,1,1,1,36.753956
Status,0,33,14,1,6,1176450050,37.79,46.0,41.0,1,1,1,34.18586
Status,0,33,15,1,6,1575420030,42.02,46.0,41.0,1,1,1,38.41748
Status,0,33,16,1,25,1575420030,47.36,313.0,39.0,1,1,1,43.75992
Status,0,33,17,1,25,1176450050,41.60,313.0,39.0,1,1,1,37.9978
Status,0,33,18,3,18,1600312450,43.04,244.0,39.0,1,1,1,39.43766
Status,0,33,19,1,24,1575420030,41.03,215.0,35.0,1,1,1,37.426155
Status,0,33,20,1,24,1176450050,40.48,215.0,35.0,1,1,1,36.875446
Status,0,33,21,1,20,1575420030,38.46,139.0,30.0,0,1,1,34.861954
Status,0,33,22,3,24,1603124990,48.01,36.0,26.0,1,1,1,44.41027
Status,0,33,23,3,16,1601437440,47.96,328.0,26.0,1,1,1,44.364235
Status,0,33,24,6,25,1575420030,37.60,129.0,23.0,1,1,1,34.000904
Status,0,33,25,6,25,1176450050,34.52,129.0,23.0,1,1,1,30.919895
Status,0,33,26,1,19,1575420030,43.74,63.0,22.0,1,1,1,40.139515
Status,0,33,27,1,29,1575420030,46.44,268.0,17.0,1,1,1,42.84407
Status,0,33,28,1,2,1575420030,40.86,219.0,15.0,1,1,1,37.255203
Status,0,33,29,6,15,1176450050,39.80,218.0,12.0,1,1,1,36.20416
Status,0,33,30,6,15,1575420030,43.50,218.0,12.0,1,1,1,39.8967
Status,0,33,31,6,11,1176450050,29.83,41.0,11.0,1,1,1,26.225046
Status,0,33,32,6,11,1575420030,39.44,41.0,11.0,1,1,1,35.8438
Fix,GPS,37.4311355131,-122.1551442818,-7.724410903857795,0.38019627,3.0555081,13.244901,1676595148999,0.1012428,17.7435,32205835806000,3.0
Raw,1676595148999,386066000000,,,-1360629980933620232,0.0,7.238887476808332,175.0,1.0,60,2,0.0,16431,435166919391818,29,32.930782318115234,-572.3904542617302,0.6331669026198079,16,-222373.23616673693,340282346638528860000000000000000000000,1575420030,,,,1,,1,,29.33078384399414,0.0,1.0,0.0,1.0,C,32205835806000
Raw,1676595148999,386066000000,,,-1360629980933620232,0.0,7.238887476808332,175.0,1.0,60,6,0.0,16431,435166926713819,22,35.906463623046875,553.090888348667,0.4970734237197465,16,209735.72670782646,340282346638528860000000000000000000000,1575420030,,,,0,,1,,32.30646514892578,0.320142130558394,1.0,0.320142130558394,1.0,C,32205835806000
Raw,1676595148999,386066000000,,,-1360629980933620232,0.0,7.238887476808332,175.0,1.0,60,11,0.0,16431,435166931680641,21,36.756473541259766,54.04689873741344,0.15,16,13862.107560897197,340282346638528860000000000000000000000,1575420030,,,,0,,1,,33.15647506713867,-0.20372681261465636,1.0,-0.20372681261465636,1.0,C,32205835806000
Raw,1676595148999,386066000000,,,-1360629980933620232,0.0,7.238887476808332,175.0,1.0,60,12,0.0,16431,435166931511292,12,46.19438171386719,-169.03086952749766,0.15,16,-69529.7884247679,340282346638528860000000000000000000000,1575420030,,,,0,,1,,42.594383239746094,-0.6984919076624261,1.0,-0.6984919076624261,1.0,C,32205835806000
Raw,1676595148999,386066000000,,,-1360629980933620232,0.0,7.238887476808332,175.0,1.0,60,19,0.0,16431,435166922266636,22,36.254398345947266,567.0372591455184,0.15,16,219823.0439550142,340282346638528860000000000000000000000,1575420030,,,,1,,1,,32.65439987182617,0.0,1.0,0.0,1.0,C,32205835806000
Raw,1676595148999,386066000000,,,-1360629980933620232,0.0,7.238887476808332,175.0,1.0,60,20,0.0,16431,435166923625730,29,32.78927993774414,-459.19470901956356,0.6366942371680251,16,-179383.37853285304,340282346638528860000000000000000000000,1575420030,,,,1,,1,,29.189279556274414,0.0,1.0,0.0,1.0,C,32205835806000
Raw,1676595148999,386066000000,,,-1360629980933620232,0.0,7.238887476808332,175.0,1.0,60,24,0.0,16431,435166924002519,15,40.72032928466797,598.1993944636283,0.15,16,228265.13708564342,340282346638528860000000000000000000000,1575420030,,,,0,,1,,37.120330810546875,-0.20372681261465636,1.0,-0.20372681261465636,1.0,C,32205835806000
Raw,1676595148999,386066000000,,,-1360629980933620232,0.0,7.238887476808332,175.0,1.0,60,25,0.0,16431,435166927174279,11,47.35991668701172,-452.9017583296484,0.15,16,-176551.66590405893,340282346638528860000000000000000000000,1575420030,,,,0,,1,,43.759918212890625,-2.0372682255564105,1.0,-2.0372682255564105,1.0,C,32205835806000
Raw,1676595148999,386066000000,,,-1360629980933620232,0.0,7.238887476808332,175.0,1.0,60,29,0.0,16431,435166919051274,13,44.980812072753906,-431.4082365252989,0.15,16,-166301.81344952446,340282346638528860000000000000000000000,1575420030,,,,0,,1,,41.38081359863281,-0.6984919076624261,1.0,-0.6984919076624261,1.0,C,32205835806000
Raw,1676595148999,386066000000,,,-1360629980933620232,0.0,7.238887476808332,175.0,1.0,60,6,0.0,81921,435166926714309,13,34.649410247802734,552.9371764697491,0.5536018405547434,16,211387.47213565657,340282346638528860000000000000000000000,1176450050,,,,0,,1,,31.049409866333008,1.9208527336454408,1.5022477239379302,1.9208527336454408,1.0,Q,32205835806000
Raw,1676595148999,386066000000,,,-1360629980933620232,0.0,7.238887476808332,175.0,1.0,60,11,0.0,81921,435166931681155,7,40.78502655029297,54.24530975806098,0.15,16,13882.048129872968,340282346638528860000000000000000000000,1176450050,,,,0,,1,,37.185028076171875,0.0,1.5022477239379302,0.0,1.0,Q,32205835806000
Raw,1676595148999,386066000000,,,-1360629980933620232,0.0,7.238887476808332,175.0,1.0,60,24,0.0,81921,435166924003025,9,40.47544479370117,597.8563204562697,0.15,16,230028.8303238877,340282346638528860000000000000000000000,1176450050,,,,0,,1,,36.87544631958008,3.5215636101095664,1.5022477239379302,3.5215636101095664,1.0,Q,32205835806000
Raw,1676595148999,386066000000,,,-1360629980933620232,0.0,7.238887476808332,175.0,1.0,60,25,0.0,81921,435166927174796,7,41.14899826049805,-452.7489666770566,0.15,16,-176583.7187498502,340282346638528860000000000000000000000,1176450050,,,,0,,1,,37.54899978637695,1.0186341127782053,1.5022477239379302,1.0186341127782053,1.0,Q,32205835806000
Raw,1676595148999,386066000000,,,-1360629980933620232,0.0,7.238887476808332,175.0,1.0,60,14,0.0,32995,13948929976434,92,27.253660202026367,679.3067113843081,0.8867673389051651,16,256838.61122842671,340282346638528860000000000000000000000,1598062460,,,,0,,3,,23.65365982055664,52.1540641784668,2.0000000474974513,52.1540641784668,2.0000000474974513,C,32205835806000
Raw,1676595148999,386066000000,,,-1360629980933620232,0.0,7.238887476808332,175.0,1.0,60,18,0.0,32995,13948929785051,33,41.05924987792969,-390.5549932721235,0.15,16,-155672.78240656873,340282346638528860000000000000000000000,1600312450,,,,0,,3,,37.459251403808594,52.1540641784668,2.0000000474974513,52.1540641784668,2.0000000474974513,C,32205835806000
Raw,1676595148999,386066000000,,,-1360629980933620232,0.0,7.238887476808332,175.0,1.0,60,16,0.0,32995,13948925948840,33,47.9642333984375,-658.098357493685,0.15,16,-255624.53391889503,340282346638528860000000000000000000000,1601437440,,,,0,,3,,44.364234924316406,52.1540641784668,2.0000000474974513,52.1540641784668,2.0000000474974513,C,32205835806000
Raw,1676595148999,386066000000,,,-1360629980933620232,0.0,7.238887476808332,175.0,1.0,60,15,0.0,32995,13948935627188,36,38.57331848144531,-35.68854329291658,0.15,16,-23290.526670121493,340282346638528860000000000000000000000,1602000000,,,,0,,3,,34.97332000732422,52.1540641784668,2.0000000474974513,52.1540641784668,2.0000000474974513,C,32205835806000
Raw,1676595148999,386066000000,,,-1360629980933620232,0.0,7.238887476808332,175.0,1.0,60,24,0.0,32867,13948926125115,33,43.28022384643555,702.2981912352916,0.15,16,271778.0770892341,340282346638528860000000000000000000000,1603124990,,,,0,,3,,39.68022537231445,52.1540641784668,2.0000000474974513,52.1540641784668,2.0000000474974513,C,32205835806000
Raw,1676595148999,386066000000,,,-1360629980933620232,0.0,7.238887476808332,175.0,1.0,60,17,0.0,32995,13948935375808,33,43.62034606933594,204.69599604262953,0.15,16,72897.83345727518,340282346638528860000000000000000000000,1604249980,,,,0,,3,,40.020347595214844,52.1540641784668,2.0000000474974513,52.1540641784668,2.0000000474974513,C,32205835806000
Raw,1676595148999,386066000000,,,-1360629980933620232,0.0,7.238887476808332,175.0,1.0,60,2,0.0,85026,435166921440709,22,36.27904510498047,177.6118607299304,0.15,16,65838.162663497,340282346638528860000000000000000000000,1575420030,,,,0,,6,,32.679046630859375,-5.878973752260207,1.5000000237487257,-5.878973752260207,1.5000000237487257,C,32205835806000
Raw,1676595148999,386066000000,,,-1360629980933620232,0.0,7.238887476808332,175.0,1.0,60,11,0.0,85026,435166908072418,23,35.82354736328125,589.7839587937551,0.500326933688068,16,227127.60552002117,340282346638528860000000000000000000000,1575420030,,,,1,,6,,32.223548889160156,-5.878973752260207,1.5000000237487257,-5.878973752260207,1.5000000237487257,C,32205835806000
Raw,1676595148999,386066000000,,,-1360629980933620232,0.0,7.238887476808332,175.0,1.0,60,15,0.0,85026,435166907541757,12,43.496700286865234,-497.0718380867106,0.15,16,-191473.72270613036,340282346638528860000000000000000000000,1575420030,,,,0,,6,,39.89670181274414,-5.878973752260207,1.5000000237487257,-5.878973752260207,1.5000000237487257,C,32205835806000
Raw,1676595148999,386066000000,,,-1360629980933620232,0.0,7.238887476808332,175.0,1.0,60,25,0.0,85026,435166910483083,30,32.40077209472656,517.3787110023054,0.6546789237425119,16,196558.71025362646,340282346638528860000000000000000000000,1575420030,,,,0,,6,,28.80077362060547,-5.878973752260207,1.5000000237487257,-5.878973752260207,1.5000000237487257,C,32205835806000
Raw,1676595148999,386066000000,,,-1360629980933620232,0.0,7.238887476808332,175.0,1.0,60,30,0.0,85026,435166916649543,12,43.03386306762695,-293.9145286262599,0.15,16,-114169.54820650282,340282346638528860000000000000000000000,1575420030,,,,0,,6,,39.43386459350586,-5.878973752260207,1.5000000237487257,-5.878973752260207,1.5000000237487257,C,32205835806000
Raw,1676595148999,386066000000,,,-1360629980933620232,0.0,7.238887476808332,175.0,1.0,60,34,0.0,85026,435166920242880,18,41.36955261230469,-216.48798068021756,0.15,16,-87658.33561836496,340282346638528860000000000000000000000,1575420030,,,,0,,6,,37.769554138183594,-5.878973752260207,1.5000000237487257,-5.878973752260207,1.5000000237487257,C,32205835806000
Raw,1676595148999,386066000000,,,-1360629980933620232,0.0,7.238887476808332,175.0,1.0,60,36,0.0,85026,435166919768425,15,40.41339111328125,311.3602815641343,0.15,16,117218.26575812961,340282346638528860000000000000000000000,1575420030,,,,0,,6,,36.813392639160156,-5.878973752260207,1.5000000237487257,-5.878973752260207,1.5000000237487257,C,32205835806000
Raw,1676595148999,386066000000,,,-1360629980933620232,0.0,7.238887476808332,175.0,1.0,60,2,0.0,84003,435166921441241,10,37.39187240600586,177.66673348493214,0.15,16,65917.43992484041,340282346638528860000000000000000000000,1176450050,,,,0,,6,,33.791873931884766,-4.216632805764675,2.002247747686656,-4.216632805764675,1.5000000237487257,Q,32205835806000
Raw,1676595148999,386066000000,,,-1360629980933620232,0.0,7.238887476808332,175.0,1.0,60,11,0.0,84003,435166908072923,48,25.41623306274414,589.1350969864739,0.9690517749402328,16,227648.86413292546,340282346638528860000000000000000000000,1176450050,,,,0,,6,,21.816232681274414,5.203299224376676,2.002247747686656,5.203299224376676,1.5000000237487257,Q,32205835806000
Raw,1676595148999,386066000000,,,-1360629980933620232,0.0,7.238887476808332,175.0,1.0,60,15,0.0,84003,435166907542210,9,39.80415725708008,-497.19831808286676,0.15,16,-191089.46295549997,340282346638528860000000000000000000000,1176450050,,,,0,,6,,36.204158782958984,-11.050701141357418,2.002247747686656,-11.050701141357418,1.5000000237487257,Q,32205835806000
Raw,1676595148999,386066000000,,,-1360629980933620232,0.0,7.238887476808332,175.0,1.0,60,25,0.0,84003,435166910483559,13,30.81263542175293,513.3352365253522,0.7268152417806149,16,196943.18342178946,340282346638528860000000000000000000000,1176450050,,,,0,,6,,27.212635040283203,-8.649541996419428,2.002247747686656,-8.649541996419428,1.5000000237487257,Q,32205835806000
Raw,1676595148999,386066000000,,,-1360629980933620232,0.0,7.238887476808332,175.0,1.0,60,30,0.0,84003,435166916650059,7,39.02760696411133,-294.08524765098264,0.15,16,-115134.69104555636,340282346638528860000000000000000000000,1176450050,,,,0,,6,,35.427608489990234,-8.2801328971982,2.002247747686656,-8.2801328971982,1.5000000237487257,Q,32205835806000
Raw,1676595148999,386066000000,,,-1360629980933620232,0.0,7.238887476808332,175.0,1.0,60,34,0.0,84003,435166920243408,11,32.48874282836914,-217.5896960873174,0.653198067633515,16,-88060.34467982438,340282346638528860000000000000000000000,1176450050,,,,0,,6,,28.888744354248047,-9.942473843693731,2.002247747686656,-9.942473843693731,1.5000000237487257,Q,32205835806000
Raw,1676595148999,386066000000,,,-1360629980933620232,0.0,7.238887476808332,175.0,1.0,60,36,0.0,84003,435166919768933,7,37.92491912841797,311.0267847270586,0.15,16,117672.28487520097,340282346638528860000000000000000000000,1176450050,,,,0,,6,,34.324920654296875,-10.865996591746804,2.002247747686656,-10.865996591746804,1.5000000237487257,Q,32205835806000
UncalGyro,1676595149120,32205941697048,-0.45204028,0.0047342055,-0.40759984,-0.00026742637,-0.0017035446,-0.0003362017
UncalMag,1676595149119,32205941413734,-150.7188,767.2824,391.254,-177.00775,769.7961,430.15182
OrientationDeg,1676595149115,32205937449938,293.0,3.0,-18.0
UncalAccel,1676595149123,32205945943335,-2.2378874,2.6171498,12.407384,0.037048545,-0.031444572,0.0098014325
OrientationDeg,1676595149123,32205945943335,293.0,3.0,-18.0
UncalGyro,1676595149128,32205950177517,-0.39370266,-0.113926366,-0.49464813,-0.00026742637,-0.0017035446,-0.0003362017
Fix,FLP,37.4311231000,-122.1551642000,-16.5,0.076158606,6.042,,1676595148822,,,32205644851560,1.9513541
UncalMag,1676595149129,32205951410153,-151.10919,767.7948,390.9002,-177.00775,769.7961,430.15182
UncalAccel,1676595149132,32205954413518,-2.114657,2.2546372,12.157333,0.037048545,-0.031444572,0.0098014325
OrientationDeg,1676595149132,32205954413518,293.0,3.0,-17.0
UncalGyro,1676595149136,32205958653886,-0.34040466,-0.22434026,-0.57894754,-0.00026742637,-0.0017035446,-0.0003362017
UncalMag,1676595149139,32205961407955,-151.13359,767.4654,391.6688,-177.00775,769.7961,430.15182
UncalAccel,1676595149140,32205962898474,-2.009971,1.9393828,11.815758,0.037048545,-0.031444572,0.0098014325
OrientationDeg,1676595149140,32205962898474,293.0,3.0,-17.0
UncalGyro,1676595149145,32205967136633,-0.29871312,-0.3210097,-0.6740898,-0.00026742637,-0.0017035446,-0.0003362017
UncalAccel,1676595149149,32205971376724,-1.9250258,1.6677973,11.521441,0.037048545,-0.031444572,0.0098014325
OrientationDeg,1676595149149,32205971376724,294.0,3.0,-17.0
UncalMag,1676595149149,32205971409500,-151.3898,768.3194,391.5102,-177.00775,769.7961,430.15182
UncalGyro,1676595149153,32205975617894,-0.26175576,-0.36651915,-0.7840455,-0.00026742637,-0.0017035446,-0.0003362017
UncalAccel,1676595149157,32205979858178,-1.8305093,1.4482559,11.232508,0.037048545,-0.031444572,0.0098014325
OrientationDeg,1676595149157,32205979858178,294.0,3.0,-17.0
UncalMag,1676595149159,32205981406570,-151.26779,768.6488,390.4976,-177.00775,769.7961,430.15182
UncalGyro,1676595149162,32205984100122,-0.2209805,-0.37064248,-0.9082039,-0.00026742637,-0.0017035446,-0.0003362017
UncalAccel,1676595149166,32205988335748,-1.6881363,1.2771691,10.823335,0.037048545,-0.031444572,0.0098014325
OrientationDeg,1676595149166,32205988335748,295.0,3.0,-17.0
UncalMag,1676595149169,32205991409132,-151.29219,768.1242,390.7416,-177.00775,769.7961,430.15182
UncalGyro,1676595149170,32205992581882,-0.18051068,-0.38530326,-1.0407617,-0.00026742637,-0.0017035446,-0.0003362017
UncalAccel,1676595149174,32205996822492,-1.521237,1.0540384,10.367502,0.037048545,-0.031444572,0.0098014325
OrientationDeg,1676595149174,32205996822492,295.0,3.0,-16.0
UncalGyro,1676595149179,32206001066225,-0.15653422,-0.43997568,-1.17897,-0.00026742637,-0.0017035446,-0.0003362017
UncalMag,1676595149179,32206001406609,-151.2556,768.7464,391.132,-177.00775,769.7961,430.15182
UncalAccel,1676595149183,32206005304628,-1.4267205,0.91106725,10.030114,0.037048545,-0.031444572,0.0098014325
OrientationDeg,1676595149183,32206005304628,296.0,3.0,-16.0
UncalGyro,1676595149187,32206009545595,-0.15241088,-0.5369505,-1.3359623,-0.00026742637,-0.0017035446,-0.0003362017
UncalMag,1676595149189,32206011408317,-151.6582,769.10016,391.2174,-177.00775,769.7961,430.15182
UncalAccel,1676595149191,32206013783399,-1.3914263,0.83988076,9.792028,0.037048545,-0.031444572,0.0098014325
OrientationDeg,1676595149191,32206013783399,297.0,3.0,-16.0
UncalGyro,1676595149196,32206018026929,-0.17302758,-0.66446865,-1.5215126,-0.00026742637,-0.0017035446,-0.0003362017
UncalMag,1676595149199,32206021407543,-151.5362,769.3442,390.91238,-177.00775,769.7961,430.15182
UncalAccel,1676595149200,32206022267549,-1.3232309,0.8650054,9.629914,0.037048545,-0.031444572,0.0098014325
OrientationDeg,1676595149200,32206022267549,298.0,3.0,-16.0
UncalGyro,1676595149204,32206026509075,-0.22174409,-0.79183406,-1.7333301,-0.00026742637,-0.0017035446,-0.0003362017
UncalAccel,1676595149208,32206030748617,-1.2179468,0.9613165,9.61137,0.037048545,-0.031444572,0.0098014325
UncalMag,1676595149209,32206031407013,-152.1096,770.1982,390.4122,-177.00775,769.7961,430.15182
OrientationDeg,1676595149208,32206030748617,298.0,3.0,-16.0
UncalGyro,1676595149212,32206034980265,-0.2929099,-0.874759,-1.9500346,-0.00026742637,-0.0017035446,-0.0003362017
UncalAccel,1676595149217,32206039230337,-1.1766706,1.0809577,9.754341,0.037048545,-0.031444572,0.0098014325
OrientationDeg,1676595149217,32206039230337,300.0,2.0,-16.0
UncalMag,1676595149219,32206041406769,-152.317,770.0884,390.0218,-177.00775,769.7961,430.15182
UncalGyro,1676595149221,32206043468475,-0.37110063,-0.9036224,-2.13925,-0.00026742637,-0.0017035446,-0.0003362017
UncalAccel,1676595149225,32206047712188,-1.1826526,1.2436695,9.734002,0.037048545,-0.031444572,0.0098014325
OrientationDeg,1676595149225,32206047712188,301.0,2.0,-15.0
UncalMag,1676595149229,32206051408070,-152.69519,770.8692,389.973,-177.00775,769.7961,430.15182
UncalGyro,1676595149229,32206051950296,-0.4343252,-0.9195049,-2.2934935,-0.00026742637,-0.0017035446,-0.0003362017
UncalAccel,1676595149234,32206056191211,-1.2065809,1.3058829,9.709476,0.037048545,-0.031444572,0.0098014325
OrientationDeg,1676595149234,32206056191211,302.0,2.0,-15.0
UncalGyro,1676595149238,32206060436298,-0.48151454,-0.9288206,-2.4098635,-0.00026742637,-0.0017035446,-0.0003362017
UncalMag,1676595149239,32206061406767,-153.3174,772.60156,389.9242,-177.00775,769.7961,430.15182
UncalAccel,1676595149242,32206064674670,-1.2209377,1.3250256,9.709476,0.037048545,-0.031444572,0.0098014325
OrientationDeg,1676595149242,32206064674670,303.0,2.0,-15.0
UncalGyro,1676595149246,32206068914905,-0.5155703,-0.9314168,-2.5042422,-0.00026742637,-0.0017035446,-0.0003362017
UncalMag,1676595149249,32206071408435,-153.8298,772.7358,389.241,-177.00775,769.7961,430.15182
UncalAccel,1676595149251,32206073153378,-1.2646067,1.3776677,9.737592,0.037048545,-0.031444572,0.0098014325
OrientationDeg,1676595149251,32206073153378,304.0,2.0,-14.0
UncalGyro,1676595149255,32206077395291,-0.5316055,-0.9277516,-2.5897632,-0.00026742637,-0.0017035446,-0.0003362017
UncalMag,1676595149259,32206081408352,-154.0006,773.34576,389.0336,-177.00775,769.7961,430.15182
UncalAccel,1676595149259,32206081634813,-1.3172488,1.3818551,9.732208,0.037048545,-0.031444572,0.0098014325
OrientationDeg,1676595149259,32206081634813,306.0,2.0,-14.0
UncalGyro,1676595149263,32206085873460,-0.52855116,-0.9288206,-2.671161,-0.00026742637,-0.0017035446,-0.0003362017
UncalAccel,1676595149268,32206090116166,-1.302892,1.3004991,9.8428755,0.037048545,-0.031444572,0.0098014325
OrientationDeg,1676595149268,32206090116166,307.0,2.0,-14.0
UncalMag,1676595149269,32206091398749,-154.9766,774.6268,388.99698,-177.00775,769.7961,430.15182
UncalGyro,1676595149272,32206094359543,-0.5129741,-0.9219484,-2.7462974,-0.00026742637,-0.0017035446,-0.0003362017
UncalAccel,1676595149276,32206098600358,-1.3615161,1.2568301,10.019346,0.037048545,-0.031444572,0.0098014325
OrientationDeg,1676595149276,32206098600358,308.0,2.0,-13.0
UncalMag,1676595149279,32206101408921,-155.245,775.24896,389.6436,-177.00775,769.7961,430.15182
UncalGyro,1676595149280,32206102839117,-0.47662762,-0.91767234,-2.8209758,-0.00026742637,-0.0017035446,-0.0003362017
UncalAccel,1676595149285,32206107078842,-1.5577276,1.2891332,10.012766,0.037048545,-0.031444572,0.0098014325
OrientationDeg,1676595149285,32206107078842,310.0,2.0,-13.0
UncalGyro,1676595149289,32206111322900,-0.40225476,-0.9430232,-2.897792,-0.00026742637,-0.0017035446,-0.0003362017
UncalMag,1676595149289,32206111401758,-155.55,775.493,389.3386,-177.00775,769.7961,430.15182
UncalAccel,1676595149293,32206115563409,-1.7760726,1.311865,9.8015995,0.037048545,-0.031444572,0.0098014325
OrientationDeg,1676595149293,32206115563409,311.0,1.0,-13.0
UncalGyro,1676595149297,32206119805616,-0.2958115,-1.0048733,-2.968958,-0.00026742637,-0.0017035446,-0.0003362017
UncalMag,1676595149299,32206121407129,-156.3918,776.94476,388.8628,-177.00775,769.7961,430.15182
UncalAccel,1676595149302,32206124036981,-1.9674984,1.3010973,9.762118,0.037048545,-0.031444572,0.0098014325
OrientationDeg,1676595149302,32206124036981,313.0,1.0,-13.0
UncalGyro,1676595149306,32206128282963,-0.17684549,-1.040609,-3.009733,-0.00026742637,-0.0017035446,-0.0003362017
UncalMag,1676595149309,32206131406680,-156.7334,776.5666,387.8136,-177.00775,769.7961,430.15182
UncalAccel,1676595149310,32206132523512,-2.1110678,1.3627125,9.78485,0.037048545,-0.031444572,0.0098014325
OrientationDeg,1676595149310,32206132523512,314.0,1.0,-13.0
UncalGyro,1676595149314,32206136767316,-0.06078109,-1.0479393,-3.0057623,-0.00026742637,-0.0017035446,-0.0003362017
UncalAccel,1676595149319,32206141007122,-2.263012,1.4482559,9.530613,0.037048545,-0.031444572,0.0098014325
UncalMag,1676595149319,32206141406883,-157.80699,777.7744,388.1308,-177.00775,769.7961,430.15182
UncalGyro,1676595149323,32206145247337,0.022602014,-1.1001683,-2.947883,-0.00026742637,-0.0017035446,-0.0003362017
OrientationDeg,1676595149319,32206141007122,316.0,1.0,-13.0
UncalAccel,1676595149327,32206149486502,-2.292324,1.5110675,8.938389,0.037048545,-0.031444572,0.0098014325
OrientationDeg,1676595149327,32206149486502,317.0,1.0,-13.0
UncalMag,1676595149329,32206151407900,-158.4292,777.90857,387.4476,-177.00775,769.7961,430.15182
UncalGyro,1676595149331,32206153728609,0.053603426,-1.2391402,-2.844494,-0.00026742637,-0.0017035446,-0.0003362017
UncalAccel,1676595149335,32206157966737,-2.2558336,1.430908,8.618947,0.037048545,-0.031444572,0.0098014325
OrientationDeg,1676595149335,32206157966737,319.0,1.0,-13.0
UncalMag,1676595149339,32206161408265,-159.0636,779.5556,387.4964,-177.00775,769.7961,430.15182
UncalGyro,1676595149341,32206162209626,0.019394971,-1.3857478,-2.7113254,-0.00026742637,-0.0017035446,-0.0003362017
UncalAccel,1676595149344,32206166449229,-2.158326,1.393221,8.395817,0.037048545,-0.031444572,0.0098014325
OrientationDeg,1676595149344,32206166449229,320.0,0.0,-13.0
UncalGyro,1676595149348,32206170690317,-0.07574729,-1.4908166,-2.5877779,-0.00026742637,-0.0017035446,-0.0003362017
UncalMag,1676595149349,32206171406596,-159.8322,778.84796,387.7038,-177.00775,769.7961,430.15182
UncalAccel,1676595149352,32206174930876,-2.0524435,1.466202,8.285747,0.037048545,-0.031444572,0.0098014325
OrientationDeg,1676595149352,32206174930876,321.0,0.0,-12.0
UncalGyro,1676595149357,32206179171437,-0.20631973,-1.5245669,-2.4944682,-0.00026742637,-0.0017035446,-0.0003362017
UncalMag,1676595149359,32206181409322,-160.93019,779.79956,388.082,-177.00775,769.7961,430.15182
UncalAccel,1676595149361,32206183413594,-1.9992033,1.6582261,7.9944205,0.037048545,-0.031444572,0.0098014325
OrientationDeg,1676595149361,32206183413594,322.0,0.0,-12.0
UncalGyro,1676595149365,32206187657754,-0.33643404,-1.5001323,-2.4459045,-0.00026742637,-0.0017035446,-0.0003362017
UncalMag,1676595149369,32206191417296,-161.65,779.8484,387.3866,-177.00775,769.7961,430.15182
UncalAccel,1676595149369,32206191903074,-1.8975084,1.9040886,7.726424,0.037048545,-0.031444572,0.0098014325
OrientationDeg,1676595149369,32206191903074,324.0,0.0,-12.0
UncalGyro,1676595149374,32206196136686,-0.4447099,-1.4075862,-2.4362833,-0.00026742637,-0.0017035446,-0.0003362017
UncalAccel,1676595149378,32206200387428,-1.8508483,2.0907288,7.744969,0.037048545,-0.031444572,0.0098014325
UncalMag,1676595149379,32206201406757,-162.15019,780.1778,386.9962,-177.00775,769.7961,430.15182
OrientationDeg,1676595149378,32206200387428,325.0,-1.0,-12.0
UncalGyro,1676595149382,32206204627072,-0.5209153,-1.2208142,-2.4465153,-0.00026742637,-0.0017035446,-0.0003362017
UncalAccel,1676595149386,32206208866798,-1.861616,2.3258235,7.6719875,0.037048545,-0.031444572,0.0098014325
OrientationDeg,1676595149386,32206208866798,326.0,-1.0,-12.0
UncalMag,1676595149389,32206211414161,-162.7358,781.06836,387.8258,-177.00775,769.7961,430.15182
UncalGyro,1676595149391,32206213101265,-0.55741453,-0.9776898,-2.462856,-0.00026742637,-0.0017035446,-0.0003362017
UncalAccel,1676595149395,32206217343767,-1.9040886,2.5172493,7.5086775,0.037048545,-0.031444572,0.0098014325
OrientationDeg,1676595149395,32206217343767,327.0,-1.0,-11.0
UncalMag,1676595149399,32206221417416,-163.73619,781.71497,387.04498,-177.00775,769.7961,430.15182
UncalGyro,1676595149399,32206221587246,-0.5531385,-0.7122689,-2.4631615,-0.00026742637,-0.0017035446,-0.0003362017
UncalAccel,1676595149403,32206225823604,-1.9758734,2.6273193,7.4069824,0.037048545,-0.031444572,0.0098014325
OrientationDeg,1676595149404,32206225823604,329.0,-1.0,-11.0
UncalGyro,1676595149408,32206230073604,-0.5174029,-0.4352415,-2.421928,-0.00026742637,-0.0017035446,-0.0003362017
UncalMag,1676595149409,32206231406714,-164.63899,782.3006,386.9596,-177.00775,769.7961,430.15182
UncalAccel,1676595149412,32206234320918,-2.0380867,2.7272196,7.3776703,0.037048545,-0.031444572,0.0098014325
OrientationDeg,1676595149412,32206234320918,330.0,-1.0,-11.0
UncalGyro,1676595149416,32206238553259,-0.4717407,-0.18402316,-2.3182335,-0.00026742637,-0.0017035446,-0.0003362017
UncalMag,1676595149419,32206241406672,-164.8342,782.45917,386.3984,-177.00775,769.7961,430.15182
UncalAccel,1676595149420,32206242793044,-2.1619153,2.7655048,7.2622166,0.037048545,-0.031444572,0.0098014325
OrientationDeg,1676595149420,32206242793044,331.0,-1.0,-11.0
UncalGyro,1676595149425,32206247035262,-0.4381431,-0.0050396384,-2.156507,-0.00026742637,-0.0017035446,-0.0003362017
UncalAccel,1676595149429,32206251265659,-2.2941186,2.7122645,7.094719,0.037048545,-0.031444572,0.0098014325
OrientationDeg,1676595149429,32206251265659,332.0,0.0,-11.0
UncalMag,1676595149429,32206251407241,-164.7,782.996,386.7644,-177.00775,769.7961,430.15182
UncalGyro,1676595149433,32206255514144,-0.4298964,0.08399397,-1.9604193,-0.00026742637,-0.0017035446,-0.0003362017
UncalAccel,1676595149437,32206259752190,-2.37368,2.6063821,6.946364,0.037048545,-0.031444572,0.0098014325
OrientationDeg,1676595149437,32206259752190,333.0,0.0,-10.0
UncalMag,1676595149439,32206261406589,-165.4076,783.3376,387.106,-177.00775,769.7961,430.15182
UncalGyro,1676595149441,32206263994562,-0.45830166,0.101098195,-1.754405,-0.00026742637,-0.0017035446,-0.0003362017
UncalAccel,1676595149446,32206268224826,-2.440679,2.510071,6.960721,0.037048545,-0.031444572,0.0098014325
OrientationDeg,1676595149446,32206268224826,334.0,0.0,-10.0
UncalMag,1676595149449,32206271417249,-165.493,783.6914,387.0694,-177.00775,769.7961,430.15182
UncalGyro,1676595149450,32206272478081,-0.52839845,0.07971791,-1.5619824,-0.00026742637,-0.0017035446,-0.0003362017
UncalAccel,1676595149454,32206276716819,-2.4795625,2.4472594,7.1042905,0.037048545,-0.031444572,0.0098014325
OrientationDeg,1676595149454,32206276716819,334.0,0.0,-10.0
UncalGyro,1676595149458,32206280960237,-0.63285637,0.016035212,-1.3897184,-0.00026742637,-0.0017035446,-0.0003362017
UncalMag,1676595149459,32206281411267,-165.88339,784.094,386.56918,-177.00775,769.7961,430.15182
UncalAccel,1676595149463,32206285194784,-2.28036,2.4867408,7.3250284,0.037048545,-0.031444572,0.0098014325
OrientationDeg,1676595149463,32206285194784,335.0,0.0,-10.0
UncalGyro,1676595149467,32206289439911,-0.7377725,-0.0067195175,-1.2307408,-0.00026742637,-0.0017035446,-0.0003362017
UncalMag,1676595149469,32206291417207,-165.88339,784.216,387.56958,-177.00775,769.7961,430.15182
UncalAccel,1676595149471,32206293679557,-2.498107,2.3916261,8.985049,0.037048545,-0.031444572,0.0098014325
OrientationDeg,1676595149471,32206293679557,336.0,0.0,-9.0
UncalGyro,1676595149475,32206297922151,-0.88270026,0.22296582,-1.0722213,-0.00026742637,-0.0017035446,-0.0003362017
UncalMag,1676595149479,32206301417166,-166.1518,784.9114,387.4964,-177.00775,769.7961,430.15182
UncalAccel,1676595149480,32206302161825,-2.1284158,2.4568307,17.033907,0.037048545,-0.031444572,0.0098014325
OrientationDeg,1676595149480,32206302161825,336.0,0.0,-9.0
UncalGyro,1676595149484,32206306402435,-0.40210205,1.7197384,-0.88132584,-0.00026742637,-0.0017035446,-0.0003362017
UncalAccel,1676595149488,32206310642313,-1.105484,3.9086757,9.04786,0.037048545,-0.031444572,0.0098014325
OrientationDeg,1676595149488,32206310642313,336.0,1.0,-9.0
UncalMag,1676595149489,32206311399790,-165.7248,785.1432,386.5814,-177.00775,769.7961,430.15182
UncalGyro,1676595149492,32206314883839,-0.022907447,1.5121969,-0.77549344,-0.00026742637,-0.0017035446,-0.0003362017
UncalAccel,1676595149497,32206319123769,-1.9124635,4.2891345,4.8119664,0.037048545,-0.031444572,0.0098014325
OrientationDeg,1676595149497,32206319123769,337.0,2.0,-9.0
UncalMag,1676595149499,32206321417205,-165.0904,785.1676,386.93518,-177.00775,769.7961,430.15182
UncalGyro,1676595149501,32206323365081,0.18860464,1.2840388,-0.7501425,-0.00026742637,-0.0017035446,-0.0003362017
UncalAccel,1676595149505,32206327604979,-1.2430713,3.4337006,14.977275,0.037048545,-0.031444572,0.0098014325
OrientationDeg,1676595149505,32206327604979,337.0,3.0,-9.0
UncalMag,1676595149509,32206331417286,-164.34619,785.4848,387.96,-177.00775,769.7961,430.15182
UncalGyro,1676595149509,32206331844287,0.28053987,1.8768835,-0.6944011,-0.00026742637,-0.0017035446,-0.0003362017
UncalAccel,1676595149514,32206336077064,-1.2789637,2.777469,8.813962,0.037048545,-0.031444572,0.0098014325
OrientationDeg,1676595149514,32206336077064,337.0,4.0,-9.0
UncalGyro,1676595149518,32206340328315,0.36682457,1.9343048,-0.42256603,-0.00026742637,-0.0017035446,-0.0003362017
UncalMag,1676595149519,32206341410083,-163.73619,785.2286,387.8746,-177.00775,769.7961,430.15182
UncalAccel,1676595149522,32206344564735,-4.822136,-0.19621146,9.4941225,0.037048545,-0.031444572,0.0098014325
OrientationDeg,1676595149522,32206344564735,337.0,5.0,-10.0
UncalGyro,1676595149526,32206348811998,1.1215485,1.158964,0.7518224,-0.00026742637,-0.0017035446,-0.0003362017
UncalMag,1676595149529,32206351417162,-163.724,785.31396,388.021,-177.00775,769.7961,430.15182
UncalAccel,1676595149531,32206353044888,-1.6576279,1.6881363,5.8343,0.037048545,-0.031444572,0.0098014325
OrientationDeg,1676595149531,32206353044888,337.0,5.0,-10.0
UncalGyro,1676595149535,32206357275438,1.1247556,0.3202461,1.1655309,-0.00026742637,-0.0017035446,-0.0003362017
UncalMag,1676595149539,32206361417202,-162.7114,784.7162,387.6062,-177.00775,769.7961,430.15182
UncalAccel,1676595149539,32206361530300,-0.109471634,1.4913267,6.174081,0.037048545,-0.031444572,0.0098014325
OrientationDeg,1676595149539,32206361530300,336.0,5.0,-11.0
UncalGyro,1676595149543,32206365772314,0.6386596,-0.11530081,1.1070405,-0.00026742637,-0.0017035446,-0.0003362017
UncalAccel,1676595149548,32206370016963,-1.2807583,0.57188463,7.374081,0.037048545,-0.031444572,0.0098014325
OrientationDeg,1676595149548,32206370016963,336.0,5.0,-11.0
UncalMag,1676595149549,32206371400518,-163.175,784.0818,387.106,-177.00775,769.7961,430.15182
UncalGyro,1676595149552,32206374251083,0.12507465,-0.47235155,1.0842859,-0.00026742637,-0.0017035446,-0.0003362017
UncalAccel,1676595149556,32206378482773,-1.7988044,-0.08315059,7.4267235,0.037048545,-0.031444572,0.0098014325
OrientationDeg,1676595149556,32206378482773,335.0,4.0,-11.0
UncalMag,1676595149559,32206381417241,-163.297,783.7402,387.5086,-177.00775,769.7961,430.15182
UncalGyro,1676595149560,32206382734593,-0.24129178,-0.9784534,1.1340714,-0.00026742637,-0.0017035446,-0.0003362017
UncalAccel,1676595149564,32206386974542,-0.9726824,-0.0035892338,8.806186,0.037048545,-0.031444572,0.0098014325
OrientationDeg,1676595149564,32206386974542,335.0,3.0,-11.0
UncalGyro,1676595149569,32206391219099,-0.32559118,-1.2724323,1.0813842,-0.00026742637,-0.0017035446,-0.0003362017
UncalMag,1676595149569,32206391412927,-162.8578,784.0208,387.56958,-177.00775,769.7961,430.15182
UncalAccel,1676595149573,32206395456190,-0.15732808,0.65024954,10.616954,0.037048545,-0.031444572,0.0098014325
OrientationDeg,1676595149573,32206395456190,334.0,3.0,-11.0
UncalGyro,1676595149577,32206399697319,-0.23044892,-1.2684617,0.8582657,-0.00026742637,-0.0017035446,-0.0003362017
UncalMag,1676595149579,32206401414025,-163.91919,783.81335,387.1792,-177.00775,769.7961,430.15182
UncalAccel,1676595149581,32206403934838,0.78664047,1.7706888,11.49512,0.037048545,-0.031444572,0.0098014325
OrientationDeg,1676595149581,32206403934838,334.0,2.0,-11.0
UncalGyro,1676595149586,32206408175774,-0.058948494,-0.946383,0.535118,-0.00026742637,-0.0017035446,-0.0003362017
UncalMag,1676595149589,32206411417320,-164.4316,783.9598,386.7522,-177.00775,769.7961,430.15182
UncalAccel,1676595149590,32206412410819,1.6295122,2.0871396,11.737991,0.037048545,-0.031444572,0.0098014325
OrientationDeg,1676595149590,32206412410819,334.0,2.0,-11.0
UncalGyro,1676595149594,32206416650575,0.23426682,-0.44913867,0.18829921,-0.00026742637,-0.0017035446,-0.0003362017
UncalAccel,1676595149598,32206420903657,2.4017956,2.5142584,11.177473,0.037048545,-0.031444572,0.0098014325
UncalMag,1676595149599,32206421412396,-164.05339,783.362,387.0816,-177.00775,769.7961,430.15182
OrientationDeg,1676595149598,32206420903657,334.0,2.0,-11.0
UncalGyro,1676595149603,32206425154074,0.5717699,0.09850202,-0.21426098,-0.00026742637,-0.0017035446,-0.0003362017
UncalAccel,1676595149607,32206429384064,2.8295128,2.556731,10.2347,0.037048545,-0.031444572,0.0098014325
OrientationDeg,1676595149607,32206429384064,334.0,2.0,-11.0
UncalMag,1676595149609,32206431407065,-163.846,783.3742,387.1914,-177.00775,769.7961,430.15182
UncalGyro,1676595149611,32206433623251,0.91919947,0.6375906,-0.62796944,-0.00026742637,-0.0017035446,-0.0003362017
UncalAccel,1676595149615,32206437861065,2.5435705,2.1978076,9.093923,0.037048545,-0.031444572,0.0098014325
OrientationDeg,1676595149615,32206437861065,334.0,2.0,-12.0
UncalMag,1676595149619,32206441400635,-163.9558,783.17896,386.66678,-177.00775,769.7961,430.15182
UncalGyro,1676595149620,32206442101847,1.2983941,1.1145236,-1.0345002,-0.00026742637,-0.0017035446,-0.0003362017
UncalAccel,1676595149624,32206446331207,1.7114664,2.103291,7.8484583,0.037048545,-0.031444572,0.0098014325
OrientationDeg,1676595149624,32206446331207,335.0,3.0,-12.0
UncalGyro,1676595149628,32206450575968,1.6143641,1.5296066,-1.4265231,-0.00026742637,-0.0017035446,-0.0003362017
UncalMag,1676595149629,32206451406738,-163.60199,782.1542,387.0206,-177.00775,769.7961,430.15182
UncalAccel,1676595149632,32206454825764,-1.2867404,-0.16689938,8.04108,0.037048545,-0.031444572,0.0098014325
OrientationDeg,1676595149632,32206454825764,336.0,4.0,-13.0
UncalGyro,1676595149637,32206459069996,1.59558,2.0186043,-1.3272575,-0.00026742637,-0.0017035446,-0.0003362017
UncalMag,1676595149639,32206461417316,-162.9188,781.3734,386.8132,-177.00775,769.7961,430.15182
UncalAccel,1676595149641,32206463309223,-1.1790633,1.1575279,9.997213,0.037048545,-0.031444572,0.0098014325
OrientationDeg,1676595149641,32206463309223,337.0,5.0,-14.0
UncalGyro,1676595149645,32206467548847,1.6055065,2.068695,-1.374294,-0.00026742637,-0.0017035446,-0.0003362017
UncalMag,1676595149649,32206471414101,-161.772,781.2392,387.1182,-177.00775,769.7961,430.15182
UncalAccel,1676595149649,32206471787158,0.5168497,2.5429723,6.7172513,0.037048545,-0.031444572,0.0098014325
OrientationDeg,1676595149649,32206471787158,337.0,6.0,-15.0
UncalGyro,1676595149654,32206476020728,1.5184582,1.625207,-1.3610078,-0.00026742637,-0.0017035446,-0.0003362017
UncalAccel,1676595149658,32206480269629,2.7212377,2.5268207,7.423134,0.037048545,-0.031444572,0.0098014325
UncalMag,1676595149659,32206481406980,-161.5768,781.1416,386.72778,-177.00775,769.7961,430.15182
OrientationDeg,1676595149658,32206480269629,338.0,7.0,-15.0
UncalGyro,1676595149662,32206484508449,1.4358387,1.5546521,-0.9401216,-0.00026742637,-0.0017035446,-0.0003362017
UncalAccel,1676595149666,32206488742856,4.369892,3.9517467,6.629315,0.037048545,-0.031444572,0.0098014325
OrientationDeg,1676595149666,32206488742856,339.0,8.0,-16.0
UncalMag,1676595149669,32206491417355,-160.16159,780.32416,387.5818,-177.00775,769.7961,430.15182
UncalGyro,1676595149670,32206492993028,1.5706873,1.3631458,-0.55924714,-0.00026742637,-0.0017035446,-0.0003362017
UncalAccel,1676595149675,32206497227983,4.351348,4.578666,6.7740808,0.037048545,-0.031444572,0.0098014325
OrientationDeg,1676595149675,32206497227983,339.0,9.0,-17.0
UncalMag,1676595149679,32206501417476,-160.6252,779.6166,387.5452,-177.00775,769.7961,430.15182
UncalGyro,1676595149679,32206501455827,1.694082,0.8200866,-0.46120325,-0.00026742637,-0.0017035446,-0.0003362017
UncalAccel,1676595149683,32206505704239,2.8019953,4.0911283,8.976674,0.037048545,-0.031444572,0.0098014325
OrientationDeg,1676595149683,32206505704239,339.0,9.0,-17.0
UncalGyro,1676595149687,32206509955591,1.382999,-0.043218717,-0.5934556,-0.00026742637,-0.0017035446,-0.0003362017
UncalMag,1676595149689,32206511417231,-160.4422,779.092,387.4232,-177.00775,769.7961,430.15182
UncalAccel,1676595149692,32206514199946,1.2903296,3.9415772,9.764511,0.037048545,-0.031444572,0.0098014325
OrientationDeg,1676595149692,32206514199946,340.0,9.0,-18.0
UncalGyro,1676595149696,32206518436599,0.5925393,-0.9665415,-0.8509353,-0.00026742637,-0.0017035446,-0.0003362017
UncalMag,1676595149699,32206521417353,-160.4666,778.8358,387.594,-177.00775,769.7961,430.15182
UncalAccel,1676595149700,32206522666000,0.9942178,4.6672006,10.422537,0.037048545,-0.031444572,0.0098014325
OrientationDeg,1676595149700,32206522666000,340.0,8.0,-18.0
UncalGyro,1676595149704,32206526915654,-0.25442538,-1.4176655,-1.0919216,-0.00026742637,-0.0017035446,-0.0003362017
UncalAccel,1676595149709,32206531146722,1.1018949,5.3940206,11.493325,0.037048545,-0.031444572,0.0098014325
UncalMag,1676595149709,32206531424676,-161.0522,779.4092,386.7888,-177.00775,769.7961,430.15182
OrientationDeg,1676595149709,32206531146722,341.0,8.0,-17.0
UncalGyro,1676595149713,32206535399498,-0.8567385,-1.3646729,-1.3011429,-0.00026742637,-0.0017035446,-0.0003362017
UncalAccel,1676595149717,32206539640464,1.6313069,5.5304112,12.259626,0.037048545,-0.031444572,0.0098014325
UncalMag,1676595149719,32206541406894,-162.3454,780.44617,387.1792,-177.00775,769.7961,430.15182
OrientationDeg,1676595149717,32206539640464,341.0,7.0,-17.0
UncalGyro,1676595149721,32206543882236,-1.2990049,-1.1065824,-1.5048665,-0.00026742637,-0.0017035446,-0.0003362017
UncalAccel,1676595149726,32206548118950,2.361716,4.768297,12.387643,0.037048545,-0.031444572,0.0098014325
OrientationDeg,1676595149726,32206548118950,342.0,7.0,-16.0
UncalMag,1676595149729,32206551417228,-162.4308,780.76337,386.2886,-177.00775,769.7961,430.15182
UncalGyro,1676595149730,32206552351391,-1.6281086,-0.8362745,-1.669342,-0.00026742637,-0.0017035446,-0.0003362017
UncalAccel,1676595149734,32206556602317,2.9270203,4.0151563,12.170494,0.037048545,-0.031444572,0.0098014325
OrientationDeg,1676595149734,32206556602317,343.0,7.0,-15.0
UncalGyro,1676595149738,32206560843944,-1.830305,-0.57635134,-1.7826575,-0.00026742637,-0.0017035446,-0.0003362017
UncalMag,1676595149739,32206561406445,-163.0164,781.38556,387.30118,-177.00775,769.7961,430.15182
UncalAccel,1676595149743,32206565086376,3.0502508,3.6041892,11.95873,0.037048545,-0.031444572,0.0098014325
OrientationDeg,1676595149743,32206565086376,344.0,7.0,-14.0
UncalGyro,1676595149747,32206569325623,-1.9086485,-0.3135266,-1.8556559,-0.00026742637,-0.0017035446,-0.0003362017
UncalMag,1676595149749,32206571417227,-163.663,782.935,387.09378,-177.00775,769.7961,430.15182
UncalAccel,1676595149751,32206573566081,2.882155,3.2350962,11.687144,0.037048545,-0.031444572,0.0098014325
OrientationDeg,1676595149751,32206573566081,344.0,7.0,-13.0
UncalGyro,1676595149755,32206577806630,-1.9011654,-0.07238753,-1.9057468,-0.00026742637,-0.0017035446,-0.0003362017
UncalMag,1676595149759,32206581417145,-163.9924,784.338,387.5574,-177.00775,769.7961,430.15182
UncalAccel,1676595149760,32206582046234,2.43709,2.7535408,11.3575325,0.037048545,-0.031444572,0.0098014325
OrientationDeg,1676595149760,32206582046234,345.0,7.0,-12.0
UncalGyro,1676595149764,32206586287648,-1.8425223,0.10216721,-1.9478966,-0.00026742637,-0.0017035446,-0.0003362017
UncalAccel,1676595149768,32206590527709,1.9064814,2.3150558,11.04168,0.037048545,-0.031444572,0.0098014325
OrientationDeg,1676595149768,32206590527709,346.0,7.0,-11.0
UncalMag,1676595149769,32206591406890,-164.05339,785.1188,387.3744,-177.00775,769.7961,430.15182
UncalGyro,1676595149772,32206594769316,-1.7519615,0.20357084,-1.983174,-0.00026742637,-0.0017035446,-0.0003362017
UncalAccel,1676595149777,32206599009205,1.451247,1.8430717,10.797612,0.037048545,-0.031444572,0.0098014325
OrientationDeg,1676595149777,32206599009205,347.0,8.0,-10.0
UncalMag,1676595149779,32206601414051,-164.6268,785.9728,387.228,-177.00775,769.7961,430.15182
UncalGyro,1676595149781,32206603250354,-1.6372715,0.25702155,-1.9989038,-0.00026742637,-0.0017035446,-0.0003362017
UncalAccel,1676595149785,32206607486082,1.1156535,1.2807583,10.660025,0.037048545,-0.031444572,0.0098014325
OrientationDeg,1676595149785,32206607486082,348.0,8.0,-9.0
UncalMag,1676595149789,32206611417427,-164.4804,786.58276,387.25238,-177.00775,769.7961,430.15182
UncalGyro,1676595149789,32206611722969,-1.5015068,0.2790127,-1.9811887,-0.00026742637,-0.0017035446,-0.0003362017
UncalAccel,1676595149793,32206615971991,0.89072824,0.70947194,10.503893,0.037048545,-0.031444572,0.0098014325
UncalGyro,1676595149798,32206620213965,-1.3547463,0.2753475,-1.9271271,-0.00026742637,-0.0017035446,-0.0003362017
UncalMag,1676595149799,32206621406806,-164.7244,787.7174,387.41098,-177.00775,769.7961,430.15182
OrientationDeg,1676595149793,32206615971991,349.0,8.0,-8.0
UncalAccel,1676595149802,32206624455430,0.74536425,0.2105684,10.424332,0.037048545,-0.031444572,0.0098014325
OrientationDeg,1676595149802,32206624455430,349.0,8.0,-8.0
UncalGyro,1676595149806,32206628694730,-1.2005029,0.2518292,-1.8332067,-0.00026742637,-0.0017035446,-0.0003362017
UncalMag,1676595149809,32206631417182,-164.578,788.5348,388.326,-177.00775,769.7961,430.15182
UncalAccel,1676595149810,32206632934658,0.5988039,-0.1591227,10.430314,0.037048545,-0.031444572,0.0098014325
OrientationDeg,1676595149810,32206632934658,350.0,8.0,-7.0
UncalGyro,1676595149815,32206637176693,-1.0331259,0.22556199,-1.7069103,-0.00026742637,-0.0017035446,-0.0003362017
UncalAccel,1676595149819,32206641415370,0.33260235,-0.42891344,10.405787,0.037048545,-0.031444572,0.0098014325
UncalMag,1676595149819,32206641422877,-164.9074,788.27856,388.6432,-177.00775,769.7961,430.15182
OrientationDeg,1676595149819,32206641415370,351.0,9.0,-6.0
UncalGyro,1676595149823,32206645651057,-0.8526152,0.20525073,-1.5653422,-0.00026742637,-0.0017035446,-0.0003362017
UncalAccel,1676595149828,32206649897190,-0.019740786,-0.5796613,10.36152,0.037048545,-0.031444572,0.0098014325
UncalMag,1676595149829,32206651406560,-165.3832,789.13257,388.4968,-177.00775,769.7961,430.15182
OrientationDeg,1676595149827,32206649897190,352.0,9.0,-6.0
UncalGyro,1676595149832,32206654138524,-0.6606508,0.19624045,-1.4259121,-0.00026742637,-0.0017035446,-0.0003362017
UncalAccel,1676595149836,32206658380284,-0.4211368,-0.7112665,10.359726,0.037048545,-0.031444572,0.0098014325
OrientationDeg,1676595149836,32206658380284,352.0,9.0,-5.0
UncalMag,1676595149839,32206661414128,-165.676,789.3034,388.6676,-177.00775,769.7961,430.15182
UncalGyro,1676595149840,32206662617517,-0.46043968,0.2012801,-1.2861768,-0.00026742637,-0.0017035446,-0.0003362017
UncalAccel,1676595149844,32206666849440,-0.7926225,-0.8428718,10.267004,0.037048545,-0.031444572,0.0098014325
OrientationDeg,1676595149844,32206666849440,353.0,9.0,-5.0
UncalGyro,1676595149849,32206671102145,-0.2648101,0.20586158,-1.1429288,-0.00026742637,-0.0017035446,-0.0003362017
UncalMag,1676595149849,32206671416934,-165.8468,790.08417,388.36258,-177.00775,769.7961,430.15182
UncalAccel,1676595149853,32206675341280,-1.1162517,-0.9403793,10.118051,0.037048545,-0.031444572,0.0098014325
OrientationDeg,1676595149853,32206675341280,353.0,9.0,-5.0
UncalGyro,1676595149857,32206679581168,-0.082619525,0.2003638,-0.9949468,-0.00026742637,-0.0017035446,-0.0003362017
UncalMag,1676595149859,32206681417178,-165.4442,789.64496,388.1308,-177.00775,769.7961,430.15182
UncalAccel,1676595149861,32206683824760,-1.3501502,-0.9421739,10.006784,0.037048545,-0.031444572,0.0098014325
OrientationDeg,1676595149861,32206683824760,354.0,9.0,-5.0
UncalGyro,1676595149866,32206688064079,0.08475755,0.20326541,-0.84559023,-0.00026742637,-0.0017035446,-0.0003362017
UncalMag,1676595149869,32206691417177,-165.8346,790.194,389.119,-177.00775,769.7961,430.15182
UncalAccel,1676595149870,32206692305310,-1.5218352,-0.86141616,9.909875,0.037048545,-0.031444572,0.0098014325
OrientationDeg,1676595149870,32206692305310,354.0,9.0,-5.0
UncalGyro,1676595149874,32206696541485,0.23823744,0.22434026,-0.70188415,-0.00026742637,-0.0017035446,-0.0003362017
UncalAccel,1676595149878,32206700769308,-1.7084754,-0.6658029,9.769297,0.037048545,-0.031444572,0.0098014325
UncalMag,1676595149879,32206701427064,-165.9444,790.0964,388.8628,-177.00775,769.7961,430.15182
OrientationDeg,1676595149878,32206700769308,354.0,10.0,-5.0
UncalGyro,1676595149883,32206705027405,0.36896262,0.25534168,-0.5688683,-0.00026742637,-0.0017035446,-0.0003362017
UncalAccel,1676595149887,32206709267813,-1.9674984,-0.360718,9.713663,0.037048545,-0.031444572,0.0098014325
OrientationDeg,1676595149887,32206709267813,355.0,10.0,-5.0
UncalMag,1676595149889,32206711417257,-165.6638,789.65717,388.6188,-177.00775,769.7961,430.15182
UncalGyro,1676595149891,32206713512675,0.45952338,0.28237244,-0.45814893,-0.00026742637,-0.0017035446,-0.0003362017
UncalAccel,1676595149895,32206717748158,-2.352743,0.024526432,9.732806,0.037048545,-0.031444572,0.0098014325
OrientationDeg,1676595149895,32206717748158,355.0,10.0,-5.0
UncalMag,1676595149899,32206721414001,-165.737,789.9866,388.2162,-177.00775,769.7961,430.15182
UncalGyro,1676595149899,32206721988820,0.50243664,0.2941316,-0.38912117,-0.00026742637,-0.0017035446,-0.0003362017
UncalAccel,1676595149904,32206726226297,-2.7954152,0.4432704,9.813564,0.037048545,-0.031444572,0.0098014325
OrientationDeg,1676595149904,32206726226297,355.0,10.0,-5.0
UncalGyro,1676595149908,32206730468962,0.5021312,0.29978213,-0.36972618,-0.00026742637,-0.0017035446,-0.0003362017
UncalMag,1676595149909,32206731399759,-165.4198,790.0964,388.7286,-177.00775,769.7961,430.15182
UncalAccel,1676595149912,32206734701292,-3.2135608,0.7423732,9.919446,0.037048545,-0.031444572,0.0098014325
OrientationDeg,1676595149912,32206734701292,355.0,10.0,-6.0
UncalGyro,1676595149916,32206738954009,0.47326785,0.31444287,-0.39522982,-0.00026742637,-0.0017035446,-0.0003362017
UncalMag,1676595149919,32206741407123,-165.6638,789.6328,388.0088,-177.00775,769.7961,430.15182
UncalAccel,1676595149921,32206743193876,-3.4869409,0.8991031,9.893126,0.037048545,-0.031444572,0.0098014325
OrientationDeg,1676595149921,32206743193876,356.0,11.0,-6.0
UncalGyro,1676595149925,32206747437579,0.43753225,0.34132096,-0.44700065,-0.00026742637,-0.0017035446,-0.0003362017
UncalMag,1676595149929,32206751417010,-165.5784,789.3034,388.2894,-177.00775,769.7961,430.15182
UncalAccel,1676595149929,32206751674365,-3.5533416,0.9176475,9.758529,0.037048545,-0.031444572,0.0098014325
OrientationDeg,1676595149929,32206751674365,356.0,11.0,-6.0
UncalGyro,1676595149933,32206755917548,0.40775254,0.37232238,-0.5019785,-0.00026742637,-0.0017035446,-0.0003362017
UncalAccel,1676595149938,32206760154964,-3.4749768,0.83688974,9.62154,0.037048545,-0.031444572,0.0098014325
UncalMag,1676595149939,32206761406552,-165.45639,789.6816,389.10678,-177.00775,769.7961,430.15182
OrientationDeg,1676595149938,32206760154964,356.0,11.0,-6.0
UncalGyro,1676595149942,32206764396735,0.38255435,0.4008803,-0.5468771,-0.00026742637,-0.0017035446,-0.0003362017
UncalAccel,1676595149946,32206768636013,-3.3254254,0.6801598,9.503694,0.037048545,-0.031444572,0.0098014325
OrientationDeg,1676595149946,32206768636013,356.0,11.0,-6.0
UncalMag,1676595149949,32206771417293,-164.7488,789.2546,388.9848,-177.00775,769.7961,430.15182
UncalGyro,1676595149950,32206772878251,0.35995236,0.4185954,-0.57696223,-0.00026742637,-0.0017035446,-0.0003362017
UncalAccel,1676595149955,32206777119105,-3.1698918,0.46121657,9.376874,0.037048545,-0.031444572,0.0098014325
OrientationDeg,1676595149955,32206777119105,357.0,11.0,-6.0
UncalGyro,1676595149959,32206781359705,0.34238997,0.43096542,-0.5893322,-0.00026742637,-0.0017035446,-0.0003362017
UncalMag,1676595149959,32206781406591,-165.371,789.12036,388.1308,-177.00775,769.7961,430.15182
UncalAccel,1676595149963,32206785596572,-2.966502,0.2757728,9.188439,0.037048545,-0.031444572,0.0098014325
OrientationDeg,1676595149963,32206785596572,357.0,12.0,-6.0
UncalGyro,1676595149967,32206789828587,0.34666604,0.43463063,-0.581391,-0.00026742637,-0.0017035446,-0.0003362017
UncalMag,1676595149969,32206791413914,-165.676,789.2912,387.93558,-177.00775,769.7961,430.15182
UncalAccel,1676595149972,32206794076654,-2.7912276,0.119042926,8.898908,0.037048545,-0.031444572,0.0098014325
OrientationDeg,1676595149972,32206794076654,357.0,12.0,-7.0
UncalGyro,1676595149976,32206798318933,0.37934732,0.42149702,-0.5535966,-0.00026742637,-0.0017035446,-0.0003362017
UncalMag,1676595149979,32206801417332,-164.8708,788.7788,387.9112,-177.00775,769.7961,430.15182
UncalAccel,1676595149980,32206802564853,-2.6554348,0.053240303,8.637491,0.037048545,-0.031444572,0.0098014325
OrientationDeg,1676595149980,32206802564853,358.0,12.0,-7.0
UncalGyro,1676595149984,32206806804680,0.43860126,0.38621956,-0.5109888,-0.00026742637,-0.0017035446,-0.0003362017
UncalAccel,1676595149989,32206811045362,-2.6111677,0.06819545,8.513663,0.037048545,-0.031444572,0.0098014325
UncalMag,1676595149989,32206811414971,-164.68779,788.37616,389.0214,-177.00775,769.7961,430.15182
OrientationDeg,1676595149989,32206811045362,358.0,12.0,-7.0
UncalGyro,1676595149993,32206815286166,0.51053065,0.34116822,-0.4644103,-0.00026742637,-0.0017035446,-0.0003362017
UncalAccel,1676595149997,32206819524864,-2.6219354,0.17826529,8.541779,0.037048545,-0.031444572,0.0098014325
OrientationDeg,1676595149997,32206819524864,358.0,13.0,-7.0
UncalMag,1676595149999,32206821417289,-164.68779,788.37616,389.0214,-177.00775,769.7961,430.15182
UncalGyro,1676595150001,32206823766329,0.58368176,0.29520062,-0.4277584,-0.00026742637,-0.0017035446,-0.0003362017
UncalAccel,1676595150006,32206828005871,-2.7003005,0.32123643,8.679366,0.037048545,-0.031444572,0.0098014325
OrientationDeg,1676595150006,32206828005871,359.0,13.0,-7.0
UncalMag,1676595150009,32206831417207,-165.2246,788.18097,388.3748,-177.00775,769.7961,430.15182
UncalGyro,1676595150010,32206832247753,0.6478226,0.26435193,-0.4034765,-0.00026742637,-0.0017035446,-0.0003362017
UncalAccel,1676595150014,32206836487601,-2.8313074,0.49232325,8.873184,0.037048545,-0.031444572,0.0098014325
OrientationDeg,1676595150014,32206836487601,359.0,13.0,-8.0
UncalGyro,1676595150018,32206840726675,0.6977608,0.25121832,-0.39400807,-0.00026742637,-0.0017035446,-0.0003362017
UncalMag,1676595150019,32206841406749,-164.7122,788.0102,388.448,-177.00775,769.7961,430.15182
UncalAccel,1676595150022,32206844959239,-2.986841,0.6735796,9.062218,0.037048545,-0.031444572,0.0098014325
OrientationDeg,1676595150022,32206844959239,359.0,13.0,-8.0
UncalGyro,1676595150027,32206849210612,0.73364913,0.24877487,-0.4027129,-0.00026742637,-0.0017035446,-0.0003362017
UncalMag,1676595150029,32206851401784,-164.7122,788.0102,388.448,-177.00775,769.7961,430.15182
UncalAccel,1676595150031,32206853449595,-3.0562327,0.8117651,9.237492,0.037048545,-0.031444572,0.0098014325
OrientationDeg,1676595150031,32206853449595,359.0,13.0,-8.0
UncalGyro,1676595150035,32206857691273,0.7504479,0.25244007,-0.4268421,-0.00026742637,-0.0017035446,-0.0003362017
UncalMag,1676595150039,32206861417164,-164.9684,787.20496,387.899,-177.00775,769.7961,430.15182
UncalAccel,1676595150039,32206861931426,-3.0765717,0.86859465,9.399606,0.037048545,-0.031444572,0.0098014325
OrientationDeg,1676595150039,32206861931426,0.0,14.0,-8.0
UncalGyro,1676595150044,32206866173267,0.74296486,0.24816401,-0.45204028,-0.00026742637,-0.0017035446,-0.0003362017
UncalAccel,1676595150048,32206870413826,-3.0586255,0.8350951,9.595219,0.037048545,-0.031444572,0.0098014325
OrientationDeg,1676595150048,32206870413826,0.0,14.0,-9.0
UncalMag,1676595150049,32206871407032,-164.8708,787.0586,388.4602,-177.00775,769.7961,430.15182
UncalGyro,1676595150052,32206874655047,0.7115053,0.24083363,-0.47128254,-0.00026742637,-0.0017035446,-0.0003362017
UncalAccel,1676595150056,32206878895801,-3.0161529,0.7106683,9.739387,0.037048545,-0.031444572,0.0098014325
OrientationDeg,1676595150056,32206878895801,0.0,14.0,-9.0
UncalMag,1676595150059,32206881417366,-164.98059,786.961,388.326,-177.00775,769.7961,430.15182
UncalGyro,1676595150061,32206883137093,0.67149365,0.23640485,-0.47510046,-0.00026742637,-0.0017035446,-0.0003362017
UncalAccel,1676595150065,32206887375608,-2.9676983,0.60059845,9.7399845,0.037048545,-0.031444572,0.0098014325
OrientationDeg,1676595150065,32206887375608,1.0,14.0,-9.0
UncalMag,1676595150069,32206891417488,-164.9928,786.839,387.20358,-177.00775,769.7961,430.15182
UncalGyro,1676595150069,32206891612607,0.6392705,0.22357668,-0.46303585,-0.00026742637,-0.0017035446,-0.0003362017
UncalAccel,1676595150073,32206895839565,-2.9916265,0.65324056,9.677772,0.037048545,-0.031444572,0.0098014325
OrientationDeg,1676595150073,32206895839565,1.0,14.0,-9.0
UncalGyro,1676595150078,32206900101873,0.62949663,0.18310685,-0.44990227,-0.00026742637,-0.0017035446,-0.0003362017
UncalMag,1676595150079,32206901417161,-164.273,786.69257,387.52078,-177.00775,769.7961,430.15182
UncalAccel,1676595150082,32206904338630,-3.1399815,0.80578303,9.6376915,0.037048545,-0.031444572,0.0098014325
UncalGyro,1676595150086,32206908585089,0.6409504,0.1085813,-0.44608435,-0.00026742637,-0.0017035446,-0.0003362017
OrientationDeg,1676595150082,32206904338630,1.0,14.0,-10.0
UncalMag,1676595150089,32206911417161,-164.7244,785.9972,387.9722,-177.00775,769.7961,430.15182
UncalAccel,1676595150090,32206912817633,-3.347559,0.99601245,9.745368,0.037048545,-0.031444572,0.0098014325
OrientationDeg,1676595150090,32206912817633,1.0,14.0,-10.0
UncalGyro,1676595150095,32206917051010,0.66691214,0.0041233404,-0.4605924,-0.00026742637,-0.0017035446,-0.0003362017
UncalAccel,1676595150099,32206921300460,-3.4893336,1.1670992,9.996614,0.037048545,-0.031444572,0.0098014325
UncalMag,1676595150099,32206921424199,-164.6512,785.4604,387.35,-177.00775,769.7961,430.15182
OrientationDeg,1676595150099,32206921300460,2.0,14.0,-10.0
Status,1676595148999,33,0,3,15,1602000000,40.95,299.0,81.0,1,1,1,37.34822
Status,1676595148999,33,1,1,11,1176450050,40.76,104.0,77.0,1,1,1,37.156357
Status,1676595148999,33,2,1,11,1575420030,42.15,104.0,77.0,1,1,1,38.550983
Status,1676595148999,33,3,6,2,1575420030,41.37,117.0,73.0,1,1,1,37.77379
Status,1676595148999,33,4,6,2,1176450050,37.33,117.0,73.0,1,1,1,33.729042
Status,1676595148999,33,5,3,17,1604249980,44.15,335.0,70.0,1,1,1,40.554737
Status,1676595148999,33,6,1,12,1575420030,46.08,330.0,69.0,1,1,1,42.476387
Status,1676595148999,33,7,6,34,1575420030,41.25,210.0,63.0,1,1,1,37.652668
Status,1676595148999,33,8,6,34,1176450050,34.28,210.0,63.0,1,1,1,30.683546
Status,1676595148999,33,9,6,36,1575420030,41.80,48.0,60.0,1,1,1,38.19831
