# 
# Header Description:
# 
# Version: v3.0.5.6 Platform: 13 Manufacturer: Google Model: Pixel 6
# 
# Raw,utcTimeMillis,TimeNanos,LeapSecond,TimeUncertaintyNanos,FullBiasNanos,BiasNanos,BiasUncertaintyNanos,DriftNanosPerSecond,DriftUncertaintyNanosPerSecond,HardwareClockDiscontinuityCount,Svid,TimeOffsetNanos,State,ReceivedSvTimeNanos,ReceivedSvTimeUncertaintyNanos,Cn0DbHz,PseudorangeRateMetersPerSecond,PseudorangeRateUncertaintyMetersPerSecond,AccumulatedDeltaRangeState,AccumulatedDeltaRangeMeters,AccumulatedDeltaRangeUncertaintyMeters,CarrierFrequencyHz,CarrierCycles,CarrierPhase,CarrierPhaseUncertainty,MultipathIndicator,SnrInDb,ConstellationType,AgcDb,BasebandCn0DbHz,FullInterSignalBiasNanos,FullInterSignalBiasUncertaintyNanos,SatelliteInterSignalBiasNanos,SatelliteInterSignalBiasUncertaintyNanos,CodeType,ChipsetElapsedRealtimeNanos
# 
# UncalAccel,utcTimeMillis,elapsedRealtimeNanos,UncalAccelXMps2,UncalAccelYMps2,UncalAccelZMps2,BiasXMps2,BiasYMps2,BiasZMps2
# 
# Accel,utcTimeMillis,elapsedRealtimeNanos,AccelXMps2,AccelYMps2,AccelZMps2
# 
# UncalGyro,utcTimeMillis,elapsedRealtimeNanos,UncalGyroXRadPerSec,UncalGyroYRadPerSec,UncalGyroZRadPerSec,DriftXRadPerSec,DriftYRadPerSec,DriftZRadPerSec
# 
# Gyro,utcTimeMillis,elapsedRealtimeNanos,GyroXRadPerSec,GyroYRadPerSec,GyroZRadPerSec
# 
# UncalMag,utcTimeMillis,elapsedRealtimeNanos,UncalMagXMicroT,UncalMagYMicroT,UncalMagZMicroT,BiasXMicroT,BiasYMicroT,BiasZMicroT
# 
# Mag,utcTimeMillis,elapsedRealtimeNanos,MagXMicroT,MagYMicroT,MagZMicroT
# 
# OrientationDeg,utcTimeMillis,elapsedRealtimeNanos,yawDeg,rollDeg,pitchDeg
# 
# Fix,Provider,LatitudeDegrees,LongitudeDegrees,AltitudeMeters,SpeedMps,AccuracyMeters,BearingDegrees,UnixTimeMillis,SpeedAccuracyMps,BearingAccuracyDegrees,elapsedRealtimeNanos,VerticalAccuracyMeters
# 
# Nav,Svid,Type,Status,MessageId,Sub-messageId,Data(Bytes)
# 
# Status,UnixTimeMillis,SignalCount,SignalIndex,ConstellationType,Svid,CarrierFrequencyHz,Cn0DbHz,AzimuthDegrees,ElevationDegrees,UsedInFix,HasAlmanacData,HasEphemerisData,BasebandCn0DbHz
# 
UncalGyro,1676595241697,122745328798595,-0.9250027,0.039095376,-0.8174904,0.00034522836,-0.00074654684,-0.0032805959
UncalGyro,1676595241706,122745337761790,-0.915687,-0.0842994,-0.72616607,0.00034522836,-0.00074654684,-0.0032805959
UncalMag,1676595241701,122745332153820,-65.5872,13.2858,-108.9704,-45.491467,0.31409264,-60.09035
UncalMag,1676595241711,122745342165539,-64.2208,13.42,-108.336,-45.491467,0.31409264,-60.09035
UncalAccel,1676595241703,122745333276012,-0.73100734,1.1874382,9.227323,0.006110925,-0.043260336,-0.038735468
UncalAccel,1676595241712,122745342255626,-0.8644072,0.7429714,9.548559,0.006110925,-0.043260336,-0.038735468
UncalGyro,1676595241716,122745346745555,-0.871552,-0.25350907,-0.61483586,0.00034522836,-0.00074654684,-0.0032805959
Fix,FLP,37.4311596000,-122.1551044000,-16.100000381469727,1.0267062,5.95,65.23577,1676595240720,,,122744350031200,4.446615
OrientationDeg,1676595241703,122745333276012,38.0,2.0,-10.0
UncalMag,1676595241721,122745352153576,-65.4286,13.590799,-107.5918,-45.491467,0.31409264,-60.09035
UncalAccel,1676595241720,122745351237559,-0.7710871,0.41156548,10.419546,0.006110925,-0.043260336,-0.038735468
OrientationDeg,1676595241720,122745351237559,38.0,2.0,-9.0
UncalGyro,1676595241725,122745355732616,-0.78893244,-0.30589077,-0.5045747,0.00034522836,-0.00074654684,-0.0032805959
UncalAccel,1676595241729,122745360214793,-0.6053841,0.253041,11.39163,0.006110925,-0.043260336,-0.038735468
OrientationDeg,1676595241729,122745360214793,38.0,2.0,-9.0
UncalMag,1676595241732,122745362153820,-64.4404,14.0543995,-107.4454,-45.491467,0.31409264,-60.09035
UncalGyro,1676595241733,122745364708324,-0.678824,-0.1693624,-0.40317106,0.00034522836,-0.00074654684,-0.0032805959
UncalAccel,1676595241738,122745369195140,-0.40618163,0.38584265,11.7361965,0.006110925,-0.043260336,-0.038735468
OrientationDeg,1676595241738,122745369195140,39.0,2.0,-8.0
UncalMag,1676595241742,122745372154552,-64.8674,14.505799,-107.762596,-45.491467,0.31409264,-60.09035
UncalGyro,1676595241742,122745373685192,-0.5493206,0.028252518,-0.32604933,0.00034522836,-0.00074654684,-0.0032805959
UncalAccel,1676595241748,122745378172069,-0.3361916,0.6879365,11.62852,0.006110925,-0.043260336,-0.038735468
OrientationDeg,1676595241747,122745378172069,39.0,2.0,-8.0
UncalMag,1676595241752,122745382160167,-66.3314,13.5176,-107.3722,-45.491467,0.31409264,-60.09035
UncalGyro,1676595241752,122745382659862,-0.4063781,0.21563543,-0.28115073,0.00034522836,-0.00074654684,-0.0032805959
OrientationDeg,1676595241757,122745387155040,39.0,2.0,-8.0
UncalAccel,1676595241756,122745387155040,-0.33439696,0.84107715,11.462817,0.006110925,-0.043260336,-0.038735468
UncalGyro,1676595241760,122745391650706,-0.25961772,0.37384954,-0.26267207,0.00034522836,-0.00074654684,-0.0032805959
UncalMag,1676595241761,122745392153576,-64.367195,15.066999,-106.2498,-45.491467,0.31409264,-60.09035
UncalAccel,1676595241765,122745396136790,-0.3906283,0.86979103,11.243276,0.006110925,-0.043260336,-0.038735468
OrientationDeg,1676595241766,122745396136790,39.0,2.0,-8.0
UncalGyro,1676595241770,122745400623607,-0.10827587,0.4689918,-0.26083946,0.00034522836,-0.00074654684,-0.0032805959
UncalMag,1676595241772,122745402154308,-64.196396,15.1524,-106.6524,-45.491467,0.31409264,-60.09035
UncalAccel,1676595241775,122745405113475,-0.20757736,0.7920243,10.752747,0.006110925,-0.043260336,-0.038735468
OrientationDeg,1676595241775,122745405113475,39.0,2.0,-8.0
UncalGyro,1676595241778,122745409611095,0.042760566,0.44608435,-0.29764408,0.00034522836,-0.00074654684,-0.0032805959
UncalMag,1676595241781,122745412154308,-63.2936,14.8962,-106.371796,-45.491467,0.31409264,-60.09035
UncalAccel,1676595241784,122745414092785,-0.32303107,1.238884,10.678569,0.006110925,-0.043260336,-0.038735468
OrientationDeg,1676595241784,122745414092785,39.0,3.0,-8.0
UncalGyro,1676595241787,122745418584301,0.18234327,0.41263947,-0.35964692,0.00034522836,-0.00074654684,-0.0032805959
UncalMag,1676595241791,122745422155040,-63.501,15.066999,-106.7866,-45.491467,0.31409264,-60.09035
UncalAccel,1676595241792,122745423078625,-0.7812566,1.2221341,10.781461,0.006110925,-0.043260336,-0.038735468
OrientationDeg,1676595241793,122745423078625,39.0,3.0,-8.0
UncalGyro,1676595241796,122745427570445,0.3463606,0.37782016,-0.30925053,0.00034522836,-0.00074654684,-0.0032805959
UncalAccel,1676595241802,122745432055187,-1.3489537,0.5736792,10.918449,0.006110925,-0.043260336,-0.038735468
UncalMag,1676595241802,122745432154308,-64.8674,14.3228,-108.153,-45.491467,0.31409264,-60.09035
OrientationDeg,1676595241801,122745432055187,40.0,3.0,-8.0
UncalGyro,1676595241806,122745436540111,0.45570546,0.37415496,-0.08552113,0.00034522836,-0.00074654684,-0.0032805959
UncalAccel,1676595241810,122745441031505,-1.7700906,-0.21475583,10.964512,0.006110925,-0.043260336,-0.038735468
UncalMag,1676595241812,122745442153820,-63.257,14.3594,-106.7866,-45.491467,0.31409264,-60.09035
OrientationDeg,1676595241810,122745441031505,40.0,3.0,-8.0
UncalGyro,1676595241815,122745445524425,0.5326745,0.41523564,0.23548855,0.00034522836,-0.00074654684,-0.0032805959
UncalAccel,1676595241820,122745450010447,-1.6564314,0.46061835,11.24507,0.006110925,-0.043260336,-0.038735468
OrientationDeg,1676595241820,122745450010447,39.0,3.0,-9.0
UncalMag,1676595241822,122745452154308,-66.2094,12.3342,-113.887,-45.491467,0.31409264,-60.09035
UncalGyro,1676595241823,122745454504710,0.64843345,0.5170974,0.505491,0.00034522836,-0.00074654684,-0.0032805959
UncalAccel,1676595241828,122745458988475,-1.3555341,1.3268201,11.446067,0.006110925,-0.043260336,-0.038735468
OrientationDeg,1676595241828,122745458988475,39.0,4.0,-9.0
UncalMag,1676595241831,122745462155285,-64.599,12.261,-113.2526,-45.491467,0.31409264,-60.09035
UncalGyro,1676595241833,122745463480968,0.8002335,0.65087694,0.66920286,0.00034522836,-0.00074654684,-0.0032805959
UncalAccel,1676595241836,122745467968944,-1.0773684,1.8807586,10.940583,0.006110925,-0.043260336,-0.038735468
OrientationDeg,1676595241836,122745467968944,39.0,4.0,-10.0
UncalMag,1676595241841,122745472157238,-63.0618,13.603,-109.165596,-45.491467,0.31409264,-60.09035
UncalGyro,1676595241841,122745472459117,0.9718866,0.7141015,0.72387534,0.00034522836,-0.00074654684,-0.0032805959
UncalAccel,1676595241846,122745476950206,-0.8380861,2.196013,10.299905,0.006110925,-0.043260336,-0.038735468
OrientationDeg,1676595241845,122745476950206,38.0,4.0,-10.0
UncalGyro,1676595241850,122745481444347,1.1501065,0.6461427,0.6789767,0.00034522836,-0.00074654684,-0.0032805959
UncalMag,1676595241852,122745482153576,-64.3794,12.053599,-108.396996,-45.491467,0.31409264,-60.09035
UncalAccel,1676595241854,122745485930308,-0.5509474,2.510071,9.64487,0.006110925,-0.043260336,-0.038735468
OrientationDeg,1676595241855,122745485930308,38.0,5.0,-11.0
UncalGyro,1676595241860,122745490422130,1.3313808,0.42546764,0.572228,0.00034522836,-0.00074654684,-0.0032805959
UncalMag,1676595241861,122745492154796,-62.378597,12.151199,-109.641396,-45.491467,0.31409264,-60.09035
UncalAccel,1676595241864,122745494906505,-0.48275197,2.644069,9.5557375,0.006110925,-0.043260336,-0.038735468
OrientationDeg,1676595241863,122745494906505,38.0,5.0,-12.0
UncalGyro,1676595241868,122745499402537,1.5192219,0.18997909,0.44593164,0.00034522836,-0.00074654684,-0.0032805959
UncalMag,1676595241872,122745502154552,-60.511997,12.4196,-107.933395,-45.491467,0.31409264,-60.09035
UncalAccel,1676595241872,122745503892161,-0.42652065,2.9455647,9.242876,0.006110925,-0.043260336,-0.038735468
OrientationDeg,1676595241872,122745503892161,38.0,5.0,-12.0
UncalGyro,1676595241878,122745508379649,1.5589281,-0.15454891,0.27488935,0.00034522836,-0.00074654684,-0.0032805959
UncalMag,1676595241881,122745512154064,-61.975998,11.4558,-109.494995,-45.491467,0.31409264,-60.09035
UncalAccel,1676595241881,122745512869457,-0.2105684,3.609573,6.049654,0.006110925,-0.043260336,-0.038735468
UncalGyro,1676595241886,122745517358166,1.1264355,-0.9306532,-0.01160644,0.00034522836,-0.00074654684,-0.0032805959
OrientationDeg,1676595241882,122745512869457,38.0,4.0,-13.0
UncalAccel,1676595241890,122745521850719,0.11485548,3.69392,5.9563336,0.006110925,-0.043260336,-0.038735468
OrientationDeg,1676595241890,122745521850719,38.0,4.0,-14.0
UncalMag,1676595241892,122745522149425,-63.8182,11.1751995,-108.8118,-45.491467,0.31409264,-60.09035
UncalGyro,1676595241895,122745526341259,0.6614143,-1.5619824,-0.3126103,0.00034522836,-0.00074654684,-0.0032805959
UncalAccel,1676595241899,122745530829356,1.238884,2.5513473,7.346564,0.006110925,-0.043260336,-0.038735468
OrientationDeg,1676595241900,122745530829356,38.0,3.0,-14.0
UncalMag,1676595241901,122745532154064,-63.147198,10.7726,-108.555595,-45.491467,0.31409264,-60.09035
UncalGyro,1676595241905,122745535315867,0.4812091,-1.9495764,-0.601855,0.00034522836,-0.00074654684,-0.0032805959
UncalAccel,1676595241908,122745539805125,1.4877375,2.2869403,8.652447,0.006110925,-0.043260336,-0.038735468
OrientationDeg,1676595241908,122745539805125,39.0,2.0,-14.0
UncalMag,1676595241912,122745542158214,-65.636,9.991799,-109.434,-45.491467,0.31409264,-60.09035
UncalGyro,1676595241913,122745544299938,0.48762318,-2.1325307,-0.81489426,0.00034522836,-0.00074654684,-0.0032805959
UncalAccel,1676595241917,122745548799571,1.5565311,2.589034,9.588638,0.006110925,-0.043260336,-0.038735468
OrientationDeg,1676595241917,122745548799571,39.0,1.0,-14.0
UncalMag,1676595241921,122745552165539,-65.0992,10.309,-107.1038,-45.491467,0.31409264,-60.09035
UncalGyro,1676595241922,122745553289012,0.5305365,-2.211332,-1.0021244,0.00034522836,-0.00074654684,-0.0032805959
UncalAccel,1676595241926,122745557777477,1.8197416,2.841477,9.84826,0.006110925,-0.043260336,-0.038735468
OrientationDeg,1676595241926,122745557777477,40.0,0.0,-15.0
UncalMag,1676595241932,122745562165050,-66.538795,9.4672,-107.3844,-45.491467,0.31409264,-60.09035
UncalGyro,1676595241931,122745562262889,0.54550266,-2.237294,-1.2063061,0.00034522836,-0.00074654684,-0.0032805959
UncalAccel,1676595241936,122745566744335,2.067997,2.681756,10.5015,0.006110925,-0.043260336,-0.038735468
OrientationDeg,1676595241935,122745566744335,40.0,0.0,-15.0
UncalGyro,1676595241940,122745571250988,0.5899431,-2.1128302,-1.4362969,0.00034522836,-0.00074654684,-0.0032805959
UncalMag,1676595241942,122745572165294,-67.588,8.6742,-108.1164,-45.491467,0.31409264,-60.09035
UncalAccel,1676595241944,122745575734142,2.2468605,2.4849463,11.573485,0.006110925,-0.043260336,-0.038735468
OrientationDeg,1676595241944,122745575734142,41.0,-1.0,-15.0
UncalGyro,1676595241949,122745580228405,0.6780604,-1.7417295,-1.7044667,0.00034522836,-0.00074654684,-0.0032805959
UncalMag,1676595241951,122745582165294,-69.2838,7.625,-111.02,-45.491467,0.31409264,-60.09035
UncalAccel,1676595241954,122745584713756,2.352743,2.3838496,12.183655,0.006110925,-0.043260336,-0.038735468
OrientationDeg,1676595241953,122745584713756,42.0,-2.0,-16.0
UncalGyro,1676595241958,122745589204601,0.7707592,-1.1815661,-1.9984456,0.00034522836,-0.00074654684,-0.0032805959
UncalMag,1676595241962,122745592165783,-69.954796,7.1004,-110.8492,-45.491467,0.31409264,-60.09035
UncalAccel,1676595241962,122745593693431,2.2929223,2.2731814,11.52503,0.006110925,-0.043260336,-0.038735468
OrientationDeg,1676595241963,122745593693431,43.0,-2.0,-16.0
UncalGyro,1676595241967,122745598185009,0.8338311,-0.65668017,-2.277611,0.00034522836,-0.00074654684,-0.0032805959
UncalMag,1676595241972,122745602165539,-69.784,6.3561997,-110.422195,-45.491467,0.31409264,-60.09035
UncalAccel,1676595241971,122745602672863,2.1481566,2.2061825,9.889536,0.006110925,-0.043260336,-0.038735468
OrientationDeg,1676595241972,122745602672863,45.0,-2.0,-17.0
UncalGyro,1676595241976,122745607163646,0.84711736,-0.38698313,-2.4917192,0.00034522836,-0.00074654684,-0.0032805959
UncalAccel,1676595241981,122745611649120,2.0422742,2.297708,8.316854,0.006110925,-0.043260336,-0.038735468
UncalMag,1676595241981,122745612153576,-71.0162,5.6608,-110.6906,-45.491467,0.31409264,-60.09035
OrientationDeg,1676595241980,122745611649120,46.0,-1.0,-17.0
UncalGyro,1676595241985,122745616131542,0.8020661,-0.42088616,-2.6030495,0.00034522836,-0.00074654684,-0.0032805959
UncalAccel,1676595241990,122745620632579,1.5409778,2.4155545,7.7240314,0.006110925,-0.043260336,-0.038735468
UncalMag,1676595241992,122745622165050,-70.1988,4.5383997,-112.605995,-45.491467,0.31409264,-60.09035
OrientationDeg,1676595241989,122745620632579,47.0,-1.0,-18.0
UncalGyro,1676595241994,122745625122509,0.73532903,-0.65484756,-2.6247354,0.00034522836,-0.00074654684,-0.0032805959
UncalAccel,1676595241998,122745629614024,-0.32243285,2.541776,7.797013,0.006110925,-0.043260336,-0.038735468
OrientationDeg,1676595241998,122745629614024,49.0,-1.0,-18.0
UncalMag,1676595242001,122745632165294,-71.004,4.0138,-112.0448,-45.491467,0.31409264,-60.09035
UncalGyro,1676595242004,122745634098949,0.6600399,-0.7846564,-2.3506095,0.00034522836,-0.00074654684,-0.0032805959
UncalAccel,1676595242008,122745638579174,-10.259227,3.263212,8.365906,0.006110925,-0.043260336,-0.038735468
OrientationDeg,1676595242007,122745638579174,50.0,-1.0,-18.0
UncalMag,1676595242011,122745642165294,-72.9926,2.6352,-113.215996,-45.491467,0.31409264,-60.09035
UncalGyro,1676595242012,122745643081920,0.52274793,-0.6082691,-1.1522446,0.00034522836,-0.00074654684,-0.0032805959
UncalAccel,1676595242017,122745647570629,-12.441482,3.016751,7.7162547,0.006110925,-0.043260336,-0.038735468
OrientationDeg,1676595242017,122745647570629,50.0,-1.0,-18.0
UncalGyro,1676595242022,122745652064463,0.3107777,-0.6067419,0.15195273,0.00034522836,-0.00074654684,-0.0032805959
UncalMag,1676595242021,122745652154308,-72.6632,2.1959999,-111.190796,-45.491467,0.31409264,-60.09035
UncalAccel,1676595242025,122745656552196,-4.031308,0.5688936,6.7405815,0.006110925,-0.043260336,-0.038735468
OrientationDeg,1676595242025,122745656552196,50.0,-2.0,-19.0
UncalGyro,1676595242031,122745661046398,0.036651913,-0.7341073,0.70722926,0.00034522836,-0.00074654684,-0.0032805959
UncalMag,1676595242032,122745662165294,-74.932396,2.0252,-113.7772,-45.491467,0.31409264,-60.09035
UncalAccel,1676595242034,122745665529796,0.7286145,-0.33738798,6.8051877,0.006110925,-0.043260336,-0.038735468
OrientationDeg,1676595242034,122745665529796,49.0,-2.0,-18.0
UncalGyro,1676595242040,122745670021068,-0.22113322,-0.7325801,0.8498663,0.00034522836,-0.00074654684,-0.0032805959
UncalMag,1676595242041,122745672165294,-75.335,2.4766,-113.765,-45.491467,0.31409264,-60.09035
UncalAccel,1676595242044,122745674504588,1.5732809,0.104087785,8.279166,0.006110925,-0.043260336,-0.038735468
OrientationDeg,1676595242043,122745674504588,49.0,-3.0,-18.0
UncalGyro,1676595242048,122745678984081,-0.40943244,-0.5520695,0.93431836,0.00034522836,-0.00074654684,-0.0032805959
UncalMag,1676595242052,122745682165539,-74.0662,2.928,-112.142395,-45.491467,0.31409264,-60.09035
UncalAccel,1676595242053,122745683474376,1.1359925,0.55812585,9.652048,0.006110925,-0.043260336,-0.038735468
OrientationDeg,1676595242052,122745683474376,48.0,-3.0,-18.0
UncalGyro,1676595242056,122745687979503,-0.49220467,-0.3556763,1.116509,0.00034522836,-0.00074654684,-0.0032805959
UncalMag,1676595242061,122745692165539,-75.457,3.2696,-111.812996,-45.491467,0.31409264,-60.09035
UncalAccel,1676595242062,122745692469127,1.1162517,1.6139588,11.397015,0.006110925,-0.043260336,-0.038735468
OrientationDeg,1676595242062,122745692469127,48.0,-3.0,-18.0
UncalGyro,1676595242066,122745696950512,-0.4897612,-0.04138612,1.3037392,0.00034522836,-0.00074654684,-0.0032805959
UncalAccel,1676595242070,122745701444652,1.4883357,2.4999015,13.614563,0.006110925,-0.043260336,-0.038735468
UncalMag,1676595242071,122745702153820,-75.420395,3.4038,-112.0448,-45.491467,0.31409264,-60.09035
OrientationDeg,1676595242070,122745701444652,47.0,-4.0,-17.0
UncalGyro,1676595242074,122745705926525,-0.41065416,0.45066583,1.404532,0.00034522836,-0.00074654684,-0.0032805959
UncalAccel,1676595242080,122745710429942,1.9944177,2.82712,12.999009,0.006110925,-0.043260336,-0.038735468
OrientationDeg,1676595242080,122745710429942,46.0,-3.0,-17.0
UncalMag,1676595242081,122745712161388,-77.0064,3.2696,-113.8138,-45.491467,0.31409264,-60.09035
UncalGyro,1676595242084,122745714917797,-0.26832256,0.7276932,1.382999,0.00034522836,-0.00074654684,-0.0032805959
UncalAccel,1676595242088,122745719409617,2.5704896,2.9192436,11.372488,0.006110925,-0.043260336,-0.038735468
UncalMag,1676595242091,122745722165294,-73.9564,4.9653997,-113.3258,-45.491467,0.31409264,-60.09035
OrientationDeg,1676595242088,122745719409617,45.0,-3.0,-17.0
Status,0,34,0,3,15,1602000000,42.32,294.0,81.0,1,1,1,38.115265
Status,0,34,1,1,11,1176450050,36.45,101.0,77.0,1,1,1,32.34986
Status,0,34,2,1,11,1575420030,42.81,101.0,77.0,1,1,1,38.60612
Status,0,34,3,6,2,1575420030,39.67,119.0,73.0,1,1,1,35.46942
Status,0,34,4,6,2,1176450050,34.87,119.0,73.0,1,1,1,30.766315
Status,0,34,5,1,12,1575420030,45.95,330.0,70.0,1,1,1,41.75434
Status,0,34,6,3,17,1604249980,41.66,337.0,70.0,1,1,1,37.458233
Status,0,34,7,6,34,1176450050,38.92,210.0,63.0,1,1,1,34.82201
Status,0,34,8,6,34,1575420030,39.93,210.0,63.0,1,1,1,35.73019
Status,0,34,9,6,36,1575420030,38.83,47.0,59.0,1,1,1,34.633762
Status,0,34,10,6,36,1176450050,32.38,47.0,59.0,1,1,1,28.282953
Status,0,34,11,6,30,1575420030,46.78,316.0,49.0,1,1,1,42.58135
Status,0,34,12,6,30,1176450050,38.27,316.0,49.0,1,1,1,34.166386
Status,0,34,13,1,6,1176450050,35.97,45.0,40.0,1,1,1,31.869173
Status,0,34,14,3,18,1600312450,44.00,245.0,40.0,1,1,1,39.79753
Status,0,34,15,3,14,1598062460,37.28,156.0,40.0,1,1,1,33.076347
Status,0,34,16,1,6,1575420030,40.56,45.0,40.0,1,1,1,36.3556
Status,0,34,17,1,25,1176450050,41.14,313.0,39.0,1,1,1,37.04143
Status,0,34,18,1,25,1575420030,43.97,313.0,39.0,1,1,1,39.76678
Status,0,34,19,1,24,1575420030,31.82,215.0,34.0,1,1,1,27.622286
Status,0,34,20,1,24,1176450050,39.30,215.0,34.0,1,1,1,35.204517
Status,0,34,21,1,20,1575420030,36.78,138.0,30.0,1,1,1,32.582066
Status,0,34,22,3,16,1601437440,44.88,328.0,27.0,1,1,1,40.680416
Status,0,34,23,3,24,1603124990,42.97,36.0,26.0,1,1,1,38.767624
Status,0,34,24,6,25,1575420030,38.91,129.0,22.0,1,1,1,34.71147
Status,0,34,25,6,25,1176450050,35.52,129.0,22.0,1,1,1,31.424635
Status,0,34,26,1,19,1575420030,39.89,64.0,21.0,1,1,1,35.690807
Status,0,34,27,1,29,1575420030,48.54,268.0,18.0,1,1,1,44.343357
Status,0,34,28,1,2,1575420030,38.13,219.0,16.0,1,1,1,33.930527
Status,0,34,29,6,15,1176450050,33.78,218.0,12.0,1,1,1,29.680641
Status,0,34,30,6,15,1575420030,34.57,218.0,12.0,1,1,1,30.374186
Status,0,34,31,6,11,1176450050,28.88,41.0,11.0,1,1,1,24.779516
Status,0,34,32,6,11,1575420030,31.36,41.0,11.0,1,1,1,27.15763
Status,0,34,33,1,5,1575420030,32.98,164.0,10.0,1,1,1,28.779844
UncalGyro,1676595242092,122745723897533,-0.10262536,0.7675522,1.2492194,0.00034522836,-0.00074654684,-0.0032805959
Fix,GPS,37.4311430995,-122.1551508099,-12.194727907494402,0.14027108,3.2899795,78.22272,1676595240999,0.11988589,180.0,122745613838000,3.0
Raw,1676595240999,204136000000,,,-1360630254863894244,0.0,7.301162576654663,295.0,1.0,23,2,0.0,16431,435258919857097,34,31.39162826538086,-532.6861987828518,0.7294459813934693,16,-109515.07256139195,340282346638528860000000000000000000000,1575420030,,,,1,,1,,27.19162940979004,0.0,1.0,0.0,1.0,C,122745613838000
Raw,1676595240999,204136000000,,,-1360630254863894244,0.0,7.301162576654663,295.0,1.0,23,5,0.0,16419,435258917257390,48,27.26293182373047,-567.039576752562,0.9146411301205029,16,-18137.43882163891,340282346638528860000000000000000000000,1575420030,,,,0,,1,,23.06293296813965,-0.2619344840127561,1.0,-0.2619344840127561,1.0,C,122745613838000
Raw,1676595240999,204136000000,,,-1360630254863894244,0.0,7.301162576654663,295.0,1.0,23,6,0.0,16431,435258926833279,31,32.47654342651367,594.9218891145688,0.6783159061486557,16,119980.97540536216,340282346638528860000000000000000000000,1575420030,,,,0,,1,,28.27654457092285,0.320142130558394,1.0,0.320142130558394,1.0,C,122745613838000
Raw,1676595240999,204136000000,,,-1360630254863894244,0.0,7.301162576654663,295.0,1.0,23,11,0.0,16431,435258931952537,17,39.739593505859375,100.82613113142997,0.15,16,18118.152352031964,340282346638528860000000000000000000000,1575420030,,,,0,,1,,35.53959274291992,-0.20372681261465636,1.0,-0.20372681261465636,1.0,C,122745613838000
Raw,1676595240999,204136000000,,,-1360630254863894244,0.0,7.301162576654663,295.0,1.0,23,12,0.0,16431,435258931852140,13,45.2805290222168,-125.56944924768595,0.15,16,-27276.543823850312,340282346638528860000000000000000000000,1575420030,,,,0,,1,,41.080528259277344,-0.6984919076624261,1.0,-0.6984919076624261,1.0,C,122745613838000
Raw,1676595240999,204136000000,,,-1360630254863894244,0.0,7.301162576654663,295.0,1.0,23,19,0.0,16431,435258922382482,27,34.1419677734375,604.6558386974834,0.6026231636531549,16,123020.9818521845,340282346638528860000000000000000000000,1575420030,,,,0,,1,,29.941967010498047,0.0,1.0,0.0,1.0,C,122745613838000
Raw,1676595240999,204136000000,,,-1360630254863894244,0.0,7.301162576654663,295.0,1.0,23,20,0.0,16431,435258924056489,38,29.940547943115234,-419.6575598250165,0.791857416314631,16,-86651.90642153179,340282346638528860000000000000000000000,1575420030,,,,0,,1,,25.74054718017578,0.0,1.0,0.0,1.0,C,122745613838000
Raw,1676595240999,204136000000,,,-1360630254863894244,0.0,7.301162576654663,295.0,1.0,23,24,0.0,16431,435258924108531,53,26.006324768066406,637.1236047600692,0.9687842409699883,16,127804.65709220445,340282346638528860000000000000000000000,1575420030,,,,1,,1,,21.806324005126953,-0.20372681261465636,1.0,-0.20372681261465636,1.0,C,122745613838000
Raw,1676595240999,204136000000,,,-1360630254863894244,0.0,7.301162576654663,295.0,1.0,23,25,0.0,16431,435258927602694,19,38.73384094238281,-412.3659249940699,0.15,16,-85128.94651495722,340282346638528860000000000000000000000,1575420030,,,,0,,1,,34.53384017944336,-2.0372682255564105,1.0,-2.0372682255564105,1.0,C,122745613838000
Raw,1676595240999,204136000000,,,-1360630254863894244,0.0,7.301162576654663,295.0,1.0,23,29,0.0,16431,435258919473529,10,48.13736343383789,-393.68921597396115,0.15,16,-80616.31020225385,340282346638528860000000000000000000000,1575420030,,,,0,,1,,43.93736267089844,-0.6984919076624261,1.0,-0.6984919076624261,1.0,C,122745613838000
Raw,1676595240999,204136000000,,,-1360630254863894244,0.0,7.301162576654663,295.0,1.0,23,6,0.0,81921,435258926833816,11,33.24836349487305,595.2017060826211,0.6391112291873351,16,121757.32692315313,340282346638528860000000000000000000000,1176450050,,,,0,,1,,29.14836311340332,1.9208527336454408,1.7500716511825862,1.9208527336454408,1.0,Q,122745613838000
Raw,1676595240999,204136000000,,,-1360630254863894244,0.0,7.301162576654663,295.0,1.0,23,11,0.0,81921,435258931953058,34,28.8745059967041,100.75474542624295,0.8367195147895465,16,18319.81701200746,340282346638528860000000000000000000000,1176450050,,,,0,,1,,24.774505615234375,0.0,1.7500716511825862,0.0,1.0,Q,122745613838000
Raw,1676595240999,204136000000,,,-1360630254863894244,0.0,7.301162576654663,295.0,1.0,23,24,0.0,81921,435258924109057,11,39.30451583862305,638.3672735985865,0.15,16,128357.36070452488,340282346638528860000000000000000000000,1176450050,,,,0,,1,,35.20451736450195,3.5215636101095664,1.7500716511825862,3.5215636101095664,1.0,Q,122745613838000
Raw,1676595240999,204136000000,,,-1360630254863894244,0.0,7.301162576654663,295.0,1.0,23,25,0.0,81921,435258927603263,11,36.902252197265625,-412.3174597408945,0.15,16,-86449.11619355637,340282346638528860000000000000000000000,1176450050,,,,0,,1,,32.80225372314453,1.0186341127782053,1.7500716511825862,1.0186341127782053,1.0,Q,122745613838000
Raw,1676595240999,204136000000,,,-1360630254863894244,0.0,7.301162576654663,295.0,1.0,23,14,0.0,32867,14040930057480,63,32.40956497192383,723.8389854068382,0.6819078109758321,16,146233.49169525283,340282346638528860000000000000000000000,1598062460,,,,0,,3,,28.209564208984375,50.29141902923584,2.0000000474974513,50.29141902923584,2.0000000474974513,C,122745613838000
Raw,1676595240999,204136000000,,,-1360630254863894244,0.0,7.301162576654663,295.0,1.0,23,18,0.0,32995,14040930193876,33,42.27489471435547,-346.56371008197993,0.15,16,-72759.5233527018,340282346638528860000000000000000000000,1600312450,,,,0,,3,,38.074893951416016,50.29141902923584,2.0000000474974513,50.29141902923584,2.0000000474974513,C,122745613838000
Raw,1676595240999,204136000000,,,-1360630254863894244,0.0,7.301162576654663,295.0,1.0,23,16,0.0,32995,14040926440207,36,39.27036666870117,-617.0579674717428,0.15,16,-126321.01068170574,340282346638528860000000000000000000000,1601437440,,,,0,,3,,35.07036590576172,50.29141902923584,2.0000000474974513,50.29141902923584,2.0000000474974513,C,122745613838000
Raw,1676595240999,204136000000,,,-1360630254863894244,0.0,7.301162576654663,295.0,1.0,23,15,0.0,32995,14040935926141,33,42.01370620727539,14.119635355045702,0.15,16,-266.19953363229683,340282346638528860000000000000000000000,1602000000,,,,0,,3,,37.81370544433594,50.29141902923584,2.0000000474974513,50.29141902923584,2.0000000474974513,C,122745613838000
Raw,1676595240999,204136000000,,,-1360630254863894244,0.0,7.301162576654663,295.0,1.0,23,24,0.0,32995,14040926199059,33,42.96762466430664,739.3995354270664,0.15,16,150140.26625048384,340282346638528860000000000000000000000,1603124990,,,,0,,3,,38.76762390136719,50.29141902923584,2.0000000474974513,50.29141902923584,2.0000000474974513,C,122745613838000
Raw,1676595240999,204136000000,,,-1360630254863894244,0.0,7.301162576654663,295.0,1.0,23,17,0.0,32995,14040935601759,33,41.658233642578125,249.85932378890777,0.15,16,48789.77987239002,340282346638528860000000000000000000000,1604249980,,,,0,,3,,37.45823287963867,50.29141902923584,2.0000000474974513,50.29141902923584,2.0000000474974513,C,122745613838000
Raw,1676595240999,204136000000,,,-1360630254863894244,0.0,7.301162576654663,295.0,1.0,23,2,0.0,85026,435258921675464,17,39.49922180175781,219.38821027679785,0.15,16,43471.989541273164,340282346638528860000000000000000000000,1575420030,,,,0,,6,,35.29922103881836,-6.024492904543876,1.5000000237487257,-6.024492904543876,1.5000000237487257,C,122745613838000
Raw,1676595240999,204136000000,,,-1360630254863894244,0.0,7.301162576654663,295.0,1.0,23,11,0.0,85026,435258908181542,62,24.00452423095703,626.2236943395092,1.058816178537993,16,126002.29650319842,340282346638528860000000000000000000000,1575420030,,,,0,,6,,19.804523468017578,-6.024492904543876,1.5000000237487257,-6.024492904543876,1.5000000237487257,C,122745613838000
Raw,1676595240999,204136000000,,,-1360630254863894244,0.0,7.301162576654663,295.0,1.0,23,15,0.0,85026,435258907984136,28,33.93170166015625,-459.2514222272175,0.612366685613507,16,-93481.4923470972,340282346638528860000000000000000000000,1575420030,,,,0,,6,,29.731700897216797,-6.024492904543876,1.5000000237487257,-6.024492904543876,1.5000000237487257,C,122745613838000
Raw,1676595240999,204136000000,,,-1360630254863894244,0.0,7.301162576654663,295.0,1.0,23,25,0.0,85026,435258910615243,22,36.67802810668945,552.284088437859,0.15,16,111179.60281865376,340282346638528860000000000000000000000,1575420030,,,,0,,6,,32.47802734375,-6.024492904543876,1.5000000237487257,-6.024492904543876,1.5000000237487257,C,122745613838000
Raw,1676595240999,204136000000,,,-1360630254863894244,0.0,7.301162576654663,295.0,1.0,23,30,0.0,85026,435258917029469,13,45.949031829833984,-255.06185740606043,0.15,16,-52410.613647746686,340282346638528860000000000000000000000,1575420030,,,,0,,6,,41.74903106689453,-6.024492904543876,1.5000000237487257,-6.024492904543876,1.5000000237487257,C,122745613838000
Raw,1676595240999,204136000000,,,-1360630254863894244,0.0,7.301162576654663,295.0,1.0,23,34,0.0,85026,435258920598808,21,37.4765739440918,-175.1968119431806,0.15,16,-37455.066084489794,340282346638528860000000000000000000000,1575420030,,,,0,,6,,33.276573181152344,-6.024492904543876,1.5000000237487257,-6.024492904543876,1.5000000237487257,C,122745613838000
Raw,1676595240999,204136000000,,,-1360630254863894244,0.0,7.301162576654663,295.0,1.0,23,36,0.0,85026,435258919962256,28,33.88960266113281,352.89599192672244,0.6142557989605009,16,70162.64358815651,340282346638528860000000000000000000000,1575420030,,,,0,,6,,29.689603805541992,-6.024492904543876,1.5000000237487257,-6.024492904543876,1.5000000237487257,C,122745613838000
Raw,1676595240999,204136000000,,,-1360630254863894244,0.0,7.301162576654663,295.0,1.0,23,2,0.0,84003,435258921676012,10,34.86631393432617,219.36484675285146,0.5690234531746872,16,43483.547380564254,340282346638528860000000000000000000000,1176450050,,,,0,,6,,30.766315460205078,-4.362151958048344,2.250071674931312,-4.362151958048344,1.5000000237487257,Q,122745613838000
Raw,1676595240999,204136000000,,,-1360630254863894244,0.0,7.301162576654663,295.0,1.0,23,11,0.0,84003,435258908182132,52,25.9351863861084,625.9401283012394,0.9682190180435524,16,126068.39710076497,340282346638528860000000000000000000000,1176450050,,,,0,,6,,21.835186004638672,4.134257324039933,2.250071674931312,4.134257324039933,1.5000000237487257,Q,122745613838000
Raw,1676595240999,204136000000,,,-1360630254863894244,0.0,7.301162576654663,295.0,1.0,23,15,0.0,84003,435258907984630,8,33.7806396484375,-459.175963668476,0.6153823839100947,16,-93047.54529499603,340282346638528860000000000000000000000,1176450050,,,,0,,6,,29.680641174316406,-11.196220293641087,2.250071674931312,-11.196220293641087,1.5000000237487257,Q,122745613838000
Raw,1676595240999,204136000000,,,-1360630254863894244,0.0,7.301162576654663,295.0,1.0,23,25,0.0,84003,435258910615750,19,31.985992431640625,552.3165349364688,0.6965589404062773,16,110635.67382474424,340282346638528860000000000000000000000,1176450050,,,,0,,6,,27.8859920501709,-8.795061148703097,2.250071674931312,-8.795061148703097,1.5000000237487257,Q,122745613838000
Raw,1676595240999,204136000000,,,-1360630254863894244,0.0,7.301162576654663,295.0,1.0,23,30,0.0,84003,435258917030002,10,32.2804069519043,-254.89648932701175,0.6844732480694504,16,-52052.22834685551,340282346638528860000000000000000000000,1176450050,,,,0,,6,,28.18040657043457,-8.425652049481869,2.250071674931312,-8.425652049481869,1.5000000237487257,Q,122745613838000
Raw,1676595240999,204136000000,,,-1360630254863894244,0.0,7.301162576654663,295.0,1.0,23,34,0.0,84003,435258920599372,10,38.22282409667969,-175.2346093874644,0.15,16,-37579.56531616881,340282346638528860000000000000000000000,1176450050,,,,0,,6,,34.122825622558594,-10.0879929959774,2.250071674931312,-10.0879929959774,1.5000000237487257,Q,122745613838000
Raw,1676595240999,204136000000,,,-1360630254863894244,0.0,7.301162576654663,295.0,1.0,23,36,0.0,84003,435258919962784,71,24.137231826782227,352.8034239748065,1.0511901623237163,16,70857.1431522049,340282346638528860000000000000000000000,1176450050,,,,0,,6,,20.0372314453125,-11.011515744030472,2.250071674931312,-11.011515744030472,1.5000000237487257,Q,122745613838000
UncalAccel,1676595242098,122745728387279,3.1088748,3.068795,10.665409,0.006110925,-0.043260336,-0.038735468
OrientationDeg,1676595242098,122745728387279,45.0,-3.0,-17.0
Fix,FLP,37.4311595000,-122.1551058000,-16.100000381469727,0.5636415,5.555,70.996994,1676595241797,,,122745427570445,3.0151312
UncalMag,1676595242102,122745732165294,-76.5306,4.331,-113.2892,-45.491467,0.31409264,-60.09035
UncalGyro,1676595242102,122745732876903,0.04932737,0.6933321,1.0317514,0.00034522836,-0.00074654684,-0.0032805959
UncalAccel,1676595242107,122745737365856,3.2566316,3.0580273,9.669994,0.006110925,-0.043260336,-0.038735468
OrientationDeg,1676595242107,122745737365856,44.0,-3.0,-17.0
UncalGyro,1676595242111,122745741857494,0.18555032,0.52274793,0.7823657,0.00034522836,-0.00074654684,-0.0032805959
UncalMag,1676595242112,122745742153331,-76.3598,4.6482,-113.9724,-45.491467,0.31409264,-60.09035
UncalAccel,1676595242116,122745746345470,3.004787,2.838486,9.205189,0.006110925,-0.043260336,-0.038735468
OrientationDeg,1676595242116,122745746345470,44.0,-3.0,-17.0
UncalGyro,1676595242120,122745750836010,0.30863968,0.3643811,0.5497787,0.00034522836,-0.00074654684,-0.0032805959
UncalMag,1676595242122,122745752165294,-76.652596,4.4164,-115.1802,-45.491467,0.31409264,-60.09035
UncalAccel,1676595242124,122745755324413,2.3694925,2.5980072,9.134601,0.006110925,-0.043260336,-0.038735468
OrientationDeg,1676595242125,122745755324413,44.0,-3.0,-17.0
UncalGyro,1676595242128,122745759815624,0.40622538,0.25885415,0.35369098,0.00034522836,-0.00074654684,-0.0032805959
UncalMag,1676595242132,122745762165294,-71.2236,5.8803997,-109.812195,-45.491467,0.31409264,-60.09035
UncalAccel,1676595242134,122745764305126,1.6043876,2.4538395,9.373284,0.006110925,-0.043260336,-0.038735468
OrientationDeg,1676595242133,122745764305126,43.0,-3.0,-17.0
UncalGyro,1676595242137,122745768794689,0.4700608,0.27259862,0.1873829,0.00034522836,-0.00074654684,-0.0032805959
UncalMag,1676595242142,122745772165294,-68.3566,6.3806,-109.312,-45.491467,0.31409264,-60.09035
UncalAccel,1676595242142,122745773283702,0.9816555,2.3521447,9.789636,0.006110925,-0.043260336,-0.038735468
OrientationDeg,1676595242143,122745773283702,43.0,-3.0,-18.0
UncalGyro,1676595242146,122745777775523,0.5103779,0.39461896,0.03191771,0.00034522836,-0.00074654684,-0.0032805959
UncalMag,1676595242152,122745782165539,-70.5648,5.612,-110.9956,-45.491467,0.31409264,-60.09035
UncalAccel,1676595242151,122745782265636,0.7070791,2.0805593,10.0061865,0.006110925,-0.043260336,-0.038735468
OrientationDeg,1676595242152,122745782265636,43.0,-2.0,-18.0
UncalGyro,1676595242155,122745786741954,0.5558874,0.5207626,-0.117438845,0.00034522836,-0.00074654684,-0.0032805959
UncalAccel,1676595242161,122745791242687,0.92542416,1.9453648,10.010972,0.006110925,-0.043260336,-0.038735468
UncalMag,1676595242161,122745792153820,-68.8446,6.0634,-110.6662,-45.491467,0.31409264,-60.09035
OrientationDeg,1676595242160,122745791242687,44.0,-2.0,-18.0
UncalGyro,1676595242165,122745795732311,0.6273586,0.60246587,-0.2582433,0.00034522836,-0.00074654684,-0.0032805959
UncalAccel,1676595242170,122745800227550,1.1988041,1.9770697,9.645468,0.006110925,-0.043260336,-0.038735468
OrientationDeg,1676595242170,122745800227550,44.0,-2.0,-19.0
UncalMag,1676595242172,122745802155529,-72.224,4.5018,-112.459595,-45.491467,0.31409264,-60.09035
UncalGyro,1676595242174,122745804718578,0.7470882,0.6226244,-0.376293,0.00034522836,-0.00074654684,-0.0032805959
UncalAccel,1676595242179,122745809202220,1.1395818,1.8526429,8.967701,0.006110925,-0.043260336,-0.038735468
OrientationDeg,1676595242179,122745809202220,44.0,-1.0,-19.0
UncalMag,1676595242181,122745812155285,-71.674995,4.026,-110.8126,-45.491467,0.31409264,-60.09035
UncalGyro,1676595242182,122745813693370,0.90484416,0.56214875,-0.4250095,0.00034522836,-0.00074654684,-0.0032805959
UncalAccel,1676595242188,122745818179759,0.9379865,1.8340986,8.23789,0.006110925,-0.043260336,-0.038735468
OrientationDeg,1676595242188,122745818179759,44.0,-1.0,-19.0
UncalMag,1676595242191,122745822165539,-70.259796,4.1846,-111.032196,-45.491467,0.31409264,-60.09035
UncalGyro,1676595242192,122745822669017,1.0626001,0.45952338,-0.41233405,0.00034522836,-0.00074654684,-0.0032805959
UncalAccel,1676595242197,122745827149180,0.9290134,2.274976,7.825128,0.006110925,-0.043260336,-0.038735468
OrientationDeg,1676595242197,122745827149180,44.0,-1.0,-20.0
UncalGyro,1676595242200,122745831651927,1.1808025,0.3753767,-0.39354995,0.00034522836,-0.00074654684,-0.0032805959
UncalMag,1676595242201,122745832153820,-69.3814,4.209,-113.4112,-45.491467,0.31409264,-60.09035
UncalAccel,1676595242206,122745836141491,0.62931234,2.521437,7.076773,0.006110925,-0.043260336,-0.038735468
OrientationDeg,1676595242206,122745836141491,45.0,0.0,-21.0
UncalGyro,1676595242210,122745840634166,1.2328788,0.2585487,-0.37064248,0.00034522836,-0.00074654684,-0.0032805959
UncalMag,1676595242212,122745842165294,-69.039795,3.1109998,-113.6186,-45.491467,0.31409264,-60.09035
UncalAccel,1676595242214,122745845116954,0.19561325,2.7822545,6.5569324,0.006110925,-0.043260336,-0.038735468
OrientationDeg,1676595242215,122745845116954,45.0,0.0,-21.0
UncalGyro,1676595242219,122745849599620,1.2008084,0.17440203,-0.35185838,0.00034522836,-0.00074654684,-0.0032805959
UncalMag,1676595242222,122745852165294,-67.3806,3.4038,-111.215195,-45.491467,0.31409264,-60.09035
UncalAccel,1676595242223,122745854099315,-0.11066805,3.2542388,6.5772715,0.006110925,-0.043260336,-0.038735468
OrientationDeg,1676595242223,122745854099315,45.0,0.0,-22.0
UncalGyro,1676595242228,122745858590099,1.079857,0.14889841,-0.35811976,0.00034522836,-0.00074654684,-0.0032805959
UncalMag,1676595242231,122745862165294,-67.9784,2.5498,-112.471794,-45.491467,0.31409264,-60.09035
UncalAccel,1676595242233,122745863081309,-0.14297116,3.675974,5.992824,0.006110925,-0.043260336,-0.038735468
OrientationDeg,1676595242232,122745863081309,45.0,0.0,-22.0
UncalGyro,1676595242236,122745867569835,0.89995724,0.08582657,-0.40225476,0.00034522836,-0.00074654684,-0.0032805959
UncalAccel,1676595242241,122745872059398,-0.064008005,3.94397,5.8803616,0.006110925,-0.043260336,-0.038735468
UncalMag,1676595242241,122745872153576,-67.527,1.5372,-110.5198,-45.491467,0.31409264,-60.09035
OrientationDeg,1676595242242,122745872059398,45.0,0.0,-23.0
UncalGyro,1676595242246,122745876549388,0.66920286,0.10797043,-0.4810564,0.00034522836,-0.00074654684,-0.0032805959
UncalAccel,1676595242250,122745881038158,0.13040884,4.082155,6.2919273,0.006110925,-0.043260336,-0.038735468
UncalMag,1676595242252,122745882153820,-67.527,1.5372,-110.5198,-45.491467,0.31409264,-60.09035
OrientationDeg,1676595242250,122745881038158,46.0,0.0,-23.0
UncalGyro,1676595242255,122745885529552,0.40882155,0.28878653,-0.5856671,0.00034522836,-0.00074654684,-0.0032805959
UncalAccel,1676595242259,122745890013378,0.25184458,4.086343,6.821339,0.006110925,-0.043260336,-0.038735468
OrientationDeg,1676595242260,122745890013378,46.0,0.0,-23.0
UncalMag,1676595242262,122745892165539,-71.052795,0.0976,-113.1306,-45.491467,0.31409264,-60.09035
UncalGyro,1676595242263,122745894492443,0.13057245,0.60063326,-0.68569624,0.00034522836,-0.00074654684,-0.0032805959
UncalAccel,1676595242267,122745898996532,0.21296121,3.8183467,7.463214,0.006110925,-0.043260336,-0.038735468
OrientationDeg,1676595242267,122745898996532,46.0,0.0,-23.0
UncalMag,1676595242271,122745902153331,-70.2354,0.6344,-113.582,-45.491467,0.31409264,-60.09035
UncalGyro,1676595242272,122745903484935,-0.16752979,0.95004815,-0.7255552,0.00034522836,-0.00074654684,-0.0032805959
UncalAccel,1676595242276,122745907969737,0.16331014,3.2189445,6.926025,0.006110925,-0.043260336,-0.038735468
OrientationDeg,1676595242276,122745907969737,47.0,1.0,-23.0
UncalMag,1676595242281,122745912150890,-68.7958,0.366,-113.5942,-45.491467,0.31409264,-60.09035
UncalGyro,1676595242282,122745912464183,-0.3747658,1.0713049,-0.6626361,0.00034522836,-0.00074654684,-0.0032805959
UncalAccel,1676595242285,122745916944408,0.32662028,2.7912276,7.010372,0.006110925,-0.043260336,-0.038735468
OrientationDeg,1676595242285,122745916944408,47.0,2.0,-23.0
UncalGyro,1676595242290,122745921449412,-0.5007568,1.0606148,-0.54046303,0.00034522836,-0.00074654684,-0.0032805959
UncalMag,1676595242291,122745922153820,-68.198,0.8052,-114.631195,-45.491467,0.31409264,-60.09035
UncalAccel,1676595242295,122745925935375,0.59581286,2.5836504,7.1820574,0.006110925,-0.043260336,-0.038735468
OrientationDeg,1676595242294,122745925935375,47.0,2.0,-23.0
UncalGyro,1676595242299,122745930429149,-0.56077427,0.9596693,-0.4111123,0.00034522836,-0.00074654684,-0.0032805959
UncalMag,1676595242302,122745932165294,-64.0134,2.0252,-111.7886,-45.491467,0.31409264,-60.09035
UncalAccel,1676595242304,122745934914806,0.9236295,2.4861426,7.3022966,0.006110925,-0.043260336,-0.038735468
OrientationDeg,1676595242304,122745934914806,48.0,3.0,-22.0
UncalGyro,1676595242309,122745939406078,-0.54519725,0.80741113,-0.33643404,0.00034522836,-0.00074654684,-0.0032805959
UncalMag,1676595242311,122745942165294,-66.429,2.0983999,-114.0334,-45.491467,0.31409264,-60.09035
UncalAccel,1676595242312,122745943895519,1.4877375,2.175674,7.488937,0.006110925,-0.043260336,-0.038735468
OrientationDeg,1676595242313,122745943895519,48.0,3.0,-22.0
UncalGyro,1676595242317,122745948385326,-0.48258355,0.62888575,-0.3315471,0.00034522836,-0.00074654684,-0.0032805959
UncalMag,1676595242321,122745952165294,-65.3554,1.7689999,-110.776,-45.491467,0.31409264,-60.09035
UncalAccel,1676595242321,122745952874340,2.0745773,1.5822539,7.3980093,0.006110925,-0.043260336,-0.038735468
OrientationDeg,1676595242321,122745952874340,48.0,3.0,-22.0
UncalGyro,1676595242326,122745957365734,-0.41874814,0.3817908,-0.33765575,0.00034522836,-0.00074654684,-0.0032805959
UncalAccel,1676595242330,122745961853527,2.3144577,1.2119647,7.5212398,0.006110925,-0.043260336,-0.038735468
UncalMag,1676595242332,122745962148449,-64.782,2.3179998,-111.507996,-45.491467,0.31409264,-60.09035
OrientationDeg,1676595242331,122745961853527,48.0,4.0,-21.0
UncalGyro,1676595242335,122745966344249,-0.35338554,0.11407909,-0.30757064,0.00034522836,-0.00074654684,-0.0032805959
UncalAccel,1676595242340,122745970832652,2.349752,0.99601245,7.7347994,0.006110925,-0.043260336,-0.038735468
OrientationDeg,1676595242340,122745970832652,48.0,4.0,-21.0
UncalMag,1676595242342,122745972165294,-66.843796,1.7324,-113.1916,-45.491467,0.31409264,-60.09035
UncalGyro,1676595242344,122745975323802,-0.2958115,-0.13744467,-0.22342396,0.00034522836,-0.00074654684,-0.0032805959
UncalAccel,1676595242348,122745979813793,2.4598217,0.6263213,8.057232,0.006110925,-0.043260336,-0.038735468
OrientationDeg,1676595242349,122745979813793,48.0,3.0,-21.0
UncalMag,1676595242351,122745982165539,-67.307396,1.9642,-112.8256,-45.491467,0.31409264,-60.09035
UncalGyro,1676595242353,122745984303478,-0.26389378,-0.36942077,-0.063988134,0.00034522836,-0.00074654684,-0.0032805959
UncalAccel,1676595242357,122745988792064,2.5986054,-0.24227329,8.577671,0.006110925,-0.043260336,-0.038735468
OrientationDeg,1676595242357,122745988792064,48.0,3.0,-21.0
UncalMag,1676595242361,122745992165539,-65.1724,3.233,-112.789,-45.491467,0.31409264,-60.09035
UncalGyro,1676595242362,122745993282420,-0.3061962,-0.54534996,0.18692477,0.00034522836,-0.00074654684,-0.0032805959
UncalAccel,1676595242366,122745997771434,2.7583263,-0.9768698,8.912666,0.006110925,-0.043260336,-0.038735468
OrientationDeg,1676595242367,122745997771434,48.0,3.0,-21.0
UncalMag,1676595242371,122746002165539,-64.2208,3.4404,-113.1306,-45.491467,0.31409264,-60.09035
UncalGyro,1676595242371,122746002259410,-0.46883908,-0.7104363,0.4792238,0.00034522836,-0.00074654684,-0.0032805959
UncalAccel,1676595242376,122746006739757,2.8277183,-0.78065836,8.699705,0.006110925,-0.043260336,-0.038735468
OrientationDeg,1676595242376,122746006739757,47.0,2.0,-20.0
UncalGyro,1676595242380,122746011242442,-0.7666359,-0.9416488,0.698219,0.00034522836,-0.00074654684,-0.0032805959
UncalMag,1676595242382,122746012165294,-67.5148,2.6718,-111.9472,-45.491467,0.31409264,-60.09035
UncalAccel,1676595242384,122746015733471,2.7068806,0.12622139,8.403593,0.006110925,-0.043260336,-0.038735468
OrientationDeg,1676595242385,122746015733471,47.0,1.0,-20.0
UncalGyro,1676595242390,122746020224315,-1.16492,-1.2399037,0.7501425,0.00034522836,-0.00074654684,-0.0032805959
UncalMag,1676595242391,122746022170910,-67.6612,2.806,-112.776794,-45.491467,0.31409264,-60.09035
UncalAccel,1676595242394,122746024710582,2.6344976,0.9182457,8.827123,0.006110925,-0.043260336,-0.038735468
OrientationDeg,1676595242393,122746024710582,47.0,0.0,-19.0
UncalGyro,1676595242398,122746029201427,-1.6073391,-1.403921,0.6383542,0.00034522836,-0.00074654684,-0.0032805959
UncalMag,1676595242401,122746032165294,-68.7348,3.7331998,-113.3624,-45.491467,0.31409264,-60.09035
UncalAccel,1676595242403,122746033689403,2.329413,1.1790633,10.223334,0.006110925,-0.043260336,-0.038735468
OrientationDeg,1676595242402,122746033689403,46.0,0.0,-18.0
UncalGyro,1676595242407,122746038180187,-2.0227275,-1.2229522,0.45249844,0.00034522836,-0.00074654684,-0.0032805959
UncalMag,1676595242411,122746042165294,-68.2224,5.185,-113.4478,-45.491467,0.31409264,-60.09035
UncalAccel,1676595242412,122746042668895,1.6420746,0.93978107,12.020345,0.006110925,-0.043260336,-0.038735468
OrientationDeg,1676595242411,122746042668895,46.0,0.0,-17.0
UncalGyro,1676595242417,122746047160289,-2.340683,-0.6656904,0.28771752,0.00034522836,-0.00074654684,-0.0032805959
UncalAccel,1676595242420,122746051649974,1.0073783,0.57487565,13.435699,0.006110925,-0.043260336,-0.038735468
UncalMag,1676595242421,122746052154552,-68.137,6.5758,-113.4112,-45.491467,0.31409264,-60.09035
OrientationDeg,1676595242421,122746051649974,46.0,0.0,-16.0
UncalGyro,1676595242425,122746056136424,-2.526844,0.13881913,0.15515977,0.00034522836,-0.00074654684,-0.0032805959
UncalAccel,1676595242430,122746060616283,0.5844469,0.37627137,13.890335,0.006110925,-0.043260336,-0.038735468
OrientationDeg,1676595242430,122746060616283,46.0,0.0,-14.0
UncalMag,1676595242432,122746062165294,-70.1622,7.015,-111.4226,-45.491467,0.31409264,-60.09035
UncalGyro,1676595242435,122746065118786,-2.584418,0.8706357,0.03436117,0.00034522836,-0.00074654684,-0.0032805959
OrientationDeg,1676595242439,122746069607494,46.0,0.0,-13.0
UncalAccel,1676595242438,122746069607494,0.60000026,0.044865426,13.159328,0.006110925,-0.043260336,-0.038735468
UncalMag,1676595242441,122746072165539,-67.4416,8.5156,-111.068794,-45.491467,0.31409264,-60.09035
UncalGyro,1676595242443,122746074101634,-2.5077546,1.193478,-0.051159963,0.00034522836,-0.00074654684,-0.0032805959
UncalAccel,1676595242447,122746078586131,1.0001999,-0.6580262,12.056835,0.006110925,-0.043260336,-0.038735468
OrientationDeg,1676595242448,122746078586131,46.0,0.0,-12.0
UncalMag,1676595242452,122746082165539,-67.3562,9.601399,-110.5442,-45.491467,0.31409264,-60.09035
UncalGyro,1676595242452,122746083074352,-2.2730296,1.0520626,-0.075289145,0.00034522836,-0.00074654684,-0.0032805959
UncalAccel,1676595242457,122746087567821,1.0935199,-1.3878372,11.347961,0.006110925,-0.043260336,-0.038735468
OrientationDeg,1676595242456,122746087567821,46.0,1.0,-11.0
UncalGyro,1676595242461,122746092057445,-1.9187278,0.6284276,-0.07269296,0.00034522836,-0.00074654684,-0.0032805959
UncalMag,1676595242461,122746092153576,-64.0622,11.2727995,-109.5438,-45.491467,0.31409264,-60.09035
UncalAccel,1676595242466,122746096547679,0.9828519,-1.7802601,11.01177,0.006110925,-0.043260336,-0.038735468
OrientationDeg,1676595242465,122746096547679,46.0,1.0,-10.0
UncalGyro,1676595242471,122746101033702,-1.4924965,0.16126843,-0.08536842,0.00034522836,-0.00074654684,-0.0032805959
UncalMag,1676595242472,122746102165294,-65.636,10.9922,-109.982994,-45.491467,0.31409264,-60.09035
UncalAccel,1676595242474,122746105509288,0.253041,-2.0105693,11.655439,0.006110925,-0.043260336,-0.038735468
OrientationDeg,1676595242475,122746105509288,46.0,1.0,-9.0
UncalGyro,1676595242480,122746110016308,-1.0277808,-0.18784106,-0.055588737,0.00034522836,-0.00074654684,-0.0032805959
UncalMag,1676595242481,122746112159435,-66.2094,11.5046,-110.6784,-45.491467,0.31409264,-60.09035
UncalAccel,1676595242484,122746114502330,0.060418773,-2.076372,11.9306135,0.006110925,-0.043260336,-0.038735468
OrientationDeg,1676595242483,122746114502330,46.0,1.0,-9.0
UncalGyro,1676595242488,122746118990245,-0.5888741,-0.4906775,0.032528576,0.00034522836,-0.00074654684,-0.0032805959
UncalMag,1676595242491,122746122159435,-66.1972,12.0414,-109.2754,-45.491467,0.31409264,-60.09035
UncalAccel,1676595242492,122746123484508,0.05682954,-1.9950159,11.868999,0.006110925,-0.043260336,-0.038735468
OrientationDeg,1676595242493,122746123484508,46.0,0.0,-8.0
UncalGyro,1676595242497,122746127970043,-0.23747386,-0.7819075,0.15485434,0.00034522836,-0.00074654684,-0.0032805959
OrientationDeg,1676595242501,122746132464062,46.0,0.0,-8.0
UncalMag,1676595242501,122746132165294,-67.527,11.9438,-111.1054,-45.491467,0.31409264,-60.09035
UncalAccel,1676595242501,122746132464062,0.14297116,-1.8753748,11.956337,0.006110925,-0.043260336,-0.038735468
UncalGyro,1676595242505,122746136943371,0.012675454,-0.958753,0.2930626,0.00034522836,-0.00074654684,-0.0032805959
UncalAccel,1676595242511,122746141445201,0.22791636,-1.5260227,11.686545,0.006110925,-0.043260336,-0.038735468
UncalMag,1676595242511,122746142153820,-68.7592,11.0044,-111.4226,-45.491467,0.31409264,-60.09035
OrientationDeg,1676595242510,122746141445201,46.0,0.0,-8.0
UncalGyro,1676595242515,122746145934337,0.14523321,-1.0454959,0.41309762,0.00034522836,-0.00074654684,-0.0032805959
UncalAccel,1676595242519,122746150426463,0.6257231,-1.0971092,10.975878,0.006110925,-0.043260336,-0.038735468
UncalMag,1676595242521,122746152153820,-67.893,12.3342,-109.556,-45.491467,0.31409264,-60.09035
OrientationDeg,1676595242520,122746150426463,45.0,0.0,-8.0
UncalGyro,1676595242523,122746154915294,0.16325374,-1.1093313,0.4980079,0.00034522836,-0.00074654684,-0.0032805959
UncalAccel,1676595242528,122746159403820,1.1736795,-0.8129615,10.5080805,0.006110925,-0.043260336,-0.038735468
OrientationDeg,1676595242528,122746159403820,45.0,-1.0,-8.0
UncalMag,1676595242532,122746162165294,-68.5274,11.8462,-110.897995,-45.491467,0.31409264,-60.09035
UncalGyro,1676595242533,122746163893322,0.08552113,-1.1368202,0.5381723,0.00034522836,-0.00074654684,-0.0032805959
UncalAccel,1676595242538,122746168382396,1.4961123,-0.613759,10.191031,0.006110925,-0.043260336,-0.038735468
OrientationDeg,1676595242537,122746168382396,45.0,-1.0,-8.0
UncalMag,1676595242542,122746172165294,-66.8926,12.993,-108.579994,-45.491467,0.31409264,-60.09035
UncalGyro,1676595242542,122746172874034,-0.05421429,-1.1597277,0.5542075,0.00034522836,-0.00074654684,-0.0032805959
UncalAccel,1676595242547,122746177361888,1.5942181,-0.38404804,10.0163555,0.006110925,-0.043260336,-0.038735468
OrientationDeg,1676595242547,122746177361888,45.0,-2.0,-8.0
UncalGyro,1676595242550,122746181852550,-0.19043724,-1.2269229,0.55970526,0.00034522836,-0.00074654684,-0.0032805959
UncalMag,1676595242551,122746182153576,-67.893,12.566,-107.762596,-45.491467,0.31409264,-60.09035
UncalAccel,1676595242556,122746186341014,1.9746768,-0.17527425,10.548161,0.006110925,-0.043260336,-0.038735468
OrientationDeg,1676595242555,122746186341014,44.0,-3.0,-8.0
UncalGyro,1676595242560,122746190832347,-0.25503623,-1.2551754,0.54825157,0.00034522836,-0.00074654684,-0.0032805959
UncalMag,1676595242562,122746192165294,-68.7714,12.382999,-107.8358,-45.491467,0.31409264,-60.09035
UncalAccel,1676595242564,122746195322094,2.2175484,-0.21475583,11.473584,0.006110925,-0.043260336,-0.038735468
OrientationDeg,1676595242564,122746195322094,44.0,-4.0,-8.0
UncalGyro,1676595242569,122746199811779,-0.25702155,-1.1717923,0.5196936,0.00034522836,-0.00074654684,-0.0032805959
UncalMag,1676595242572,122746202165539,-68.6494,13.493199,-108.4824,-45.491467,0.31409264,-60.09035
UncalAccel,1676595242574,122746204300365,2.461018,-0.25962126,11.345569,0.006110925,-0.043260336,-0.038735468
OrientationDeg,1676595242573,122746204300365,44.0,-4.0,-8.0
UncalGyro,1676595242577,122746208791026,-0.26450464,-1.0972667,0.46120325,0.00034522836,-0.00074654684,-0.0032805959
UncalMag,1676595242581,122746212162121,-70.15,13.2492,-109.5682,-45.491467,0.31409264,-60.09035
OrientationDeg,1676595242582,122746213280101,44.0,-5.0,-8.0
UncalAccel,1676595242583,122746213280101,2.43709,-0.23569304,10.37827,0.006110925,-0.043260336,-0.038735468
UncalGyro,1676595242587,122746217771007,-0.34513888,-1.0425943,0.39767328,0.00034522836,-0.00074654684,-0.0032805959
UncalMag,1676595242592,122746222153820,-69.2594,13.6152,-108.6654,-45.491467,0.31409264,-60.09035
UncalAccel,1676595242591,122746222256297,2.5028925,0.060418773,9.145967,0.006110925,-0.043260336,-0.038735468
OrientationDeg,1676595242592,122746222256297,43.0,-5.0,-7.0
UncalGyro,1676595242595,122746226738536,-0.54168475,-1.029308,0.28298333,0.00034522836,-0.00074654684,-0.0032805959
UncalAccel,1676595242601,122746231239940,3.1896327,0.401396,7.6307116,0.006110925,-0.043260336,-0.038735468
UncalMag,1676595242602,122746232153331,-73.1024,12.3952,-109.031395,-45.491467,0.31409264,-60.09035
OrientationDeg,1676595242600,122746231239940,43.0,-6.0,-7.0
UncalGyro,1676595242604,122746235729869,-0.8226828,-1.1183416,0.10186178,0.00034522836,-0.00074654684,-0.0032805959
UncalAccel,1676595242610,122746240221996,3.077768,0.4642076,7.2729845,0.006110925,-0.043260336,-0.038735468
OrientationDeg,1676595242610,122746240221996,43.0,-7.0,-6.0
UncalMag,1676595242611,122746242165294,-71.858,13.6518,-109.1168,-45.491467,0.31409264,-60.09035
UncalGyro,1676595242614,122746244709911,-1.1297953,-1.2476922,-0.06872234,0.00034522836,-0.00074654684,-0.0032805959
UncalAccel,1676595242619,122746249197765,3.391228,0.56769717,7.665407,0.006110925,-0.043260336,-0.038735468
OrientationDeg,1676595242619,122746249197765,44.0,-7.0,-6.0
UncalMag,1676595242622,122746252165294,-72.468,13.2126,-108.409195,-45.491467,0.31409264,-60.09035
UncalGyro,1676595242623,122746253688671,-1.3843733,-1.408808,-0.21319197,0.00034522836,-0.00074654684,-0.0032805959
UncalAccel,1676595242628,122746258177318,3.8117664,0.21595225,8.823533,0.006110925,-0.043260336,-0.038735468
OrientationDeg,1676595242628,122746258177318,44.0,-8.0,-5.0
UncalMag,1676595242632,122746262165294,-72.5168,14.3594,-107.5918,-45.491467,0.31409264,-60.09035
UncalGyro,1676595242632,122746262668773,-1.5212072,-1.5395331,-0.33551773,0.00034522836,-0.00074654684,-0.0032805959
UncalAccel,1676595242636,122746267154979,3.6987057,-0.11365908,10.884951,0.006110925,-0.043260336,-0.038735468
OrientationDeg,1676595242636,122746267154979,44.0,-9.0,-4.0
UncalGyro,1676595242640,122746271635753,-1.5027285,-1.4741706,-0.43508878,0.00034522836,-0.00074654684,-0.0032805959
UncalMag,1676595242641,122746272153820,-72.6754,14.5302,-101.406395,-45.491467,0.31409264,-60.09035
UncalAccel,1676595242645,122746276136364,3.6143587,-0.32362926,12.21835,0.006110925,-0.043260336,-0.038735468
OrientationDeg,1676595242646,122746276136364,44.0,-9.0,-4.0
UncalGyro,1676595242650,122746280626781,-1.3671165,-1.2878567,-0.4914411,0.00034522836,-0.00074654684,-0.0032805959
UncalMag,1676595242652,122746282165294,-73.0414,15.127999,-101.5162,-45.491467,0.31409264,-60.09035
UncalAccel,1676595242655,122746285119274,3.178865,-0.7716853,11.8899355,0.006110925,-0.043260336,-0.038735468
OrientationDeg,1676595242655,122746285119274,45.0,-10.0,-3.0
UncalGyro,1676595242659,122746289606273,-1.2176071,-1.174083,-0.46792278,0.00034522836,-0.00074654684,-0.0032805959
UncalMag,1676595242661,122746292165539,-75.6156,14.9206,-101.3576,-45.491467,0.31409264,-60.09035
UncalAccel,1676595242663,122746294092907,2.4741786,-0.55752766,10.152746,0.006110925,-0.043260336,-0.038735468
OrientationDeg,1676595242663,122746294092907,45.0,-11.0,-2.0
UncalGyro,1676595242668,122746298586681,-1.1360567,-1.2573134,-0.38973203,0.00034522836,-0.00074654684,-0.0032805959
UncalMag,1676595242671,122746302165539,-75.395996,15.25,-101.0526,-45.491467,0.31409264,-60.09035
UncalAccel,1676595242673,122746303076183,2.4466612,-0.3182454,8.381459,0.006110925,-0.043260336,-0.038735468
OrientationDeg,1676595242673,122746303076183,45.0,-11.0,-2.0
UncalGyro,1676595242677,122746307566600,-1.114371,-1.5599971,-0.28191432,0.00034522836,-0.00074654684,-0.0032805959
UncalAccel,1676595242682,122746312054332,2.5860431,-0.47258246,7.8759756,0.006110925,-0.043260336,-0.038735468
UncalMag,1676595242682,122746312163341,-76.969795,16.128399,-99.5886,-45.491467,0.31409264,-60.09035
OrientationDeg,1676595242681,122746312054332,46.0,-12.0,-1.0
UncalGyro,1676595242685,122746316544750,-1.1149818,-1.9620992,-0.14676037,0.00034522836,-0.00074654684,-0.0032805959
UncalAccel,1676595242690,122746321034435,3.071188,-0.27876383,8.44128,0.006110925,-0.043260336,-0.038735468
OrientationDeg,1676595242690,122746321034435,46.0,-13.0,-1.0
UncalMag,1676595242692,122746322153576,-76.969795,16.128399,-99.5886,-45.491467,0.31409264,-60.09035
UncalGyro,1676595242694,122746325524974,-1.106277,-2.3087652,-0.026725354,0.00034522836,-0.00074654684,-0.0032805959
UncalAccel,1676595242700,122746330013744,3.7878382,0.2883351,9.8727865,0.006110925,-0.043260336,-0.038735468
OrientationDeg,1676595242700,122746330013744,46.0,-15.0,0.0
UncalMag,1676595242701,122746332165294,-76.006,17.0312,-99.551994,-45.491467,0.31409264,-60.09035
UncalGyro,1676595242704,122746334501414,-1.0665708,-2.489734,0.03481932,0.00034522836,-0.00074654684,-0.0032805959
UncalAccel,1676595242707,122746338982433,4.833502,0.22971097,11.344971,0.006110925,-0.043260336,-0.038735468
OrientationDeg,1676595242707,122746338982433,46.0,-16.0,0.0
UncalMag,1676595242711,122746342165294,-77.738396,17.104399,-99.1372,-45.491467,0.31409264,-60.09035
UncalGyro,1676595242712,122746343483898,-1.0471758,-2.4775167,0.06811147,0.00034522836,-0.00074654684,-0.0032805959
UncalAccel,1676595242717,122746347972728,5.452645,0.09212367,12.271591,0.006110925,-0.043260336,-0.038735468
OrientationDeg,1676595242717,122746347972728,46.0,-17.0,0.0
UncalMag,1676595242721,122746352165294,-81.252,17.1166,-98.0758,-45.491467,0.31409264,-60.09035
UncalGyro,1676595242721,122746352463207,-1.0537425,-2.352442,0.08384126,0.00034522836,-0.00074654684,-0.0032805959
UncalAccel,1676595242725,122746356940746,5.864808,0.5312066,12.494721,0.006110925,-0.043260336,-0.038735468
OrientationDeg,1676595242725,122746356940746,46.0,-18.0,0.0
UncalGyro,1676595242730,122746361443126,-1.0746647,-2.1696405,0.07162395,0.00034522836,-0.00074654684,-0.0032805959
UncalMag,1676595242732,122746362153576,-80.9958,17.567999,-95.952995,-45.491467,0.31409264,-60.09035
UncalAccel,1676595242734,122746365931713,5.8893347,0.5401797,12.399607,0.006110925,-0.043260336,-0.038735468
OrientationDeg,1676595242734,122746365931713,46.0,-20.0,1.0
UncalGyro,1676595242739,122746370425731,-1.1392636,-1.9483547,0.06780604,0.00034522836,-0.00074654684,-0.0032805959
UncalMag,1676595242742,122746372165294,-80.154,18.5318,-95.526,-45.491467,0.31409264,-60.09035
