# 
# Header Description:
# 
# Version: v3.0.5.6 Platform: 13 Manufacturer: Google Model: Pixel 6
# 
# Raw,utcTimeMillis,TimeNanos,LeapSecond,TimeUncertaintyNanos,FullBiasNanos,BiasNanos,BiasUncertaintyNanos,DriftNanosPerSecond,DriftUncertaintyNanosPerSecond,HardwareClockDiscontinuityCount,Svid,TimeOffsetNanos,State,ReceivedSvTimeNanos,ReceivedSvTimeUncertaintyNanos,Cn0DbHz,PseudorangeRateMetersPerSecond,PseudorangeRateUncertaintyMetersPerSecond,AccumulatedDeltaRangeState,AccumulatedDeltaRangeMeters,AccumulatedDeltaRangeUncertaintyMeters,CarrierFrequencyHz,CarrierCycles,CarrierPhase,CarrierPhaseUncertainty,MultipathIndicator,SnrInDb,ConstellationType,AgcDb,BasebandCn0DbHz,FullInterSignalBiasNanos,FullInterSignalBiasUncertaintyNanos,SatelliteInterSignalBiasNanos,SatelliteInterSignalBiasUncertaintyNanos,CodeType,ChipsetElapsedRealtimeNanos
# 
# UncalAccel,utcTimeMillis,elapsedRealtimeNanos,UncalAccelXMps2,UncalAccelYMps2,UncalAccelZMps2,BiasXMps2,BiasYMps2,BiasZMps2
# 
# Accel,utcTimeMillis,elapsedRealtimeNanos,AccelXMps2,AccelYMps2,AccelZMps2
# 
# UncalGyro,utcTimeMillis,elapsedRealtimeNanos,UncalGyroXRadPerSec,UncalGyroYRadPerSec,UncalGyroZRadPerSec,DriftXRadPerSec,DriftYRadPerSec,DriftZRadPerSec
# 
# Gyro,utcTimeMillis,elapsedRealtimeNanos,GyroXRadPerSec,GyroYRadPerSec,GyroZRadPerSec
# 
# UncalMag,utcTimeMillis,elapsedRealtimeNanos,UncalMagXMicroT,UncalMagYMicroT,UncalMagZMicroT,BiasXMicroT,BiasYMicroT,BiasZMicroT
# 
# Mag,utcTimeMillis,elapsedRealtimeNanos,MagXMicroT,MagYMicroT,MagZMicroT
# 
# OrientationDeg,utcTimeMillis,elapsedRealtimeNanos,yawDeg,rollDeg,pitchDeg
# 
# Fix,Provider,LatitudeDegrees,LongitudeDegrees,AltitudeMeters,SpeedMps,AccuracyMeters,BearingDegrees,UnixTimeMillis,SpeedAccuracyMps,BearingAccuracyDegrees,elapsedRealtimeNanos,VerticalAccuracyMeters
# 
# Nav,Svid,Type,Status,MessageId,Sub-messageId,Data(Bytes)
# 
# Status,UnixTimeMillis,SignalCount,SignalIndex,ConstellationType,Svid,CarrierFrequencyHz,Cn0DbHz,AzimuthDegrees,ElevationDegrees,UsedInFix,HasAlmanacData,HasEphemerisData,BasebandCn0DbHz
# 
UncalAccel,1676594688922,122192552520518,0.9774681,-1.1862419,12.825529,0.006110925,-0.043260336,-0.038735468
UncalMag,1676594688924,122192555856212,-69.7352,12.627,-98.0758,-45.491467,0.31409264,-60.09035
UncalGyro,1676594688930,122192561489757,0.98563105,0.18997909,-0.47342056,0.00034801557,-0.0007832452,-0.0032856367
UncalAccel,1676594688930,122192561489757,0.77647096,-1.2903296,12.885948,0.006110925,-0.043260336,-0.038735468
OrientationDeg,1676594688930,122192561489757,59.0,-4.0,-1.0
UncalMag,1676594688934,122192565856945,-72.529,11.2727995,-103.2364,-45.491467,0.31409264,-60.09035
UncalGyro,1676594688939,122192570465648,1.1100949,0.42623124,-0.35705075,0.00034801557,-0.0007832452,-0.0032856367
UncalAccel,1676594688940,122192570465648,0.70588267,-1.146162,12.867404,0.006110925,-0.043260336,-0.038735468
OrientationDeg,1676594688939,122192570465648,59.0,-4.0,-1.0
UncalMag,1676594688944,122192575855724,-70.8576,10.7726,-101.626,-45.491467,0.31409264,-60.09035
Fix,FLP,37.4311368000,-122.1551667000,-16.5,0.42302892,4.009,176.59258,1676594688374,,,122192004781199,2.310982
UncalGyro,1676594688949,122192579444164,1.2544118,0.655153,-0.2443461,0.00034801557,-0.0007832452,-0.0032856367
UncalAccel,1676594688949,122192579444164,0.72741807,-0.92602235,12.754343,0.006110925,-0.043260336,-0.038735468
OrientationDeg,1676594688949,122192579444164,59.0,-4.0,-2.0
UncalMag,1676594688954,122192585855968,-66.1606,12.4196,-101.7846,-45.491467,0.31409264,-60.09035
UncalGyro,1676594688957,122192588427745,1.4133894,0.8571966,-0.15760323,0.00034801557,-0.0007832452,-0.0032856367
UncalAccel,1676594688958,122192588427745,0.7268199,-0.5712864,12.460624,0.006110925,-0.043260336,-0.038735468
OrientationDeg,1676594688957,122192588427745,59.0,-3.0,-3.0
UncalMag,1676594688965,122192595856945,-70.4672,9.7112,-102.6874,-45.491467,0.31409264,-60.09035
UncalGyro,1676594688966,122192597405528,1.5833627,1.0088439,-0.106137834,0.00034801557,-0.0007832452,-0.0032856367
UncalAccel,1676594688967,122192597405528,0.65982085,-0.22073789,12.071192,0.006110925,-0.043260336,-0.038735468
OrientationDeg,1676594688967,122192597405528,59.0,-3.0,-4.0
UncalMag,1676594688974,122192605856945,-67.1122,10.2358,-102.187195,-45.491467,0.31409264,-60.09035
UncalGyro,1676594688975,122192606384594,1.751656,1.0392345,-0.07895433,0.00034801557,-0.0007832452,-0.0032856367
UncalAccel,1676594688975,122192606384594,0.4941179,0.053240303,11.328819,0.006110925,-0.043260336,-0.038735468
OrientationDeg,1676594688976,122192606384594,59.0,-2.0,-5.0
UncalGyro,1676594688985,122192615367137,1.9152153,0.9210321,-0.0627664,0.00034801557,-0.0007832452,-0.0032856367
UncalAccel,1676594688985,122192615367137,0.232702,0.35653058,10.609178,0.006110925,-0.043260336,-0.038735468
UncalMag,1676594688985,122192615856212,-68.015,9.394,-105.139595,-45.491467,0.31409264,-60.09035
OrientationDeg,1676594688984,122192615367137,59.0,-2.0,-6.0
UncalGyro,1676594688993,122192624343639,1.9698877,0.6052147,-0.100029185,0.00034801557,-0.0007832452,-0.0032856367
UncalAccel,1676594688993,122192624343639,0.14476576,1.1527423,9.369097,0.006110925,-0.043260336,-0.038735468
UncalMag,1676594688995,122192625856456,-67.002396,8.259399,-104.31,-45.491467,0.31409264,-60.09035
OrientationDeg,1676594688994,122192624343639,59.0,-1.0,-7.0
UncalGyro,1676594689002,122192633329112,1.7737999,0.15424347,-0.24755314,0.00034801557,-0.0007832452,-0.0032856367
UncalAccel,1676594689002,122192633329112,0.42891344,2.181058,8.493922,0.006110925,-0.043260336,-0.038735468
OrientationDeg,1676594689003,122192633329112,59.0,-1.0,-8.0
UncalMag,1676594689004,122192635856945,-67.954,7.2956,-103.577995,-45.491467,0.31409264,-60.09035
UncalGyro,1676594689011,122192642311169,1.4367551,-0.17104226,-0.45769078,0.00034801557,-0.0007832452,-0.0032856367
UncalAccel,1676594689011,122192642311169,0.9212367,2.629114,8.822935,0.006110925,-0.043260336,-0.038735468
OrientationDeg,1676594689012,122192642311169,60.0,-1.0,-8.0
UncalMag,1676594689015,122192645858165,-70.15,6.0878,-105.151794,-45.491467,0.31409264,-60.09035
UncalGyro,1676594689021,122192651283763,1.1701124,-0.2182316,-0.66798115,0.00034801557,-0.0007832452,-0.0032856367
UncalAccel,1676594689021,122192651283763,1.387239,2.4544377,9.815358,0.006110925,-0.043260336,-0.038735468
OrientationDeg,1676594689020,122192651283763,60.0,-1.0,-9.0
UncalMag,1676594689025,122192655860607,-70.5282,5.429,-104.8956,-45.491467,0.31409264,-60.09035
UncalGyro,1676594689030,122192660265514,1.0213667,-0.047036625,-0.8219192,0.00034801557,-0.0007832452,-0.0032856367
UncalAccel,1676594689029,122192660265514,1.288535,1.6396817,10.220344,0.006110925,-0.043260336,-0.038735468
OrientationDeg,1676594689029,122192660265514,60.0,-1.0,-10.0
UncalMag,1676594689034,122192665855968,-71.2724,4.1967998,-104.370995,-45.491467,0.31409264,-60.09035
UncalGyro,1676594689039,122192669243175,0.9027061,0.19318613,-0.8558222,0.00034801557,-0.0007832452,-0.0032856367
UncalAccel,1676594689039,122192669243175,0.67058855,0.5407779,10.054641,0.006110925,-0.043260336,-0.038735468
OrientationDeg,1676594689039,122192669243175,61.0,-1.0,-10.0
UncalMag,1676594689045,122192675856212,-72.102,4.0138,-109.4096,-45.491467,0.31409264,-60.09035
UncalGyro,1676594689048,122192678218761,0.7431176,0.27916542,-0.8061894,0.00034801557,-0.0007832452,-0.0032856367
UncalAccel,1676594689047,122192678218761,0.5407779,0.37806597,9.104691,0.006110925,-0.043260336,-0.038735468
OrientationDeg,1676594689047,122192678218761,61.0,-1.0,-10.0
UncalMag,1676594689054,122192685855724,-68.4298,4.1967998,-104.200195,-45.491467,0.31409264,-60.09035
UncalGyro,1676594689056,122192687202830,0.5723807,0.22876903,-0.72265357,0.00034801557,-0.0007832452,-0.0032856367
UncalAccel,1676594689057,122192687202830,0.60837513,0.5838487,9.182457,0.006110925,-0.043260336,-0.038735468
OrientationDeg,1676594689057,122192687202830,62.0,-1.0,-11.0
UncalMag,1676594689064,122192695860851,-68.9788,3.843,-104.688194,-45.491467,0.31409264,-60.09035
UncalGyro,1676594689066,122192696179332,0.46502116,0.21930063,-0.6291912,0.00034801557,-0.0007832452,-0.0032856367
UncalAccel,1676594689066,122192696179332,0.6119644,0.5886344,9.525827,0.006110925,-0.043260336,-0.038735468
OrientationDeg,1676594689066,122192696179332,62.0,-1.0,-11.0
UncalGyro,1676594689074,122192705161571,0.42073345,0.26740626,-0.5519168,0.00034801557,-0.0007832452,-0.0032856367
UncalAccel,1676594689075,122192705161571,0.654437,0.6412765,9.664611,0.006110925,-0.043260336,-0.038735468
UncalMag,1676594689075,122192705855968,-68.442,3.7087998,-106.3596,-45.491467,0.31409264,-60.09035
OrientationDeg,1676594689074,122192705161571,62.0,0.0,-11.0
UncalGyro,1676594689083,122192714151317,0.42745295,0.2996294,-0.49373183,0.00034801557,-0.0007832452,-0.0032856367
UncalAccel,1676594689083,122192714151317,0.7423732,0.89491564,9.556335,0.006110925,-0.043260336,-0.038735468
OrientationDeg,1676594689083,122192714151317,62.0,0.0,-11.0
UncalMag,1676594689085,122192715867687,-72.931595,1.6104,-106.9086,-45.491467,0.31409264,-60.09035
Raw,1676594688000,191836000000,,,-1360629714164334132,0.0,6.987224689206207,297.0,1.0,21,2,0.0,16431,434705919128620,25,35.1755485534668,-555.8457051444927,0.559156315742142,16,-107156.67507545924,340282346638528860000000000000000000000,1575420030,,,,0,,1,,30.975547790527344,0.0,1.0,0.0,1.0,C,122192604962000
Raw,1676594688000,191836000000,,,-1360629714164334132,0.0,6.987224689206207,297.0,1.0,21,6,0.0,16431,434705928170755,23,36.41035079956055,554.2506120967687,0.15,16,104859.81269401252,340282346638528860000000000000000000000,1575420030,,,,0,,1,,32.210350036621094,0.320142130558394,1.0,0.320142130558394,1.0,C,122192604962000
Raw,1676594688000,191836000000,,,-1360629714164334132,0.0,6.987224689206207,297.0,1.0,21,11,0.0,16431,434705932354475,21,37.38662338256836,34.784286727835166,0.15,16,4634.134319225795,340282346638528860000000000000000000000,1575420030,,,,0,,1,,33.186622619628906,-0.20372681261465636,1.0,-0.20372681261465636,1.0,C,122192604962000
Raw,1676594688000,191836000000,,,-1360629714164334132,0.0,6.987224689206207,297.0,1.0,21,12,0.0,16431,434705931855011,12,44.508792877197266,-170.4618385058361,0.15,16,-33956.87024665002,340282346638528860000000000000000000000,1575420030,,,,0,,1,,40.30879211425781,-0.6984919076624261,1.0,-0.6984919076624261,1.0,C,122192604962000
Raw,1676594688000,191836000000,,,-1360629714164334132,0.0,6.987224689206207,297.0,1.0,21,19,0.0,16431,434705923767518,13,43.28579330444336,597.1853732171617,0.15,16,114257.62436875165,340282346638528860000000000000000000000,1575420030,,,,0,,1,,39.085792541503906,0.0,1.0,0.0,1.0,C,122192604962000
Raw,1676594688000,191836000000,,,-1360629714164334132,0.0,6.987224689206207,297.0,1.0,21,20,0.0,16431,434705923533463,22,36.913204193115234,-445.4925390236981,0.15,16,-85948.12386512583,340282346638528860000000000000000000000,1575420030,,,,0,,1,,32.71320343017578,0.0,1.0,0.0,1.0,C,122192604962000
Raw,1676594688000,191836000000,,,-1360629714164334132,0.0,6.987224689206207,297.0,1.0,21,24,0.0,16431,434705925534061,32,32.172977447509766,606.6928789589388,0.6917332772798943,16,115195.79103326616,340282346638528860000000000000000000000,1575420030,,,,1,,1,,27.972976684570312,-0.20372681261465636,1.0,-0.20372681261465636,1.0,C,122192604962000
Raw,1676594688000,191836000000,,,-1360629714164334132,0.0,6.987224689206207,297.0,1.0,21,25,0.0,16431,434705927093027,16,40.42510223388672,-439.4522415839865,0.15,16,-84878.09345961863,340282346638528860000000000000000000000,1575420030,,,,0,,1,,36.225101470947266,-2.0372682255564105,1.0,-2.0372682255564105,1.0,C,122192604962000
Raw,1676594688000,191836000000,,,-1360629714164334132,0.0,6.987224689206207,297.0,1.0,21,29,0.0,16431,434705919012512,22,36.644527435302734,-405.9618995783469,0.15,16,-78044.1732031079,340282346638528860000000000000000000000,1575420030,,,,0,,1,,32.44452667236328,-0.6984919076624261,1.0,-0.6984919076624261,1.0,C,122192604962000
Raw,1676594688000,191836000000,,,-1360629714164334132,0.0,6.987224689206207,297.0,1.0,21,6,0.0,81921,434705928171303,12,34.61970520019531,554.1673486554835,0.5776840583328653,16,106491.0034419986,340282346638528860000000000000000000000,1176450050,,,,0,,1,,30.51970672607422,1.9208527336454408,1.7465001536086788,1.9208527336454408,1.0,Q,122192604962000
Raw,1676594688000,191836000000,,,-1360629714164334132,0.0,6.987224689206207,297.0,1.0,21,11,0.0,81921,434705932355026,10,38.167518615722656,35.094997312571834,0.15,16,4683.962948508114,340282346638528860000000000000000000000,1176450050,,,,0,,1,,34.06752014160156,0.0,1.7465001536086788,0.0,1.0,Q,122192604962000
Raw,1676594688000,191836000000,,,-1360629714164334132,0.0,6.987224689206207,297.0,1.0,21,24,0.0,81921,434705925534614,11,41.265533447265625,606.5270337254988,0.15,16,116965.30827580181,340282346638528860000000000000000000000,1176450050,,,,0,,1,,37.16553497314453,3.5215636101095664,1.7465001536086788,3.5215636101095664,1.0,Q,122192604962000
Raw,1676594688000,191836000000,,,-1360629714164334132,0.0,6.987224689206207,297.0,1.0,21,25,0.0,81921,434705927093587,10,45.634979248046875,-439.24150975530597,0.15,16,-86244.00106986536,340282346638528860000000000000000000000,1176450050,,,,0,,1,,41.53498077392578,1.0186341127782053,1.7465001536086788,1.0186341127782053,1.0,Q,122192604962000
Raw,1676594688000,191836000000,,,-1360629714164334132,0.0,6.987224689206207,297.0,1.0,21,14,0.0,32867,13487931618043,36,39.47658157348633,667.4103662648472,0.15,16,126534.2314407939,340282346638528860000000000000000000000,1598062460,,,,0,,3,,35.276580810546875,50.29141902923584,2.0000000474974513,50.29141902923584,2.0000000474974513,C,122192604962000
Raw,1676594688000,191836000000,,,-1360629714164334132,0.0,6.987224689206207,297.0,1.0,21,18,0.0,32867,13487929783752,96,27.214282989501953,-398.6158691467899,0.9154846043521445,16,-78139.02193031923,340282346638528860000000000000000000000,1600312450,,,,0,,3,,23.0142822265625,50.29141902923584,2.0000000474974513,50.29141902923584,2.0000000474974513,C,122192604962000
Raw,1676594688000,191836000000,,,-1360629714164334132,0.0,6.987224689206207,297.0,1.0,21,16,0.0,32995,13487925551157,33,42.950775146484375,-645.1801521627572,0.15,16,-123672.89315087866,340282346638528860000000000000000000000,1601437440,,,,0,,3,,38.75077438354492,50.29141902923584,2.0000000474974513,50.29141902923584,2.0000000474974513,C,122192604962000
Raw,1676594688000,191836000000,,,-1360629714164334132,0.0,6.987224689206207,297.0,1.0,21,15,0.0,32867,13487936151920,34,39.969085693359375,-69.11689144029472,0.15,16,-15788.461172028397,340282346638528860000000000000000000000,1602000000,,,,0,,3,,35.76908493041992,50.29141902923584,2.0000000474974513,50.29141902923584,2.0000000474974513,C,122192604962000
Raw,1676594688000,191836000000,,,-1360629714164334132,0.0,6.987224689206207,297.0,1.0,21,24,0.0,32995,13487927830434,43,37.06303787231445,728.7033017666868,0.15,16,138916.00102539483,340282346638528860000000000000000000000,1603124990,,,,1,,3,,32.863037109375,50.29141902923584,2.0000000474974513,50.29141902923584,2.0000000474974513,C,122192604962000
Raw,1676594688000,191836000000,,,-1360629714164334132,0.0,6.987224689206207,297.0,1.0,21,17,0.0,32995,13487936285720,33,42.37815475463867,191.3118153661219,0.15,16,34922.16261020564,340282346638528860000000000000000000000,1604249980,,,,0,,3,,38.17815399169922,50.29141902923584,2.0000000474974513,50.29141902923584,2.0000000474974513,C,122192604962000
Raw,1676594688000,191836000000,,,-1360629714164334132,0.0,6.987224689206207,297.0,1.0,21,2,0.0,85026,434705922324387,21,37.00331497192383,184.60789841545466,0.15,16,34671.00673642995,340282346638528860000000000000000000000,1575420030,,,,1,,6,,32.803314208984375,-6.024492904543876,1.5000000237487257,-6.024492904543876,1.5000000237487257,C,122192604962000
Raw,1676594688000,191836000000,,,-1360629714164334132,0.0,6.987224689206207,297.0,1.0,21,11,0.0,85026,434705909608294,29,33.475433349609375,621.1946233848294,0.6331766880125986,16,118560.69742973852,340282346638528860000000000000000000000,1575420030,,,,0,,6,,29.275432586669922,-6.024492904543876,1.5000000237487257,-6.024492904543876,1.5000000237487257,C,122192604962000
Raw,1676594688000,191836000000,,,-1360629714164334132,0.0,6.987224689206207,297.0,1.0,21,25,0.0,85026,434705911892197,15,41.33686828613281,531.978374325786,0.15,16,101548.66178523985,340282346638528860000000000000000000000,1575420030,,,,0,,6,,37.13686752319336,-6.024492904543876,1.5000000237487257,-6.024492904543876,1.5000000237487257,C,122192604962000
Raw,1676594688000,191836000000,,,-1360629714164334132,0.0,6.987224689206207,297.0,1.0,21,30,0.0,85026,434705916817952,10,48.5060920715332,-273.65857490071016,0.15,16,-52764.316957166164,340282346638528860000000000000000000000,1575420030,,,,0,,6,,44.30609130859375,-6.024492904543876,1.5000000237487257,-6.024492904543876,1.5000000237487257,C,122192604962000
Raw,1676594688000,191836000000,,,-1360629714164334132,0.0,6.987224689206207,297.0,1.0,21,34,0.0,85026,434705920515681,25,35.118324279785156,-213.67709824341182,0.5591011314521861,16,-42318.02918156897,340282346638528860000000000000000000000,1575420030,,,,0,,6,,30.918323516845703,-6.024492904543876,1.5000000237487257,-6.024492904543876,1.5000000237487257,C,122192604962000
Raw,1676594688000,191836000000,,,-1360629714164334132,0.0,6.987224689206207,297.0,1.0,21,36,0.0,85026,434705920856772,20,37.92853927612305,317.18787039268705,0.15,16,59837.52000703968,340282346638528860000000000000000000000,1575420030,,,,0,,6,,33.728538513183594,-6.024492904543876,1.5000000237487257,-6.024492904543876,1.5000000237487257,C,122192604962000
Raw,1676594688000,191836000000,,,-1360629714164334132,0.0,6.987224689206207,297.0,1.0,21,2,0.0,84003,434705922324928,19,32.25474548339844,184.38336319188238,0.6865797036440751,16,34586.70680169093,340282346638528860000000000000000000000,1176450050,,,,0,,6,,28.15474510192871,-4.362151958048344,2.2465001773574045,-4.362151958048344,1.5000000237487257,Q,122192604962000
Raw,1676594688000,191836000000,,,-1360629714164334132,0.0,6.987224689206207,297.0,1.0,21,11,0.0,16384,434705909608847,1000000000,15.459590911865234,622.2524065054713,299792458,16,117951.50343749952,340282346638528860000000000000000000000,1176450050,,,,0,,6,,11.359590530395508,4.134257324039933,2.2465001773574045,4.134257324039933,1.5000000237487257,Q,122192604962000
Raw,1676594688000,191836000000,,,-1360629714164334132,0.0,6.987224689206207,297.0,1.0,21,25,0.0,84003,434705911892727,12,32.87337112426758,532.268995432556,0.6568842317545123,16,103064.70370726258,340282346638528860000000000000000000000,1176450050,,,,0,,6,,28.77337074279785,-8.795061148703097,2.2465001773574045,-8.795061148703097,1.5000000237487257,Q,122192604962000
Raw,1676594688000,191836000000,,,-1360629714164334132,0.0,6.987224689206207,297.0,1.0,21,30,0.0,84003,434705916818505,9,45.546356201171875,-273.5835423726752,0.15,16,-52482.16697966488,340282346638528860000000000000000000000,1176450050,,,,0,,6,,41.44635772705078,-8.425652049481869,2.2465001773574045,-8.425652049481869,1.5000000237487257,Q,122192604962000
Raw,1676594688000,191836000000,,,-1360629714164334132,0.0,6.987224689206207,297.0,1.0,21,34,0.0,84003,434705920516233,11,39.56596374511719,-214.59897756866906,0.15,16,-42780.37660100113,340282346638528860000000000000000000000,1176450050,,,,0,,6,,35.465965270996094,-11.011515744030472,2.2465001773574045,-11.011515744030472,1.5000000237487257,Q,122192604962000
Raw,1676594688000,191836000000,,,-1360629714164334132,0.0,6.987224689206207,297.0,1.0,21,36,0.0,84003,434705920857314,19,32.42710876464844,317.0244790961167,0.6785646015735955,16,60218.968895752216,340282346638528860000000000000000000000,1176450050,,,,0,,6,,28.327110290527344,-11.011515744030472,2.2465001773574045,-11.011515744030472,1.5000000237487257,Q,122192604962000
UncalGyro,1676594689093,122192723116222,0.4700608,0.24801129,-0.4636467,0.00034801557,-0.0007832452,-0.0032856367
UncalAccel,1676594689093,122192723116222,0.948156,1.3106686,9.139984,0.006110925,-0.043260336,-0.038735468
OrientationDeg,1676594689092,122192723116222,63.0,0.0,-12.0
UncalMag,1676594689094,122192725867687,-74.0296,1.0248,-106.9452,-45.491467,0.31409264,-60.09035
Status,0,30,0,3,15,1602000000,41.61,315.0,77.0,1,1,1,37.405426
Status,0,30,1,1,11,1176450050,41.11,121.0,76.0,1,1,1,37.01491
Status,0,30,2,1,11,1575420030,41.14,121.0,76.0,1,1,1,36.935654
Status,0,30,3,6,2,1176450050,37.67,109.0,76.0,1,1,1,33.570168
Status,0,30,4,6,2,1575420030,41.13,109.0,76.0,1,1,1,36.928696
Status,0,30,5,3,17,1604249980,42.57,322.0,72.0,1,1,1,38.372528
Status,0,30,6,1,12,1575420030,44.51,327.0,66.0,1,1,1,40.308792
Status,0,30,7,6,36,1575420030,42.67,50.0,62.0,1,1,1,38.469597
Status,0,30,8,6,36,1176450050,38.22,50.0,62.0,1,1,1,34.1241
Status,0,30,9,6,34,1575420030,39.67,207.0,60.0,1,1,1,35.473137
Status,0,30,10,6,34,1176450050,39.57,207.0,60.0,1,1,1,35.465965
Status,0,30,11,6,30,1176450050,45.55,315.0,46.0,1,1,1,41.446358
Status,0,30,12,6,30,1575420030,48.51,315.0,46.0,1,1,1,44.30609
Status,0,30,13,3,14,1598062460,42.05,153.0,45.0,1,1,1,37.845367
Status,0,30,14,1,6,1176450050,40.73,47.0,44.0,1,1,1,36.633366
Status,0,30,15,1,6,1575420030,44.27,47.0,44.0,1,1,1,40.069096
Status,0,30,16,1,24,1176450050,41.27,218.0,38.0,1,1,1,37.165535
Status,0,30,17,1,24,1575420030,38.32,218.0,38.0,1,1,1,34.11851
Status,0,30,18,1,25,1176450050,46.26,313.0,36.0,1,1,1,42.156307
Status,0,30,19,3,18,1600312450,38.92,240.0,36.0,1,1,1,34.724113
Status,0,30,20,1,25,1575420030,44.52,313.0,36.0,1,1,1,40.320164
Status,0,30,21,3,24,1603124990,44.71,34.0,30.0,1,1,1,40.5058
Status,0,30,22,1,20,1575420030,41.39,141.0,27.0,1,1,1,37.18699
Status,0,30,23,6,25,1575420030,41.34,127.0,25.0,1,1,1,37.136868
Status,0,30,24,6,25,1176450050,39.66,127.0,25.0,1,1,1,35.559696
Status,0,30,25,1,19,1575420030,43.29,61.0,24.0,1,1,1,39.085793
Status,0,30,26,3,16,1601437440,45.35,328.0,22.0,1,1,1,41.14881
Status,0,30,27,1,29,1575420030,37.93,265.0,15.0,1,1,1,33.727905
Status,0,30,28,6,11,1575420030,37.76,41.0,13.0,1,1,1,33.557274
Status,0,30,29,1,2,1575420030,42.86,217.0,12.0,1,1,1,38.66163
Fix,GPS,37.4311334104,-122.1551627868,-15.736712830207656,0.7074662,3.1441305,98.72912,1676594688000,0.11371421,9.976423,122192604962000,3.0
UncalGyro,1676594689102,122192732095226,0.5331327,0.063988134,-0.46761733,0.00034801557,-0.0007832452,-0.0032856367
UncalAccel,1676594689102,122192732095226,1.2011969,1.6731812,8.590233,0.006110925,-0.043260336,-0.038735468
OrientationDeg,1676594689101,122192732095226,63.0,0.0,-12.0
UncalMag,1676594689104,122192735867199,-73.3586,0.8296,-108.6776,-45.491467,0.31409264,-60.09035
Fix,FLP,37.4311338000,-122.1551603000,-16.200000762939453,0.42177406,4.044,173.31883,1676594688913,,,122192543540294,2.3857267
UncalGyro,1676594689111,122192741085277,0.63346726,-0.24373524,-0.49968776,0.00034801557,-0.0007832452,-0.0032856367
UncalAccel,1676594689111,122192741085277,1.4111671,2.0458634,8.135597,0.006110925,-0.043260336,-0.038735468
OrientationDeg,1676594689111,122192741085277,63.0,0.0,-12.0
UncalMag,1676594689114,122192745861828,-75.8352,-0.6344,-109.0924,-45.491467,0.31409264,-60.09035
UncalGyro,1676594689119,122192750052440,0.7704538,-0.6765333,-0.5693264,0.00034801557,-0.0007832452,-0.0032856367
UncalAccel,1676594689120,122192750052440,1.634896,2.3994029,7.838289,0.006110925,-0.043260336,-0.038735468
OrientationDeg,1676594689120,122192750052440,63.0,0.0,-13.0
UncalMag,1676594689124,122192755867687,-76.4574,-1.0126,-109.1534,-45.491467,0.31409264,-60.09035
UncalGyro,1676594689128,122192759034495,0.9335548,-1.1527027,-0.68401635,0.00034801557,-0.0007832452,-0.0032856367
UncalAccel,1676594689129,122192759034495,1.8604196,2.6135604,7.9022965,0.006110925,-0.043260336,-0.038735468
OrientationDeg,1676594689129,122192759034495,64.0,-1.0,-13.0
UncalMag,1676594689135,122192765867931,-74.8592,-0.793,-107.726,-45.491467,0.31409264,-60.09035
UncalGyro,1676594689138,122192768019970,1.0914634,-1.5176947,-0.85062987,0.00034801557,-0.0007832452,-0.0032856367
UncalAccel,1676594689137,122192768019970,1.8305093,3.0933216,8.834301,0.006110925,-0.043260336,-0.038735468
OrientationDeg,1676594689137,122192768019970,64.0,-2.0,-14.0
UncalMag,1676594689144,122192775867687,-76.4452,-1.647,-107.604,-45.491467,0.31409264,-60.09035
UncalGyro,1676594689146,122192777003551,1.1585059,-1.3811663,-1.0580186,0.00034801557,-0.0007832452,-0.0032856367
UncalAccel,1676594689146,122192777003551,1.7341982,3.1477582,11.030912,0.006110925,-0.043260336,-0.038735468
OrientationDeg,1676594689146,122192777003551,65.0,-2.0,-14.0
UncalMag,1676594689154,122192785867443,-73.444,-1.1589999,-105.5544,-45.491467,0.31409264,-60.09035
UncalGyro,1676594689155,122192785981456,1.1667526,-1.0276281,-1.2159272,0.00034801557,-0.0007832452,-0.0032856367
UncalAccel,1676594689155,122192785981456,1.750948,2.658426,9.870394,0.006110925,-0.043260336,-0.038735468
OrientationDeg,1676594689154,122192785981456,65.0,-3.0,-15.0
UncalGyro,1676594689164,122192794962841,1.1844677,-0.7470882,-1.2670872,0.00034801557,-0.0007832452,-0.0032856367
UncalAccel,1676594689164,122192794962841,1.6307086,2.0925233,9.109476,0.006110925,-0.043260336,-0.038735468
UncalMag,1676594689164,122192795856456,-74.9934,-2.684,-104.737,-45.491467,0.31409264,-60.09035
OrientationDeg,1676594689163,122192794962841,66.0,-3.0,-16.0
UncalGyro,1676594689173,122192803943676,1.138042,-0.44638976,-1.2237158,0.00034801557,-0.0007832452,-0.0032856367
UncalAccel,1676594689173,122192803943676,1.3860425,1.9980069,8.407183,0.006110925,-0.043260336,-0.038735468
OrientationDeg,1676594689172,122192803943676,67.0,-3.0,-16.0
UncalMag,1676594689175,122192805867199,-74.163795,-3.3306,-104.493,-45.491467,0.31409264,-60.09035
UncalGyro,1676594689182,122192812903087,1.0303769,-0.31856623,-1.129948,0.00034801557,-0.0007832452,-0.0032856367
UncalAccel,1676594689181,122192812903087,0.9846465,1.9950159,6.622735,0.006110925,-0.043260336,-0.038735468
OrientationDeg,1676594689181,122192812903087,67.0,-3.0,-17.0
UncalMag,1676594689185,122192815867199,-76.1646,-4.209,-106.4328,-45.491467,0.31409264,-60.09035
UncalGyro,1676594689190,122192821900890,0.8959866,-0.48640144,-0.9654725,0.00034801557,-0.0007832452,-0.0032856367
UncalAccel,1676594689190,122192821900890,0.52163535,1.7096717,5.332405,0.006110925,-0.043260336,-0.038735468
OrientationDeg,1676594689190,122192821900890,68.0,-3.0,-17.0
UncalMag,1676594689194,122192825867443,-74.3834,-4.5262,-105.5788,-45.491467,0.31409264,-60.09035
UncalGyro,1676594689199,122192830877513,0.75869465,-0.7481572,-0.66248333,0.00034801557,-0.0007832452,-0.0032856367
UncalAccel,1676594689199,122192830877513,-2.5411777,1.9914266,5.306084,0.006110925,-0.043260336,-0.038735468
OrientationDeg,1676594689200,122192830877513,68.0,-3.0,-18.0
UncalMag,1676594689205,122192835855968,-74.4566,-4.9898,-105.1762,-45.491467,0.31409264,-60.09035
UncalGyro,1676594689208,122192839859569,0.6337727,-0.98456204,-0.04810564,0.00034801557,-0.0007832452,-0.0032856367
UncalAccel,1676594689208,122192839859569,-6.9188466,2.684747,5.7517476,0.006110925,-0.043260336,-0.038735468
OrientationDeg,1676594689208,122192839859569,68.0,-4.0,-18.0
UncalMag,1676594689214,122192845867687,-73.9564,-4.7824,-104.663795,-45.491467,0.31409264,-60.09035
UncalGyro,1676594689218,122192848841319,0.50320023,-1.1119275,0.65148777,0.00034801557,-0.0007832452,-0.0032856367
UncalAccel,1676594689217,122192848841319,-5.5986066,2.283351,6.0753765,0.006110925,-0.043260336,-0.038735468
OrientationDeg,1676594689218,122192848841319,68.0,-4.0,-18.0
UncalMag,1676594689225,122192855867687,-71.7604,-4.0138,-103.09,-45.491467,0.31409264,-60.09035
UncalGyro,1676594689226,122192857823436,0.36560285,-1.2244794,1.108415,0.00034801557,-0.0007832452,-0.0032856367
UncalAccel,1676594689226,122192857823436,-1.3974084,1.0689936,5.840282,0.006110925,-0.043260336,-0.038735468
OrientationDeg,1676594689227,122192857823436,67.0,-5.0,-18.0
UncalMag,1676594689235,122192865867687,-71.9434,-3.5502,-101.8334,-45.491467,0.31409264,-60.09035
UncalGyro,1676594689236,122192866797863,0.27580565,-1.4564555,1.2964088,0.00034801557,-0.0007832452,-0.0032856367
UncalAccel,1676594689236,122192866797863,0.8602197,0.7680961,5.77747,0.006110925,-0.043260336,-0.038735468
OrientationDeg,1676594689236,122192866797863,66.0,-6.0,-18.0
UncalGyro,1676594689245,122192875777050,0.28115073,-1.7547104,1.3370314,0.00034801557,-0.0007832452,-0.0032856367
UncalAccel,1676594689244,122192875777050,1.6983058,1.1419746,6.6215386,0.006110925,-0.043260336,-0.038735468
UncalMag,1676594689244,122192875864269,-71.3334,-2.806,-101.3088,-45.491467,0.31409264,-60.09035
OrientationDeg,1676594689244,122192875777050,66.0,-7.0,-18.0
UncalGyro,1676594689254,122192884756237,0.3631594,-1.9139935,1.2948816,0.00034801557,-0.0007832452,-0.0032856367
UncalAccel,1676594689253,122192884756237,2.213361,1.6671991,8.285149,0.006110925,-0.043260336,-0.038735468
UncalMag,1676594689255,122192885856701,-72.1142,-2.8792,-101.809,-45.491467,0.31409264,-60.09035
OrientationDeg,1676594689254,122192884756237,65.0,-9.0,-18.0
UncalGyro,1676594689262,122192893735546,0.4775439,-1.7753271,1.1488848,0.00034801557,-0.0007832452,-0.0032856367
UncalAccel,1676594689262,122192893735546,2.7834508,2.4987051,10.031311,0.006110925,-0.043260336,-0.038735468
OrientationDeg,1676594689262,122192893735546,64.0,-10.0,-19.0
UncalMag,1676594689264,122192895867687,-74.7006,-3.0988,-99.8082,-45.491467,0.31409264,-60.09035
UncalGyro,1676594689272,122192902715099,0.5859725,-1.3768903,0.88331115,0.00034801557,-0.0007832452,-0.0032856367
UncalAccel,1676594689272,122192902715099,3.1800613,3.5132618,11.330015,0.006110925,-0.043260336,-0.038735468
OrientationDeg,1676594689272,122192902715099,64.0,-11.0,-19.0
UncalMag,1676594689275,122192905867443,-74.151596,-2.8669999,-100.3816,-45.491467,0.31409264,-60.09035
UncalGyro,1676594689281,122192911694286,0.66553766,-0.8374963,0.5102252,0.00034801557,-0.0007832452,-0.0032856367
UncalAccel,1676594689280,122192911694286,3.4133615,4.505087,11.984452,0.006110925,-0.043260336,-0.038735468
OrientationDeg,1676594689281,122192911694286,63.0,-11.0,-19.0
UncalMag,1676594689285,122192915867443,-73.9686,-2.5498,-100.625595,-45.491467,0.31409264,-60.09035
UncalGyro,1676594689290,122192920673534,0.70829827,-0.1815797,0.103847094,0.00034801557,-0.0007832452,-0.0032856367
UncalAccel,1676594689289,122192920673534,3.4881372,4.7539406,12.638889,0.006110925,-0.043260336,-0.038735468
OrientationDeg,1676594689290,122192920673534,63.0,-11.0,-19.0
UncalMag,1676594689295,122192925867443,-74.785995,-2.8304,-100.5524,-45.491467,0.31409264,-60.09035
UncalGyro,1676594689299,122192929650035,0.70371675,0.52015173,-0.20891592,0.00034801557,-0.0007832452,-0.0032856367
UncalAccel,1676594689299,122192929650035,3.3170505,3.9397824,12.209976,0.006110925,-0.043260336,-0.038735468
OrientationDeg,1676594689299,122192929650035,63.0,-11.0,-20.0
UncalMag,1676594689304,122192935867443,-75.408195,-3.8918,-100.466995,-45.491467,0.31409264,-60.09035
UncalGyro,1676594689307,122192938632701,0.6391178,1.1281154,-0.33948836,0.00034801557,-0.0007832452,-0.0032856367
UncalAccel,1676594689307,122192938632701,3.0795627,2.6171498,11.067403,0.006110925,-0.043260336,-0.038735468
OrientationDeg,1676594689308,122192938632701,63.0,-10.0,-20.0
UncalMag,1676594689315,122192945867443,-73.749,-3.7575998,-100.7354,-45.491467,0.31409264,-60.09035
UncalGyro,1676594689317,122192947615001,0.5028948,1.5047138,-0.29993483,0.00034801557,-0.0007832452,-0.0032856367
UncalAccel,1676594689316,122192947615001,2.78046,1.9950159,9.771689,0.006110925,-0.043260336,-0.038735468
OrientationDeg,1676594689316,122192947615001,63.0,-9.0,-20.0
UncalMag,1676594689325,122192955867687,-73.6148,-4.2455997,-101.016,-45.491467,0.31409264,-60.09035
UncalGyro,1676594689326,122192956591076,0.3182608,1.6278032,-0.14996742,0.00034801557,-0.0007832452,-0.0032856367
OrientationDeg,1676594689325,122192956591076,63.0,-9.0,-21.0
UncalAccel,1676594689326,122192956591076,2.2259233,1.9884356,9.106484,0.006110925,-0.043260336,-0.038735468
UncalGyro,1676594689334,122192965570812,0.15867224,1.6681203,0.024129177,0.00034801557,-0.0007832452,-0.0032856367
UncalAccel,1676594689334,122192965570812,1.9525433,1.9758734,9.443872,0.006110925,-0.043260336,-0.038735468
UncalMag,1676594689335,122192965855724,-75.4326,-4.8922,-100.466995,-45.491467,0.31409264,-60.09035
OrientationDeg,1676594689335,122192965570812,63.0,-8.0,-21.0
UncalGyro,1676594689343,122192974549571,0.087659165,1.7304286,0.15653422,0.00034801557,-0.0007832452,-0.0032856367
UncalAccel,1676594689343,122192974549571,1.7467605,2.0255244,9.686146,0.006110925,-0.043260336,-0.038735468
OrientationDeg,1676594689343,122192974549571,63.0,-7.0,-21.0
UncalMag,1676594689345,122192975867687,-75.4326,-4.8922,-100.466995,-45.491467,0.31409264,-60.09035
OrientationDeg,1676594689352,122192983529186,63.0,-6.0,-21.0
UncalGyro,1676594689353,122192983529186,0.105832405,1.7088956,0.24953845,0.00034801557,-0.0007832452,-0.0032856367
UncalAccel,1676594689353,122192983529186,1.2723835,2.4735804,9.009576,0.006110925,-0.043260336,-0.038735468
UncalMag,1676594689354,122192985860607,-71.2724,-3.4526,-101.9066,-45.491467,0.31409264,-60.09035
UncalGyro,1676594689361,122192992506236,0.20906863,1.5121969,0.2782491,0.00034801557,-0.0007832452,-0.0032856367
UncalAccel,1676594689361,122192992506236,0.9846465,3.0263224,8.162517,0.006110925,-0.043260336,-0.038735468
OrientationDeg,1676594689362,122192992506236,63.0,-5.0,-21.0
UncalMag,1676594689365,122192995867931,-71.6018,-3.6966,-104.1026,-45.491467,0.31409264,-60.09035
UncalGyro,1676594689371,122193001485119,0.38224894,1.1439979,0.25121832,0.00034801557,-0.0007832452,-0.0032856367
UncalAccel,1676594689371,122193001485119,0.9954142,3.2416766,7.320243,0.006110925,-0.043260336,-0.038735468
OrientationDeg,1676594689370,122193001485119,63.0,-5.0,-21.0
UncalMag,1676594689375,122193005867443,-69.2716,-3.0988,-103.6512,-45.491467,0.31409264,-60.09035
UncalGyro,1676594689380,122193010458996,0.5823073,0.61712664,0.19547687,0.00034801557,-0.0007832452,-0.0032856367
UncalAccel,1676594689380,122193010458996,1.0731809,3.4570305,6.378069,0.006110925,-0.043260336,-0.038735468
OrientationDeg,1676594689379,122193010458996,63.0,-5.0,-21.0
UncalMag,1676594689384,122193015867199,-70.8454,-4.3676,-103.3218,-45.491467,0.31409264,-60.09035
UncalGyro,1676594689389,122193019444103,0.7779369,-0.001985312,0.10140363,0.00034801557,-0.0007832452,-0.0032856367
UncalAccel,1676594689389,122193019444103,1.2053844,3.6382868,5.9653068,0.006110925,-0.043260336,-0.038735468
OrientationDeg,1676594689389,122193019444103,63.0,-5.0,-22.0
UncalMag,1676594689395,122193025867443,-71.1504,-4.819,-103.1998,-45.491467,0.31409264,-60.09035
UncalGyro,1676594689397,122193028426403,0.93447113,-0.5540548,0.020922136,0.00034801557,-0.0007832452,-0.0032856367
UncalAccel,1676594689397,122193028426403,1.1485549,3.379862,6.4498534,0.006110925,-0.043260336,-0.038735468
OrientationDeg,1676594689398,122193028426403,63.0,-5.0,-22.0
UncalMag,1676594689404,122193035867443,-71.919,-5.3802,-103.0412,-45.491467,0.31409264,-60.09035
UncalGyro,1676594689407,122193037408519,1.0183123,-0.9094256,-0.0012217305,0.00034801557,-0.0007832452,-0.0032856367
UncalAccel,1676594689406,122193037408519,1.0133604,2.973082,7.1473613,0.006110925,-0.043260336,-0.038735468
OrientationDeg,1676594689407,122193037408519,62.0,-5.0,-23.0
UncalMag,1676594689414,122193045867443,-72.5778,-5.7218,-102.479996,-45.491467,0.31409264,-60.09035
UncalGyro,1676594689416,122193046370616,1.0213667,-1.0396926,0.021685716,0.00034801557,-0.0007832452,-0.0032856367
UncalAccel,1676594689415,122193046370616,0.9846465,2.7433712,7.7850485,0.006110925,-0.043260336,-0.038735468
OrientationDeg,1676594689416,122193046370616,62.0,-6.0,-23.0
UncalGyro,1676594689424,122193055364513,0.9744828,-1.0108292,0.07742717,0.00034801557,-0.0007832452,-0.0032856367
UncalAccel,1676594689425,122193055364513,0.88295156,2.8594232,8.247461,0.006110925,-0.043260336,-0.038735468
UncalMag,1676594689424,122193055855968,-73.382996,-6.3196,-101.1502,-45.491467,0.31409264,-60.09035
OrientationDeg,1676594689424,122193055364513,62.0,-7.0,-24.0
UncalGyro,1676594689434,122193064346568,0.905455,-0.914618,0.13209961,0.00034801557,-0.0007832452,-0.0032856367
UncalAccel,1676594689433,122193064346568,0.9870393,3.2614172,8.135597,0.006110925,-0.043260336,-0.038735468
UncalMag,1676594689435,122193065867687,-72.150795,-5.8072,-101.1624,-45.491467,0.31409264,-60.09035
OrientationDeg,1676594689434,122193064346568,62.0,-7.0,-24.0
UncalGyro,1676594689443,122193073323131,0.81397796,-0.79534656,0.14462234,0.00034801557,-0.0007832452,-0.0032856367
UncalAccel,1676594689442,122193073323131,1.3746766,3.7866418,7.6348987,0.006110925,-0.043260336,-0.038735468
OrientationDeg,1676594689443,122193073323131,62.0,-8.0,-25.0
UncalMag,1676594689445,122193075867687,-72.7852,-5.8926,-100.1132,-45.491467,0.31409264,-60.09035
UncalGyro,1676594689452,122193082302928,0.68936145,-0.6206391,0.10873401,0.00034801557,-0.0007832452,-0.0032856367
UncalAccel,1676594689452,122193082302928,1.3692927,4.1318064,7.3692956,0.006110925,-0.043260336,-0.038735468
OrientationDeg,1676594689452,122193082302928,62.0,-8.0,-25.0
UncalMag,1676594689455,122193085859874,-73.1024,-6.4049997,-99.6496,-45.491467,0.31409264,-60.09035
UncalGyro,1676594689461,122193091282177,0.52503866,-0.38072178,0.06627888,0.00034801557,-0.0007832452,-0.0032856367
UncalAccel,1676594689461,122193091282177,1.2646067,4.208975,7.3549385,0.006110925,-0.043260336,-0.038735468
OrientationDeg,1676594689461,122193091282177,62.0,-8.0,-25.0
UncalMag,1676594689464,122193095857433,-74.1882,-6.8441997,-100.5768,-45.491467,0.31409264,-60.09035
UncalGyro,1676594689470,122193100261486,0.3294091,-0.07162395,0.036651913,0.00034801557,-0.0007832452,-0.0032856367
UncalAccel,1676594689469,122193100261486,1.2604194,4.290331,7.4273214,0.006110925,-0.043260336,-0.038735468
OrientationDeg,1676594689469,122193100261486,62.0,-8.0,-25.0
UncalMag,1676594689475,122193105867443,-74.175995,-7.0882,-100.0888,-45.491467,0.31409264,-60.09035
OrientationDeg,1676594689479,122193109240734,62.0,-8.0,-25.0
UncalGyro,1676594689479,122193109240734,0.10552697,0.24770586,-0.003970624,0.00034801557,-0.0007832452,-0.0032856367
UncalAccel,1676594689479,122193109240734,1.2640085,4.6259246,7.1473613,0.006110925,-0.043260336,-0.038735468
UncalMag,1676594689485,122193115867443,-74.0662,-6.9783998,-100.4182,-45.491467,0.31409264,-60.09035
UncalGyro,1676594689488,122193118220165,-0.116980694,0.46181414,-0.048563786,0.00034801557,-0.0007832452,-0.0032856367
UncalAccel,1676594689487,122193118220165,1.3106686,4.7018967,6.509674,0.006110925,-0.043260336,-0.038735468
OrientationDeg,1676594689487,122193118220165,62.0,-8.0,-25.0
UncalMag,1676594689495,122193125867443,-73.8954,-7.0394,-99.8204,-45.491467,0.31409264,-60.09035
OrientationDeg,1676594689496,122193127199413,62.0,-8.0,-25.0
UncalGyro,1676594689497,122193127199413,-0.3119994,0.54473907,-0.08475755,0.00034801557,-0.0007832452,-0.0032856367
UncalAccel,1676594689497,122193127199413,1.3154542,4.447659,6.198607,0.006110925,-0.043260336,-0.038735468
UncalMag,1676594689504,122193135867443,-74.2126,-6.8441997,-101.1258,-45.491467,0.31409264,-60.09035
UncalGyro,1676594689506,122193136179149,-0.4700608,0.52198434,-0.11484267,0.00034801557,-0.0007832452,-0.0032856367
UncalAccel,1676594689506,122193136179149,1.4422739,4.197609,6.1884375,0.006110925,-0.043260336,-0.038735468
OrientationDeg,1676594689506,122193136179149,62.0,-7.0,-25.0
UncalGyro,1676594689515,122193145147655,-0.5991061,0.47647488,-0.1600467,0.00034801557,-0.0007832452,-0.0032856367
UncalAccel,1676594689515,122193145147655,1.3549358,4.001996,6.148956,0.006110925,-0.043260336,-0.038735468
UncalMag,1676594689515,122193145856945,-73.529396,-6.7953997,-102.809395,-45.491467,0.31409264,-60.09035
OrientationDeg,1676594689514,122193145147655,62.0,-7.0,-25.0
UncalGyro,1676594689524,122193154137645,-0.7272351,0.41584653,-0.19898935,0.00034801557,-0.0007832452,-0.0032856367
UncalAccel,1676594689523,122193154137645,1.0187442,3.461816,5.8396835,0.006110925,-0.043260336,-0.038735468
UncalMag,1676594689525,122193155867443,-73.0048,-6.0267997,-102.5288,-45.491467,0.31409264,-60.09035
OrientationDeg,1676594689523,122193154137645,62.0,-7.0,-24.0
UncalGyro,1676594689533,122193163117077,-0.88438016,0.33093625,-0.2098322,0.00034801557,-0.0007832452,-0.0032856367
UncalAccel,1676594689532,122193163117077,0.71665037,2.940779,5.430511,0.006110925,-0.043260336,-0.038735468
OrientationDeg,1676594689533,122193163117077,62.0,-6.0,-24.0
UncalMag,1676594689535,122193165867443,-71.187,-5.5266,-101.9676,-45.491467,0.31409264,-60.09035
UncalGyro,1676594689542,122193172096386,-1.0612257,0.19379699,-0.10873401,0.00034801557,-0.0007832452,-0.0032856367
UncalAccel,1676594689541,122193172096386,-0.7603194,3.045465,5.4149575,0.006110925,-0.043260336,-0.038735468
OrientationDeg,1676594689541,122193172096386,63.0,-6.0,-23.0
UncalMag,1676594689545,122193175867687,-70.3208,-4.4164,-102.1018,-45.491467,0.31409264,-60.09035
UncalGyro,1676594689550,122193181075939,-1.2139419,0.05589417,0.16157386,0.00034801557,-0.0007832452,-0.0032856367
UncalAccel,1676594689550,122193181075939,-2.091327,3.3224342,6.0251274,0.006110925,-0.043260336,-0.038735468
OrientationDeg,1676594689551,122193181075939,63.0,-6.0,-23.0
UncalMag,1676594689555,122193185855480,-71.6994,-4.7336,-103.3462,-45.491467,0.31409264,-60.09035
UncalGyro,1676594689559,122193190043163,-1.3535247,-0.14889841,0.45020768,0.00034801557,-0.0007832452,-0.0032856367
UncalAccel,1676594689560,122193190043163,-0.60837513,3.0496526,5.568098,0.006110925,-0.043260336,-0.038735468
OrientationDeg,1676594689560,122193190043163,62.0,-6.0,-22.0
UncalMag,1676594689565,122193195867687,-69.966995,-3.721,-101.5162,-45.491467,0.31409264,-60.09035
UncalGyro,1676594689569,122193199034679,-1.3972015,-0.5039638,0.5729916,0.00034801557,-0.0007832452,-0.0032856367
UncalAccel,1676594689568,122193199034679,1.4273187,3.01376,6.382256,0.006110925,-0.043260336,-0.038735468
OrientationDeg,1676594689568,122193199034679,62.0,-7.0,-21.0
UncalMag,1676594689575,122193205867443,-70.0402,-2.5742,-101.247795,-45.491467,0.31409264,-60.09035
UncalGyro,1676594689577,122193208014049,-1.2756393,-0.9326385,0.5364924,0.00034801557,-0.0007832452,-0.0032856367
UncalAccel,1676594689578,122193208014049,2.4885356,3.3146574,7.2562346,0.006110925,-0.043260336,-0.038735468
OrientationDeg,1676594689578,122193208014049,62.0,-7.0,-21.0
UncalMag,1676594689584,122193215867687,-72.0654,-3.0865998,-102.724,-45.491467,0.31409264,-60.09035
UncalGyro,1676594689585,122193216993297,-1.0407617,-1.4801265,0.4428773,0.00034801557,-0.0007832452,-0.0032856367
UncalAccel,1676594689586,122193216993297,2.8576283,3.6191442,7.25444,0.006110925,-0.043260336,-0.038735468
OrientationDeg,1676594689586,122193216993297,62.0,-8.0,-20.0
UncalMag,1676594689595,122193225867443,-73.7734,-3.1232,-102.7118,-45.491467,0.31409264,-60.09035
UncalGyro,1676594689594,122193225970103,-0.7643451,-2.1192443,0.35277468,0.00034801557,-0.0007832452,-0.0032856367
UncalAccel,1676594689594,122193225970103,2.7068806,3.5431721,6.876972,0.006110925,-0.043260336,-0.038735468
OrientationDeg,1676594689594,122193225970103,62.0,-9.0,-20.0
UncalGyro,1676594689604,122193234938183,-0.5225952,-2.8312078,0.31474832,0.00034801557,-0.0007832452,-0.0032856367
UncalAccel,1676594689603,122193234938183,2.3419752,2.7732813,6.227919,0.006110925,-0.043260336,-0.038735468
UncalMag,1676594689605,122193235855724,-74.785995,-2.684,-101.6626,-45.491467,0.31409264,-60.09035
OrientationDeg,1676594689604,122193234938183,62.0,-11.0,-19.0
UncalGyro,1676594689612,122193243934215,-0.4025602,-3.4468071,0.4167628,0.00034801557,-0.0007832452,-0.0032856367
UncalAccel,1676594689612,122193243934215,1.8855443,1.8652053,6.492924,0.006110925,-0.043260336,-0.038735468
OrientationDeg,1676594689612,122193243934215,61.0,-13.0,-19.0
UncalMag,1676594689614,122193245867443,-74.8348,-2.6474,-101.247795,-45.491467,0.31409264,-60.09035
UncalGyro,1676594689621,122193252907909,-0.3996586,-3.755294,0.65179324,0.00034801557,-0.0007832452,-0.0032856367
UncalAccel,1676594689621,122193252907909,1.5738791,0.91346,8.302496,0.006110925,-0.043260336,-0.038735468
OrientationDeg,1676594689622,122193252907909,61.0,-15.0,-19.0
UncalMag,1676594689625,122193255867687,-77.6896,-2.4034,-96.075,-45.491467,0.31409264,-60.09035
UncalGyro,1676594689630,122193261890270,-0.4625777,-3.5975382,1.0025826,0.00034801557,-0.0007832452,-0.0032856367
UncalAccel,1676594689630,122193261890270,1.326222,-0.13878371,10.41177,0.006110925,-0.043260336,-0.038735468
OrientationDeg,1676594689630,122193261890270,61.0,-17.0,-18.0
UncalMag,1676594689634,122193265867687,-77.4578,-1.6592,-92.9396,-45.491467,0.31409264,-60.09035
UncalGyro,1676594689639,122193270872508,-0.5395467,-3.2102497,1.4462235,0.00034801557,-0.0007832452,-0.0032856367
UncalAccel,1676594689639,122193270872508,1.3232309,-1.2412767,11.2684,0.006110925,-0.043260336,-0.038735468
OrientationDeg,1676594689639,122193270872508,60.0,-19.0,-18.0
UncalMag,1676594689644,122193275856212,-79.7148,-1.3542,-93.3544,-45.491467,0.31409264,-60.09035
UncalGyro,1676594689648,122193279848827,-0.5685628,-2.8273897,1.8924606,0.00034801557,-0.0007832452,-0.0032856367
UncalAccel,1676594689648,122193279848827,2.4622145,-1.3106686,11.258829,0.006110925,-0.043260336,-0.038735468
OrientationDeg,1676594689649,122193279848827,59.0,-20.0,-17.0
UncalMag,1676594689654,122193285859874,-81.2276,-0.90279996,-90.9144,-45.491467,0.31409264,-60.09035
UncalGyro,1676594689658,122193288828319,-0.52519137,-2.5783095,2.1616993,0.00034801557,-0.0007832452,-0.0032856367
UncalAccel,1676594689657,122193288828319,4.7539406,0.19561325,10.934003,0.006110925,-0.043260336,-0.038735468
OrientationDeg,1676594689657,122193288828319,58.0,-22.0,-16.0
UncalMag,1676594689664,122193295867199,-82.4476,-0.121999994,-89.877396,-45.491467,0.31409264,-60.09035
UncalGyro,1676594689666,122193297808116,-0.3912592,-2.4784331,2.1433735,0.00034801557,-0.0007832452,-0.0032856367
UncalAccel,1676594689666,122193297808116,6.358328,1.7587247,10.816156,0.006110925,-0.043260336,-0.038735468
OrientationDeg,1676594689667,122193297808116,57.0,-23.0,-16.0
UncalMag,1676594689675,122193305867443,-81.959595,1.5494,-88.4012,-45.491467,0.31409264,-60.09035
UncalGyro,1676594689676,122193306787120,-0.31505376,-2.3434317,1.9848539,0.00034801557,-0.0007832452,-0.0032856367
UncalAccel,1676594689675,122193306787120,6.8979096,1.9998015,11.043475,0.006110925,-0.043260336,-0.038735468
OrientationDeg,1676594689675,122193306787120,56.0,-25.0,-15.0
UncalGyro,1676594689684,122193315766491,-0.35170567,-2.02624,1.8409951,0.00034801557,-0.0007832452,-0.0032856367
UncalAccel,1676594689685,122193315766491,6.1734824,1.6301104,11.453245,0.006110925,-0.043260336,-0.038735468
UncalMag,1676594689685,122193315855724,-83.4602,1.4884,-88.9868,-45.491467,0.31409264,-60.09035
OrientationDeg,1676594689685,122193315766491,55.0,-26.0,-15.0
UncalGyro,1676594689693,122193324745983,-0.49373183,-1.6504052,1.7722728,0.00034801557,-0.0007832452,-0.0032856367
UncalAccel,1676594689693,122193324745983,5.7517476,1.0671989,10.990832,0.006110925,-0.043260336,-0.038735468
UncalMag,1676594689694,122193325855724,-83.4724,2.1471999,-87.071396,-45.491467,0.31409264,-60.09035
OrientationDeg,1676594689694,122193324745983,55.0,-27.0,-14.0
UncalGyro,1676594689702,122193333725353,-0.6391178,-1.3413074,1.757612,0.00034801557,-0.0007832452,-0.0032856367
UncalAccel,1676594689703,122193333725353,5.682954,0.85184485,11.141581,0.006110925,-0.043260336,-0.038735468
OrientationDeg,1676594689703,122193333725353,54.0,-28.0,-13.0
UncalMag,1676594689704,122193335867199,-82.7892,3.355,-86.632195,-45.491467,0.31409264,-60.09035
UncalGyro,1676594689712,122193342704845,-0.6568329,-1.1281154,1.7789923,0.00034801557,-0.0007832452,-0.0032856367
UncalAccel,1676594689712,122193342704845,5.749355,0.67417777,11.799008,0.006110925,-0.043260336,-0.038735468
OrientationDeg,1676594689712,122193342704845,53.0,-29.0,-13.0
UncalMag,1676594689715,122193345867443,-82.728195,3.9772,-84.8144,-45.491467,0.31409264,-60.09035
UncalGyro,1676594689721,122193351680797,-0.5306892,-0.978148,1.7733418,0.00034801557,-0.0007832452,-0.0032856367
UncalAccel,1676594689720,122193351680797,6.0113688,0.35174492,12.37508,0.006110925,-0.043260336,-0.038735468
OrientationDeg,1676594689720,122193351680797,53.0,-29.0,-12.0
UncalMag,1676594689725,122193355867687,-85.0828,4.0626,-85.6318,-45.491467,0.31409264,-60.09035
OrientationDeg,1676594689730,122193360668163,52.0,-30.0,-11.0
UncalGyro,1676594689730,122193360668163,-0.30711251,-0.8378017,1.7724255,0.00034801557,-0.0007832452,-0.0032856367
UncalAccel,1676594689730,122193360668163,5.866603,0.30927232,12.664612,0.006110925,-0.043260336,-0.038735468
UncalMag,1676594689734,122193365867443,-84.7656,5.612,-85.2536,-45.491467,0.31409264,-60.09035
UncalGyro,1676594689738,122193369646190,-0.08750644,-0.70432764,1.7670804,0.00034801557,-0.0007832452,-0.0032856367
UncalAccel,1676594689739,122193369646190,5.784649,0.19441684,11.71526,0.006110925,-0.043260336,-0.038735468
OrientationDeg,1676594689739,122193369646190,51.0,-30.0,-11.0
UncalMag,1676594689745,122193375867931,-86.0344,5.8194,-84.6436,-45.491467,0.31409264,-60.09035
UncalGyro,1676594689748,122193378621776,0.058184914,-0.61162883,1.7977765,0.00034801557,-0.0007832452,-0.0032856367
UncalAccel,1676594689748,122193378621776,5.283951,-0.11485548,10.329815,0.006110925,-0.043260336,-0.038735468
OrientationDeg,1676594689748,122193378621776,50.0,-31.0,-10.0
UncalMag,1676594689754,122193385856456,-84.606995,6.9174,-84.851,-45.491467,0.31409264,-60.09035
UncalGyro,1676594689756,122193387601635,0.11789699,-0.6009387,1.8698585,0.00034801557,-0.0007832452,-0.0032856367
UncalAccel,1676594689757,122193387601635,5.2109694,-0.2015953,8.493922,0.006110925,-0.043260336,-0.038735468
OrientationDeg,1676594689756,122193387601635,49.0,-31.0,-10.0
UncalMag,1676594689764,122193395867443,-85.4732,7.3444,-84.0946,-45.491467,0.31409264,-60.09035
UncalGyro,1676594689766,122193396580944,0.13057245,-0.7648033,1.916437,0.00034801557,-0.0007832452,-0.0032856367
UncalAccel,1676594689765,122193396580944,5.7469616,0.17826529,6.8111696,0.006110925,-0.043260336,-0.038735468
OrientationDeg,1676594689765,122193396580944,49.0,-32.0,-9.0
UncalGyro,1676594689775,122193405560436,0.1459968,-1.0395399,1.9269744,0.00034801557,-0.0007832452,-0.0032856367
UncalAccel,1676594689775,122193405560436,6.2327046,0.424726,6.300302,0.006110925,-0.043260336,-0.038735468
UncalMag,1676594689775,122193405863048,-86.498,8.3448,-84.0214,-45.491467,0.31409264,-60.09035
OrientationDeg,1676594689775,122193405560436,48.0,-33.0,-9.0
UncalGyro,1676594689784,122193414539806,0.18982637,-1.2620476,1.9315559,0.00034801557,-0.0007832452,-0.0032856367
UncalAccel,1676594689784,122193414539806,6.582655,0.34097722,6.6777697,0.006110925,-0.043260336,-0.038735468
UncalMag,1676594689785,122193415867687,-86.498,8.3448,-84.0214,-45.491467,0.31409264,-60.09035
OrientationDeg,1676594689783,122193414539806,47.0,-33.0,-8.0
UncalGyro,1676594689792,122193423522716,0.22342396,-1.3759739,1.9252945,0.00034801557,-0.0007832452,-0.0032856367
UncalAccel,1676594689792,122193423522716,6.8482585,0.6029913,6.4325056,0.006110925,-0.043260336,-0.038735468
OrientationDeg,1676594689793,122193423522716,46.0,-34.0,-8.0
UncalMag,1676594689795,122193425867687,-85.4244,9.577,-82.410995,-45.491467,0.31409264,-60.09035
UncalGyro,1676594689801,122193432495616,0.19547687,-1.4957036,1.8860464,0.00034801557,-0.0007832452,-0.0032856367
UncalAccel,1676594689801,122193432495616,7.0779696,1.0085747,4.9058847,0.006110925,-0.043260336,-0.038735468
OrientationDeg,1676594689801,122193432495616,45.0,-35.0,-7.0
UncalMag,1676594689804,122193435867687,-86.461395,10.4432,-81.3496,-45.491467,0.31409264,-60.09035
UncalGyro,1676594689810,122193441475535,0.09468412,-1.7133243,1.8344283,0.00034801557,-0.0007832452,-0.0032856367
UncalAccel,1676594689810,122193441475535,7.3609204,0.71365935,3.2327034,0.006110925,-0.043260336,-0.038735468
OrientationDeg,1676594689811,122193441475535,44.0,-36.0,-7.0
UncalMag,1676594689814,122193445867687,-87.4496,10.906799,-81.800995,-45.491467,0.31409264,-60.09035
UncalGyro,1676594689820,122193450448131,-0.048258353,-1.9555323,1.815186,0.00034801557,-0.0007832452,-0.0032856367
UncalAccel,1676594689819,122193450448131,7.11446,-0.4211368,3.0400813,0.006110925,-0.043260336,-0.038735468
OrientationDeg,1676594689820,122193450448131,44.0,-37.0,-6.0
UncalMag,1676594689824,122193455867443,-85.204796,12.505,-80.3004,-45.491467,0.31409264,-60.09035
UncalGyro,1676594689829,122193459439403,-0.2049453,-2.0576997,1.8577939,0.00034801557,-0.0007832452,-0.0032856367
OrientationDeg,1676594689828,122193459439403,43.0,-39.0,-6.0
UncalAccel,1676594689829,122193459439403,6.5611196,-1.9328024,3.76391,0.006110925,-0.043260336,-0.038735468
UncalMag,1676594689835,122193465867687,-86.144196,13.1516,-79.3854,-45.491467,0.31409264,-60.09035
UncalGyro,1676594689837,122193468404552,-0.36942077,-1.9802724,1.9848539,0.00034801557,-0.0007832452,-0.0032856367
UncalAccel,1676594689837,122193468404552,6.1561346,-3.2440693,4.536792,0.006110925,-0.043260336,-0.038735468
OrientationDeg,1676594689838,122193468404552,42.0,-40.0,-5.0
UncalMag,1676594689845,122193475865246,-85.997795,14.871799,-78.6534,-45.491467,0.31409264,-60.09035
UncalGyro,1676594689847,122193477383739,-0.514654,-1.8393153,2.1817052,0.00034801557,-0.0007832452,-0.0032856367
UncalAccel,1676594689846,122193477383739,6.326623,-3.9158542,4.715057,0.006110925,-0.043260336,-0.038735468
OrientationDeg,1676594689846,122193477383739,41.0,-41.0,-4.0
UncalMag,1676594689855,122193485863048,-88.010796,14.700999,-77.1772,-45.491467,0.31409264,-60.09035
UncalGyro,1676594689855,122193486372081,-0.58062744,-1.775938,2.424524,0.00034801557,-0.0007832452,-0.0032856367
UncalAccel,1676594689855,122193486372081,5.79422,-4.1383867,5.069195,0.006110925,-0.043260336,-0.038735468
OrientationDeg,1676594689856,122193486372081,41.0,-42.0,-3.0
UncalGyro,1676594689865,122193495353893,-0.60231316,-1.7695239,2.671161,0.00034801557,-0.0007832452,-0.0032856367
UncalAccel,1676594689865,122193495353893,6.181857,-3.9487555,5.1050873,0.006110925,-0.043260336,-0.038735468
UncalMag,1676594689864,122193495855968,-86.3394,16.0796,-77.8238,-45.491467,0.31409264,-60.09035
OrientationDeg,1676594689864,122193495353893,40.0,-43.0,-1.0
UncalGyro,1676594689873,122193504336558,-0.643852,-1.7498235,2.8394544,0.00034801557,-0.0007832452,-0.0032856367
UncalAccel,1676594689874,122193504336558,7.02772,-3.6179478,5.139185,0.006110925,-0.043260336,-0.038735468
OrientationDeg,1676594689873,122193504336558,39.0,-44.0,0.0
UncalMag,1676594689875,122193505867687,-86.8884,17.69,-75.395996,-45.491467,0.31409264,-60.09035
UncalGyro,1676594689883,122193513313488,-0.7237226,-1.727985,2.9290988,0.00034801557,-0.0007832452,-0.0032856367
UncalAccel,1676594689883,122193513313488,7.4273214,-3.4576287,4.5744786,0.006110925,-0.043260336,-0.038735468
OrientationDeg,1676594689883,122193513313488,38.0,-44.0,0.0
UncalMag,1676594689885,122193515867687,-87.8034,18.385399,-77.9458,-45.491467,0.31409264,-60.09035
UncalGyro,1676594689892,122193522292736,-0.8426886,-1.7970128,2.9869783,0.00034801557,-0.0007832452,-0.0032856367
UncalAccel,1676594689892,122193522292736,7.3268228,-3.534199,3.5730824,0.006110925,-0.043260336,-0.038735468
OrientationDeg,1676594689892,122193522292736,38.0,-45.0,2.0
UncalMag,1676594689895,122193525867443,-88.3524,19.4956,-75.2984,-45.491467,0.31409264,-60.09035
UncalGyro,1676594689901,122193531271984,-1.0140363,-1.9434677,3.0399709,0.00034801557,-0.0007832452,-0.0032856367
UncalAccel,1676594689901,122193531271984,7.2783685,-4.1383867,2.8594232,0.006110925,-0.043260336,-0.038735468
OrientationDeg,1676594689900,122193531271984,37.0,-46.0,3.0
UncalMag,1676594689904,122193535855724,-89.1698,20.642399,-75.6522,-45.491467,0.31409264,-60.09035
UncalGyro,1676594689909,122193540251171,-1.2460123,-2.1065688,3.1247284,0.00034801557,-0.0007832452,-0.0032856367
UncalAccel,1676594689910,122193540251171,6.95115,-5.176872,2.7672994,0.006110925,-0.043260336,-0.038735468
OrientationDeg,1676594689910,122193540251171,36.0,-47.0,5.0
UncalMag,1676594689914,122193545856212,-86.4004,22.9482,-73.2,-45.491467,0.31409264,-60.09035
OrientationDeg,1676594689919,122193549230663,36.0,-49.0,7.0
UncalGyro,1676594689919,122193549230663,-1.5409076,-2.176513,3.2797356,0.00034801557,-0.0007832452,-0.0032856367
UncalAccel,1676594689919,122193549230663,6.323034,-6.5491557,3.438486,0.006110925,-0.043260336,-0.038735468
UncalMag,1676594689924,122193555867443,-87.108,24.107199,-71.040596,-45.491467,0.31409264,-60.09035
UncalGyro,1676594689928,122193558210155,-1.946064,-2.0433443,3.506672,0.00034801557,-0.0007832452,-0.0032856367
UncalAccel,1676594689928,122193558210155,6.257231,-7.862217,4.065406,0.006110925,-0.043260336,-0.038735468
OrientationDeg,1676594689928,122193558210155,35.0,-50.0,9.0
UncalMag,1676594689935,122193565867687,-84.7168,26.779,-70.9308,-45.491467,0.31409264,-60.09035
UncalGyro,1676594689937,122193567188854,-2.4207063,-1.8791742,3.6905425,0.00034801557,-0.0007832452,-0.0032856367
UncalAccel,1676594689936,122193567188854,6.9816585,-8.566305,4.0648074,0.006110925,-0.043260336,-0.038735468
OrientationDeg,1676594689936,122193567188854,35.0,-50.0,11.0
UncalMag,1676594689944,122193575867931,-82.6428,28.621199,-69.7352,-45.491467,0.31409264,-60.09035
UncalGyro,1676594689946,122193576166026,-2.9422324,-1.6856827,3.8140898,0.00034801557,-0.0007832452,-0.0032856367
UncalAccel,1676594689946,122193576166026,7.658229,-9.068798,4.3178487,0.006110925,-0.043260336,-0.038735468
OrientationDeg,1676594689946,122193576166026,35.0,-51.0,14.0
UncalGyro,1676594689955,122193585147960,-3.4565809,-1.5447255,3.8582249,0.00034801557,-0.0007832452,-0.0032856367
UncalAccel,1676594689954,122193585147960,8.218747,-9.192028,4.4727836,0.006110925,-0.043260336,-0.038735468
UncalMag,1676594689954,122193585855968,-82.6062,29.8046,-69.1252,-45.491467,0.31409264,-60.09035
OrientationDeg,1676594689954,122193585147960,35.0,-52.0,17.0
OrientationDeg,1676594689964,122193594130260,36.0,-53.0,19.0
UncalGyro,1676594689963,122193594130260,-3.9022071,-1.5244142,3.8876991,0.00034801557,-0.0007832452,-0.0032856367
UncalAccel,1676594689964,122193594130260,8.447262,-9.716056,4.699504,0.006110925,-0.043260336,-0.038735468
UncalMag,1676594689965,122193595867443,-81.7278,31.146599,-67.2586,-45.491467,0.31409264,-60.09035
UncalGyro,1676594689972,122193603107128,-4.2120686,-1.6930131,4.060116,0.00034801557,-0.0007832452,-0.0032856367
UncalAccel,1676594689972,122193603107128,8.128419,-11.16192,5.22413,0.006110925,-0.043260336,-0.038735468
OrientationDeg,1676594689973,122193603107128,36.0,-54.0,22.0
UncalMag,1676594689974,122193605867443,-80.861595,33.2206,-65.88,-45.491467,0.31409264,-60.09035
UncalGyro,1676594689981,122193612085949,-4.3600507,-1.914299,4.4350343,0.00034801557,-0.0007832452,-0.0032856367
UncalAccel,1676594689981,122193612085949,7.6253276,-11.968899,6.4905314,0.006110925,-0.043260336,-0.038735468
OrientationDeg,1676594689982,122193612085949,37.0,-55.0,26.0
UncalMag,1676594689985,122193615867687,-80.1296,35.1238,-64.3916,-45.491467,0.31409264,-60.09035
UncalGyro,1676594689991,122193621065685,-4.359745,-2.1415408,4.57813,0.00034801557,-0.0007832452,-0.0032856367
UncalAccel,1676594689991,122193621065685,8.09791,-12.292528,7.8203425,0.006110925,-0.043260336,-0.038735468
OrientationDeg,1676594689990,122193621065685,38.0,-57.0,29.0
UncalMag,1676594689994,122193625855724,-81.9718,35.3434,-63.8182,-45.491467,0.31409264,-60.09035
UncalGyro,1676594689999,122193630044994,-4.1604505,-2.2872322,4.506811,0.00034801557,-0.0007832452,-0.0032856367
UncalAccel,1676594690000,122193630044994,8.655437,-12.597014,9.327223,0.006110925,-0.043260336,-0.038735468
OrientationDeg,1676594690000,122193630044994,39.0,-58.0,32.0
UncalMag,1676594690004,122193635867443,-80.154,37.4296,-61.121998,-45.491467,0.31409264,-60.09035
