# 
# Header Description:
# 
# Version: v3.0.5.6 Platform: 13 Manufacturer: Google Model: Pixel 6
# 
# Raw,utcTimeMillis,TimeNanos,LeapSecond,TimeUncertaintyNanos,FullBiasNanos,BiasNanos,BiasUncertaintyNanos,DriftNanosPerSecond,DriftUncertaintyNanosPerSecond,HardwareClockDiscontinuityCount,Svid,TimeOffsetNanos,State,ReceivedSvTimeNanos,ReceivedSvTimeUncertaintyNanos,Cn0DbHz,PseudorangeRateMetersPerSecond,PseudorangeRateUncertaintyMetersPerSecond,AccumulatedDeltaRangeState,AccumulatedDeltaRangeMeters,AccumulatedDeltaRangeUncertaintyMeters,CarrierFrequencyHz,CarrierCycles,CarrierPhase,CarrierPhaseUncertainty,MultipathIndicator,SnrInDb,ConstellationType,AgcDb,BasebandCn0DbHz,FullInterSignalBiasNanos,FullInterSignalBiasUncertaintyNanos,SatelliteInterSignalBiasNanos,SatelliteInterSignalBiasUncertaintyNanos,CodeType,ChipsetElapsedRealtimeNanos
# 
# UncalAccel,utcTimeMillis,elapsedRealtimeNanos,UncalAccelXMps2,UncalAccelYMps2,UncalAccelZMps2,BiasXMps2,BiasYMps2,BiasZMps2
# 
# Accel,utcTimeMillis,elapsedRealtimeNanos,AccelXMps2,AccelYMps2,AccelZMps2
# 
# UncalGyro,utcTimeMillis,elapsedRealtimeNanos,UncalGyroXRadPerSec,UncalGyroYRadPerSec,UncalGyroZRadPerSec,DriftXRadPerSec,DriftYRadPerSec,DriftZRadPerSec
# 
# Gyro,utcTimeMillis,elapsedRealtimeNanos,GyroXRadPerSec,GyroYRadPerSec,GyroZRadPerSec
# 
# UncalMag,utcTimeMillis,elapsedRealtimeNanos,UncalMagXMicroT,UncalMagYMicroT,UncalMagZMicroT,BiasXMicroT,BiasYMicroT,BiasZMicroT
# 
# Mag,utcTimeMillis,elapsedRealtimeNanos,MagXMicroT,MagYMicroT,MagZMicroT
# 
# OrientationDeg,utcTimeMillis,elapsedRealtimeNanos,yawDeg,rollDeg,pitchDeg
# 
# Fix,Provider,LatitudeDegrees,LongitudeDegrees,AltitudeMeters,SpeedMps,AccuracyMeters,BearingDegrees,UnixTimeMillis,SpeedAccuracyMps,BearingAccuracyDegrees,elapsedRealtimeNanos,VerticalAccuracyMeters
# 
# Nav,Svid,Type,Status,MessageId,Sub-messageId,Data(Bytes)
# 
# Status,UnixTimeMillis,SignalCount,SignalIndex,ConstellationType,Svid,CarrierFrequencyHz,Cn0DbHz,AzimuthDegrees,ElevationDegrees,UsedInFix,HasAlmanacData,HasEphemerisData,BasebandCn0DbHz
# 
UncalAccel,1676593894125,121397756732250,-0.95832545,0.34277186,9.808778,0.006110925,-0.043260336,-0.038735468
UncalMag,1676593894129,121397760010021,-47.982597,16.7384,-111.373795,-47.771046,2.9698257,-64.15999
UncalGyro,1676593894130,121397761223705,-0.7113526,-0.25350907,0.5410739,0.00046916603,-0.0009971252,-0.0032406067
UncalAccel,1676593894134,121397765712291,-1.3782659,-0.93978107,9.84826,0.006110925,-0.043260336,-0.038735468
UncalMag,1676593894139,121397769999279,-49.836998,16.909199,-112.7402,-47.771046,2.9698257,-64.15999
UncalGyro,1676593894140,121397770204540,-0.75655663,-0.34437528,0.9222538,0.00046916603,-0.0009971252,-0.0032406067
UncalAccel,1676593894144,121397774692577,-0.88414794,0.43848476,10.357931,0.006110925,-0.043260336,-0.038735468
OrientationDeg,1676593894144,121397774692577,2.0,1.0,-14.0
UncalGyro,1676593894148,121397779183666,-0.73548174,-0.34376442,1.1665999,0.00046916603,-0.0009971252,-0.0032406067
UncalMag,1676593894149,121397779999279,-46.7748,17.9828,-110.3734,-47.771046,2.9698257,-64.15999
UncalAccel,1676593894153,121397783672313,-0.75912297,1.7180467,11.103893,0.006110925,-0.043260336,-0.038735468
OrientationDeg,1676593894153,121397783672313,1.0,0.0,-14.0
Fix,FLP,37.4312950000,-122.1550316000,-16.100000381469727,0.24314542,4.193,69.63079,1676593893968,,,121397599601451,3.5493574
UncalGyro,1676593894157,121397788165233,-0.66981375,-0.2275473,1.2304354,0.00046916603,-0.0009971252,-0.0032406067
UncalMag,1676593894160,121397790000011,-47.0188,17.873,-109.324196,-47.771046,2.9698257,-64.15999
UncalAccel,1676593894162,121397792656017,-0.6334998,2.0338993,11.320444,0.006110925,-0.043260336,-0.038735468
OrientationDeg,1676593894161,121397792656017,0.0,0.0,-13.0
UncalGyro,1676593894167,121397797142589,-0.5896377,-0.014966198,1.1751521,0.00046916603,-0.0009971252,-0.0032406067
UncalMag,1676593894170,121397800000255,-44.9204,19.434599,-111.1054,-47.771046,2.9698257,-64.15999
UncalAccel,1676593894170,121397801632335,-0.10468599,1.9591235,11.241481,0.006110925,-0.043260336,-0.038735468
OrientationDeg,1676593894170,121397801632335,0.0,0.0,-13.0
UncalGyro,1676593894175,121397806123302,-0.49571714,0.22922719,1.0774136,0.00046916603,-0.0009971252,-0.0032406067
UncalMag,1676593894180,121397810000988,-46.1648,18.8612,-110.959,-47.771046,2.9698257,-64.15999
UncalAccel,1676593894179,121397810612377,0.3367898,2.1625135,11.02493,0.006110925,-0.043260336,-0.038735468
OrientationDeg,1676593894180,121397810612377,359.0,0.0,-13.0
UncalGyro,1676593894185,121397815102489,-0.3359759,0.3903429,0.9747882,0.00046916603,-0.0009971252,-0.0032406067
UncalAccel,1676593894189,121397819590647,0.5138587,2.501696,10.355538,0.006110925,-0.043260336,-0.038735468
UncalMag,1676593894188,121397819999279,-47.274998,18.91,-112.6548,-47.771046,2.9698257,-64.15999
OrientationDeg,1676593894188,121397819590647,359.0,0.0,-13.0
UncalGyro,1676593894194,121397824082652,-0.06795876,0.33368513,0.88407475,0.00046916603,-0.0009971252,-0.0032406067
UncalAccel,1676593894198,121397828572704,0.5180461,2.6452653,9.7704935,0.006110925,-0.043260336,-0.038735468
OrientationDeg,1676593894197,121397828572704,358.0,0.0,-13.0
UncalMag,1676593894200,121397830002697,-48.5316,17.8974,-112.85,-47.771046,2.9698257,-64.15999
UncalGyro,1676593894203,121397833062511,0.31215215,0.1001819,0.8051204,0.00046916603,-0.0009971252,-0.0032406067
UncalAccel,1676593894206,121397837551036,0.25663024,2.3928227,10.1348,0.006110925,-0.043260336,-0.038735468
OrientationDeg,1676593894206,121397837551036,358.0,0.0,-13.0
UncalMag,1676593894210,121397840003673,-44.5178,19.1052,-110.3856,-47.771046,2.9698257,-64.15999
UncalGyro,1676593894211,121397842043345,0.764956,-0.13439035,0.75243324,0.00046916603,-0.0009971252,-0.0032406067
UncalAccel,1676593894216,121397846536388,-0.1477568,1.9830518,11.255837,0.006110925,-0.043260336,-0.038735468
OrientationDeg,1676593894216,121397846536388,358.0,0.0,-14.0
UncalMag,1676593894220,121397850004894,-44.859398,18.4098,-110.6418,-47.771046,2.9698257,-64.15999
UncalGyro,1676593894221,121397851023326,1.2518156,-0.26206118,0.7324274,0.00046916603,-0.0009971252,-0.0032406067
UncalAccel,1676593894225,121397855510814,-0.48454657,1.6594225,12.372089,0.006110925,-0.043260336,-0.038735468
OrientationDeg,1676593894225,121397855510814,357.0,0.0,-15.0
UncalGyro,1676593894230,121397860001720,1.7143933,-0.3126103,0.7098254,0.00046916603,-0.0009971252,-0.0032406067
UncalMag,1676593894229,121397860008068,-44.0176,18.0804,-110.897995,-47.771046,2.9698257,-64.15999
UncalAccel,1676593894233,121397864488963,-0.08255238,2.00698,11.713465,0.006110925,-0.043260336,-0.038735468
OrientationDeg,1676593894233,121397864488963,357.0,0.0,-15.0
UncalGyro,1676593894238,121397868986400,1.9327776,-0.5705481,0.57757306,0.00046916603,-0.0009971252,-0.0032406067
UncalMag,1676593894239,121397869999523,-46.579597,16.0796,-110.8736,-47.771046,2.9698257,-64.15999
UncalAccel,1676593894242,121397873471508,1.5864414,3.0885358,8.433503,0.006110925,-0.043260336,-0.038735468
OrientationDeg,1676593894243,121397873471508,357.0,0.0,-16.0
UncalGyro,1676593894246,121397877963512,1.7463111,-1.3199271,0.2611449,0.00046916603,-0.0009971252,-0.0032406067
UncalMag,1676593894250,121397880000255,-45.079,16.2138,-110.959,-47.771046,2.9698257,-64.15999
UncalAccel,1676593894252,121397882450023,2.75713,4.040281,7.3190465,0.006110925,-0.043260336,-0.038735468
OrientationDeg,1676593894251,121397882450023,357.0,-1.0,-17.0
UncalGyro,1676593894255,121397886945628,1.4585935,-2.0905335,-0.1554652,0.00046916603,-0.0009971252,-0.0032406067
UncalMag,1676593894260,121397890010753,-49.5076,13.7128,-118.3278,-47.771046,2.9698257,-64.15999
UncalAccel,1676593894261,121397891442821,3.9056847,4.1635113,8.559127,0.006110925,-0.043260336,-0.038735468
OrientationDeg,1676593894260,121397891442821,357.0,-2.0,-18.0
UncalGyro,1676593894264,121397895933848,1.3281738,-2.5320365,-0.6560693,0.00046916603,-0.0009971252,-0.0032406067
UncalMag,1676593894270,121397900010998,-50.398197,14.0056,-111.373795,-47.771046,2.9698257,-64.15999
UncalAccel,1676593894269,121397900422374,4.4889355,3.8153558,9.613165,0.006110925,-0.043260336,-0.038735468
UncalGyro,1676593894274,121397904911022,1.3141239,-2.6865854,-1.155299,0.00046916603,-0.0009971252,-0.0032406067
OrientationDeg,1676593894270,121397900422374,357.0,-4.0,-19.0
UncalAccel,1676593894279,121397909400340,4.7509494,3.6843486,10.386046,0.006110925,-0.043260336,-0.038735468
UncalMag,1676593894278,121397909999279,-52.6918,13.2126,-114.9118,-47.771046,2.9698257,-64.15999
OrientationDeg,1676593894278,121397909400340,358.0,-5.0,-19.0
UncalGyro,1676593894282,121397913891918,1.3603969,-2.6212227,-1.611768,0.00046916603,-0.0009971252,-0.0032406067
UncalAccel,1676593894287,121397918379589,4.6025944,3.8817565,10.872388,0.006110925,-0.043260336,-0.038735468
OrientationDeg,1676593894288,121397918379589,359.0,-6.0,-20.0
UncalMag,1676593894290,121397920010753,-52.4234,13.1272,-113.7406,-47.771046,2.9698257,-64.15999
UncalGyro,1676593894292,121397922870678,1.4576772,-2.3860397,-2.0147862,0.00046916603,-0.0009971252,-0.0032406067
UncalAccel,1676593894296,121397927358470,4.2221355,4.061816,11.00519,0.006110925,-0.043260336,-0.038735468
OrientationDeg,1676593894297,121397927358470,0.0,-7.0,-21.0
UncalMag,1676593894300,121397930010753,-53.118797,12.0658,-111.837395,-47.771046,2.9698257,-64.15999
UncalGyro,1676593894301,121397931848278,1.5738943,-2.0404427,-2.3553436,0.00046916603,-0.0009971252,-0.0032406067
UncalAccel,1676593894305,121397936338939,3.5419757,3.9888353,10.524831,0.006110925,-0.043260336,-0.038735468
OrientationDeg,1676593894305,121397936338939,1.0,-7.0,-22.0
UncalMag,1676593894309,121397940010998,-51.7402,11.407,-111.8862,-47.771046,2.9698257,-64.15999
UncalGyro,1676593894309,121397940830028,1.6696475,-1.7121025,-2.6132815,0.00046916603,-0.0009971252,-0.0032406067
UncalAccel,1676593894315,121397945319774,3.1627133,3.8327036,8.897113,0.006110925,-0.043260336,-0.038735468
OrientationDeg,1676593894314,121397945319774,3.0,-7.0,-23.0
UncalGyro,1676593894318,121397949811046,1.7276796,-1.6126842,-2.7682886,0.00046916603,-0.0009971252,-0.0032406067
UncalMag,1676593894320,121397950003185,-54.4486,10.516399,-111.068794,-47.771046,2.9698257,-64.15999
UncalAccel,1676593894324,121397954299022,2.53041,3.4283166,7.9914293,0.006110925,-0.043260336,-0.038735468
OrientationDeg,1676593894323,121397954299022,4.0,-8.0,-24.0
UncalGyro,1676593894328,121397958789623,1.6901114,-1.6418531,-2.7899742,0.00046916603,-0.0009971252,-0.0032406067
UncalMag,1676593894330,121397960000988,-56.4372,8.3326,-111.4104,-47.771046,2.9698257,-64.15999
UncalAccel,1676593894332,121397963277904,1.6247265,2.8582265,7.9657063,0.006110925,-0.043260336,-0.038735468
OrientationDeg,1676593894333,121397963277904,5.0,-8.0,-25.0
UncalGyro,1676593894337,121397967769115,1.4825699,-1.5818355,-2.6626089,0.00046916603,-0.0009971252,-0.0032406067
UncalMag,1676593894339,121397970010509,-59.5848,6.4782,-113.081795,-47.771046,2.9698257,-64.15999
UncalAccel,1676593894341,121397972258190,0.77587277,2.6476583,7.722237,0.006110925,-0.043260336,-0.038735468
OrientationDeg,1676593894342,121397972258190,7.0,-8.0,-26.0
UncalGyro,1676593894346,121397976749218,1.3052663,-1.370629,-2.4656048,0.00046916603,-0.0009971252,-0.0032406067
UncalMag,1676593894349,121397980010509,-58.242798,7.2223997,-112.2644,-47.771046,2.9698257,-64.15999
UncalAccel,1676593894350,121397981235362,-1.3980067,2.3204398,8.230113,0.006110925,-0.043260336,-0.038735468
OrientationDeg,1676593894351,121397981235362,8.0,-8.0,-27.0
UncalGyro,1676593894355,121397985718395,1.1339186,-0.9815077,-1.9654589,0.00046916603,-0.0009971252,-0.0032406067
UncalMag,1676593894359,121397990010753,-59.231,5.429,-111.142,-47.771046,2.9698257,-64.15999
UncalAccel,1676593894359,121397990214732,-13.288541,2.4969103,8.796615,0.006110925,-0.043260336,-0.038735468
OrientationDeg,1676593894360,121397990214732,9.0,-8.0,-28.0
UncalGyro,1676593894364,121397994696910,1.0270172,-0.60154957,-0.46609017,0.00046916603,-0.0009971252,-0.0032406067
UncalAccel,1676593894368,121397999200267,-14.250455,3.9607196,8.861818,0.006110925,-0.043260336,-0.038735468
UncalMag,1676593894369,121397999999279,-60.353397,5.551,-113.9358,-47.771046,2.9698257,-64.15999
OrientationDeg,1676593894369,121397999200267,8.0,-8.0,-28.0
UncalGyro,1676593894373,121398003689769,0.84436846,-0.22220223,0.9680687,0.00046916603,-0.0009971252,-0.0032406067
UncalAccel,1676593894378,121398008181774,-3.702893,3.3930225,6.495317,0.006110925,-0.043260336,-0.038735468
OrientationDeg,1676593894377,121398008181774,7.0,-9.0,-28.0
UncalMag,1676593894380,121398010010998,-58.133,5.5144,-110.776,-47.771046,2.9698257,-64.15999
UncalGyro,1676593894381,121398012668102,0.5306892,-0.08231409,1.4987578,0.00046916603,-0.0009971252,-0.0032406067
UncalAccel,1676593894386,121398017156932,2.3084757,2.4119651,5.9120665,0.006110925,-0.043260336,-0.038735468
OrientationDeg,1676593894387,121398017156932,7.0,-9.0,-28.0
UncalMag,1676593894390,121398020010753,-53.814198,7.7714,-107.7016,-47.771046,2.9698257,-64.15999
UncalGyro,1676593894390,121398021648632,0.29138273,-0.04352415,1.5490016,0.00046916603,-0.0009971252,-0.0032406067
UncalAccel,1676593894396,121398026133922,4.421936,2.5441687,7.743174,0.006110925,-0.043260336,-0.038735468
OrientationDeg,1676593894396,121398026133922,6.0,-10.0,-28.0
UncalMag,1676593894400,121398030010998,-55.839397,7.4663997,-111.068794,-47.771046,2.9698257,-64.15999
UncalGyro,1676593894400,121398030615916,0.22571471,0.21655174,1.4194981,0.00046916603,-0.0009971252,-0.0032406067
UncalAccel,1676593894404,121398035112377,5.0733824,3.2075787,10.003794,0.006110925,-0.043260336,-0.038735468
OrientationDeg,1676593894405,121398035112377,5.0,-10.0,-28.0
UncalGyro,1676593894408,121398039607372,0.30695978,0.69898254,1.2574661,0.00046916603,-0.0009971252,-0.0032406067
UncalMag,1676593894408,121398039999279,-59.6214,5.3924,-110.471,-47.771046,2.9698257,-64.15999
UncalAccel,1676593894413,121398044099009,4.788636,2.969493,10.42493,0.006110925,-0.043260336,-0.038735468
OrientationDeg,1676593894413,121398044099009,4.0,-10.0,-28.0
UncalGyro,1676593894418,121398048585277,0.47143525,1.0920744,1.2241739,0.00046916603,-0.0009971252,-0.0032406067
UncalMag,1676593894419,121398050010753,-58.950397,5.4168,-110.0928,-47.771046,2.9698257,-64.15999
UncalAccel,1676593894422,121398053065379,4.1234317,2.6183462,9.4432745,0.006110925,-0.043260336,-0.038735468
OrientationDeg,1676593894423,121398053065379,3.0,-10.0,-28.0
UncalGyro,1676593894427,121398057568004,0.643852,1.2293663,1.3342824,0.00046916603,-0.0009971252,-0.0032406067
UncalMag,1676593894430,121398060010998,-56.925198,5.8194,-109.678,-47.771046,2.9698257,-64.15999
UncalAccel,1676593894431,121398062055858,3.347559,2.9389844,7.7210402,0.006110925,-0.043260336,-0.038735468
OrientationDeg,1676593894432,121398062055858,2.0,-9.0,-29.0
UncalGyro,1676593894435,121398066549510,0.7484626,1.0483974,1.4873042,0.00046916603,-0.0009971252,-0.0032406067
UncalMag,1676593894439,121398070008312,-56.8764,5.3557997,-110.2026,-47.771046,2.9698257,-64.15999
UncalAccel,1676593894440,121398071032664,2.3168504,3.2991042,5.569295,0.006110925,-0.043260336,-0.038735468
OrientationDeg,1676593894441,121398071032664,1.0,-9.0,-29.0
UncalGyro,1676593894444,121398075516002,0.7451029,0.5386304,1.6001616,0.00046916603,-0.0009971252,-0.0032406067
UncalAccel,1676593894450,121398080013378,1.2131611,3.0795627,3.8141594,0.006110925,-0.043260336,-0.038735468
UncalMag,1676593894450,121398080018566,-56.6446,5.6486,-110.9712,-47.771046,2.9698257,-64.15999
OrientationDeg,1676593894450,121398080013378,0.0,-10.0,-29.0
UncalGyro,1676593894453,121398084498668,0.6197228,-0.17928895,1.6701056,0.00046916603,-0.0009971252,-0.0032406067
UncalAccel,1676593894458,121398088997874,0.8207382,2.4149563,3.1226335,0.006110925,-0.043260336,-0.038735468
UncalMag,1676593894459,121398089999279,-55.131798,6.161,-111.995995,-47.771046,2.9698257,-64.15999
OrientationDeg,1676593894457,121398088997874,359.0,-11.0,-29.0
UncalGyro,1676593894463,121398093486949,0.39400807,-0.8176431,1.7447839,0.00046916603,-0.0009971252,-0.0032406067
UncalAccel,1676593894466,121398097976573,1.4853446,2.204986,3.4103706,0.006110925,-0.043260336,-0.038735468
OrientationDeg,1676593894467,121398097976573,358.0,-12.0,-29.0
UncalMag,1676593894470,121398100010753,-55.7906,5.5632,-111.2762,-47.771046,2.9698257,-64.15999
UncalGyro,1676593894471,121398102465465,0.1470658,-1.1549934,1.8393153,0.00046916603,-0.0009971252,-0.0032406067
UncalAccel,1676593894475,121398106954235,2.3479571,1.9938195,4.0995035,0.006110925,-0.043260336,-0.038735468
OrientationDeg,1676593894476,121398106954235,357.0,-13.0,-29.0
UncalMag,1676593894480,121398110010998,-55.4368,6.0878,-110.9834,-47.771046,2.9698257,-64.15999
UncalGyro,1676593894481,121398111445446,-0.06337727,-1.2782356,1.9327776,0.00046916603,-0.0009971252,-0.0032406067
UncalAccel,1676593894485,121398115934276,3.3720853,1.7958134,3.9744785,0.006110925,-0.043260336,-0.038735468
OrientationDeg,1676593894484,121398115934276,356.0,-14.0,-29.0
UncalMag,1676593894490,121398120010998,-58.072,4.8677998,-111.690994,-47.771046,2.9698257,-64.15999
UncalGyro,1676593894489,121398120425182,-0.23075435,-1.3578007,2.0176878,0.00046916603,-0.0009971252,-0.0032406067
UncalAccel,1676593894493,121398124915538,3.463611,1.8340986,4.7515473,0.006110925,-0.043260336,-0.038735468
OrientationDeg,1676593894494,121398124915538,355.0,-16.0,-28.0
Fix,NLP,37.4328054000,-122.1545190000,-15.80000114440918,,104.818,,1676593894256,,,121397887000000,2.097605
UncalGyro,1676593894499,121398129411327,-0.3633121,-1.4500414,2.080149,0.00046916603,-0.0009971252,-0.0032406067
UncalMag,1676593894500,121398130003917,-58.926,4.941,-111.4958,-47.771046,2.9698257,-64.15999
UncalAccel,1676593894502,121398133893871,3.62393,2.0494525,5.4017973,0.006110925,-0.043260336,-0.038735468
OrientationDeg,1676593894502,121398133893871,354.0,-17.0,-28.0
UncalGyro,1676593894508,121398138384349,-0.4448626,-1.5488489,2.1268802,0.00046916603,-0.0009971252,-0.0032406067
UncalMag,1676593894510,121398140010753,-60.5608,4.7702,-112.300995,-47.771046,2.9698257,-64.15999
UncalAccel,1676593894511,121398142871898,4.0869412,2.521437,6.059225,0.006110925,-0.043260336,-0.038735468
OrientationDeg,1676593894511,121398142871898,353.0,-18.0,-27.0
UncalGyro,1676593894517,121398147362621,-0.49357912,-1.626276,2.104889,0.00046916603,-0.0009971252,-0.0032406067
UncalMag,1676593894520,121398150010753,-59.7678,6.5025997,-109.665794,-47.771046,2.9698257,-64.15999
UncalAccel,1676593894521,121398151841503,4.24726,2.4921248,7.3082786,0.006110925,-0.043260336,-0.038735468
OrientationDeg,1676593894520,121398151841503,351.0,-20.0,-26.0
UncalGyro,1676593894525,121398156344249,-0.44715336,-1.6519324,2.0633502,0.00046916603,-0.0009971252,-0.0032406067
UncalMag,1676593894530,121398160010753,-59.7678,6.5025997,-109.665794,-47.771046,2.9698257,-64.15999
UncalAccel,1676593894529,121398160833141,4.8095737,2.5992036,7.492526,0.006110925,-0.043260336,-0.038735468
OrientationDeg,1676593894529,121398160833141,350.0,-21.0,-26.0
UncalGyro,1676593894534,121398165328013,-0.37323865,-1.551445,1.9653062,0.00046916603,-0.0009971252,-0.0032406067
UncalAccel,1676593894538,121398169810741,5.38744,2.7062824,7.4859457,0.006110925,-0.043260336,-0.038735468
UncalMag,1676593894540,121398170002453,-61.280598,7.4786,-109.617,-47.771046,2.9698257,-64.15999
OrientationDeg,1676593894539,121398169810741,349.0,-22.0,-25.0
UncalGyro,1676593894544,121398174296032,-0.28909197,-1.428203,1.8102992,0.00046916603,-0.0009971252,-0.0032406067
UncalAccel,1676593894547,121398178792309,6.259624,2.6668007,6.4366927,0.006110925,-0.043260336,-0.038735468
OrientationDeg,1676593894547,121398178792309,349.0,-23.0,-25.0
UncalMag,1676593894550,121398180010753,-59.2188,8.5644,-108.3726,-47.771046,2.9698257,-64.15999
UncalGyro,1676593894552,121398183283397,-0.29184088,-1.317331,1.6282613,0.00046916603,-0.0009971252,-0.0032406067
UncalAccel,1676593894556,121398187774242,5.596214,1.7647067,6.22433,0.006110925,-0.043260336,-0.038735468
OrientationDeg,1676593894557,121398187774242,348.0,-24.0,-24.0
UncalMag,1676593894560,121398190010753,-61.670998,8.296,-108.6044,-47.771046,2.9698257,-64.15999
UncalGyro,1676593894562,121398192260082,-0.35216382,-1.2556335,1.5464053,0.00046916603,-0.0009971252,-0.0032406067
UncalAccel,1676593894565,121398196740428,5.255835,0.94636136,5.4221363,0.006110925,-0.043260336,-0.038735468
OrientationDeg,1676593894565,121398196740428,347.0,-25.0,-24.0
UncalMag,1676593894569,121398200010998,-61.6344,9.0402,-108.2262,-47.771046,2.9698257,-64.15999
UncalGyro,1676593894570,121398201244030,-0.47540587,-1.2380711,1.5754215,0.00046916603,-0.0009971252,-0.0032406067
UncalAccel,1676593894574,121398205731884,4.7629137,0.06699903,5.382056,0.006110925,-0.043260336,-0.038735468
OrientationDeg,1676593894575,121398205731884,346.0,-26.0,-23.0
UncalMag,1676593894579,121398210010998,-63.4278,8.4302,-109.2876,-47.771046,2.9698257,-64.15999
UncalGyro,1676593894579,121398210222850,-0.59391373,-1.2788464,1.7458528,0.00046916603,-0.0009971252,-0.0032406067
UncalAccel,1676593894583,121398214696849,4.8675995,-0.5712864,5.4125648,0.006110925,-0.043260336,-0.038735468
OrientationDeg,1676593894583,121398214696849,346.0,-27.0,-22.0
UncalGyro,1676593894589,121398219191600,-0.675617,-1.3232869,2.0308216,0.00046916603,-0.0009971252,-0.0032406067
UncalMag,1676593894590,121398220010998,-64.196396,9.6624,-109.006996,-47.771046,2.9698257,-64.15999
UncalAccel,1676593894592,121398223691539,5.1756754,-0.37627137,6.0346985,0.006110925,-0.043260336,-0.038735468
OrientationDeg,1676593894592,121398223691539,345.0,-28.0,-21.0
UncalGyro,1676593894597,121398228185192,-0.70234233,-1.2857187,2.3371704,0.00046916603,-0.0009971252,-0.0032406067
UncalMag,1676593894600,121398230010998,-65.3432,9.6624,-107.457596,-47.771046,2.9698257,-64.15999
UncalAccel,1676593894602,121398232673962,5.892924,0.37686956,6.756733,0.006110925,-0.043260336,-0.038735468
OrientationDeg,1676593894602,121398232673962,344.0,-29.0,-20.0
UncalGyro,1676593894607,121398237160534,-0.6954701,-1.1287262,2.5647178,0.00046916603,-0.0009971252,-0.0032406067
UncalMag,1676593894609,121398240010998,-65.0016,10.125999,-103.1388,-47.771046,2.9698257,-64.15999
UncalAccel,1676593894611,121398241642223,6.706484,0.971486,7.0115685,0.006110925,-0.043260336,-0.038735468
OrientationDeg,1676593894610,121398241642223,343.0,-30.0,-19.0
UncalGyro,1676593894615,121398246141735,-0.68294734,-0.98532563,2.6758952,0.00046916603,-0.0009971252,-0.0032406067
UncalMag,1676593894619,121398250011242,-65.1236,11.2606,-103.9684,-47.771046,2.9698257,-64.15999
UncalAccel,1676593894620,121398250627452,7.3567333,1.0875379,6.8578296,0.006110925,-0.043260336,-0.038735468
OrientationDeg,1676593894619,121398250627452,342.0,-31.0,-18.0
UncalGyro,1676593894624,121398255112193,-0.6973027,-0.8752172,2.6642888,0.00046916603,-0.0009971252,-0.0032406067
UncalAccel,1676593894629,121398259610546,7.4141607,1.0103694,6.595217,0.006110925,-0.043260336,-0.038735468
UncalMag,1676593894628,121398259999035,-62.3542,13.2736,-102.967995,-47.771046,2.9698257,-64.15999
OrientationDeg,1676593894628,121398259610546,341.0,-32.0,-17.0
UncalGyro,1676593894633,121398264101451,-0.72021013,-0.8266534,2.5862508,0.00046916603,-0.0009971252,-0.0032406067
UncalAccel,1676593894638,121398268593090,7.047461,0.7537391,6.1393847,0.006110925,-0.043260336,-0.038735468
OrientationDeg,1676593894638,121398268593090,340.0,-33.0,-16.0
UncalMag,1676593894639,121398270007335,-65.2212,12.261,-103.2486,-47.771046,2.9698257,-64.15999
UncalGyro,1676593894642,121398273081798,-0.7160868,-0.9024007,2.5152376,0.00046916603,-0.0009971252,-0.0032406067
UncalAccel,1676593894647,121398277569408,6.812366,0.36191443,5.84088,0.006110925,-0.043260336,-0.038735468
OrientationDeg,1676593894646,121398277569408,339.0,-33.0,-15.0
UncalMag,1676593894650,121398280010753,-62.439598,14.1398,-100.796394,-47.771046,2.9698257,-64.15999
UncalGyro,1676593894652,121398282060741,-0.6724099,-1.069625,2.4736989,0.00046916603,-0.0009971252,-0.0032406067
UncalAccel,1676593894656,121398286549694,6.7669024,-0.12203395,5.729016,0.006110925,-0.043260336,-0.038735468
OrientationDeg,1676593894655,121398286549694,338.0,-34.0,-14.0
UncalMag,1676593894660,121398290010998,-66.4656,13.908,-102.297,-47.771046,2.9698257,-64.15999
UncalGyro,1676593894660,121398291041515,-0.58383447,-1.3020593,2.5237896,0.00046916603,-0.0009971252,-0.0032406067
UncalAccel,1676593894665,121398295529491,6.800402,-0.5778667,5.912665,0.006110925,-0.043260336,-0.038735468
OrientationDeg,1676593894665,121398295529491,337.0,-35.0,-13.0
UncalGyro,1676593894670,121398300017772,-0.45448375,-1.4805846,2.6665795,0.00046916603,-0.0009971252,-0.0032406067
UncalMag,1676593894670,121398300018566,-65.3554,14.8108,-102.650795,-47.771046,2.9698257,-64.15999
UncalAccel,1676593894674,121398304498729,6.9056864,-0.8177471,6.4408803,0.006110925,-0.043260336,-0.038735468
OrientationDeg,1676593894673,121398304498729,336.0,-36.0,-12.0
UncalGyro,1676593894678,121398309001110,-0.300393,-1.5037975,2.8431196,0.00046916603,-0.0009971252,-0.0032406067
UncalMag,1676593894680,121398310010753,-67.6612,15.2134,-103.3218,-47.771046,2.9698257,-64.15999
UncalAccel,1676593894683,121398313488903,7.461419,-0.84047896,6.8051877,0.006110925,-0.043260336,-0.038735468
OrientationDeg,1676593894682,121398313488903,335.0,-37.0,-11.0
UncalGyro,1676593894686,121398317982493,-0.14523321,-1.4089607,2.969416,0.00046916603,-0.0009971252,-0.0032406067
UncalMag,1676593894690,121398320010753,-67.832,15.7014,-103.577995,-47.771046,2.9698257,-64.15999
UncalAccel,1676593894692,121398322468395,7.8287177,-0.8811569,6.706484,0.006110925,-0.043260336,-0.038735468
OrientationDeg,1676593894691,121398322468395,333.0,-38.0,-10.0
UncalGyro,1676593894695,121398326959606,-0.0009162979,-1.299463,3.0233247,0.00046916603,-0.0009971252,-0.0032406067
UncalMag,1676593894700,121398330010753,-67.832,16.5432,-101.1746,-47.771046,2.9698257,-64.15999
UncalAccel,1676593894700,121398331448314,8.010572,-1.1078769,6.224928,0.006110925,-0.043260336,-0.038735468
OrientationDeg,1676593894701,121398331448314,332.0,-39.0,-9.0
UncalGyro,1676593894705,121398335936046,0.08735373,-1.3176364,2.9955304,0.00046916603,-0.0009971252,-0.0032406067
UncalMag,1676593894710,121398340010998,-66.843796,17.5802,-101.699196,-47.771046,2.9698257,-64.15999
UncalAccel,1676593894709,121398340416149,7.650452,-1.393221,5.388038,0.006110925,-0.043260336,-0.038735468
OrientationDeg,1676593894710,121398340416149,331.0,-40.0,-8.0
UncalGyro,1676593894713,121398344920055,0.052534413,-1.5063937,2.942996,0.00046916603,-0.0009971252,-0.0032406067
UncalAccel,1676593894719,121398349407909,6.751349,-2.036292,3.940979,0.006110925,-0.043260336,-0.038735468
UncalMag,1676593894719,121398349999279,-65.514,17.994999,-100.3816,-47.771046,2.9698257,-64.15999
OrientationDeg,1676593894718,121398349407909,330.0,-41.0,-7.0
UncalGyro,1676593894723,121398353901866,-0.12385293,-1.8596265,2.9480357,0.00046916603,-0.0009971252,-0.0032406067
UncalAccel,1676593894728,121398358387523,6.2751775,-2.7003005,2.830111,0.006110925,-0.043260336,-0.038735468
OrientationDeg,1676593894728,121398358387523,329.0,-42.0,-6.0
UncalMag,1676593894730,121398360010021,-66.4656,18.2634,-98.4052,-47.771046,2.9698257,-64.15999
UncalGyro,1676593894732,121398362879283,-0.3680463,-2.220037,3.0321825,0.00046916603,-0.0009971252,-0.0032406067
UncalAccel,1676593894736,121398367367260,6.227321,-3.260819,3.0412776,0.006110925,-0.043260336,-0.038735468
OrientationDeg,1676593894737,121398367367260,328.0,-44.0,-5.0
UncalMag,1676593894739,121398370010509,-66.8072,19.239399,-99.3568,-47.771046,2.9698257,-64.15999
UncalGyro,1676593894741,121398371858043,-0.6012441,-2.4495697,3.222467,0.00046916603,-0.0009971252,-0.0032406067
UncalAccel,1676593894745,121398376347118,6.873383,-4.026522,4.2221355,0.006110925,-0.043260336,-0.038735468
OrientationDeg,1676593894746,121398376347118,327.0,-45.0,-3.0
UncalMag,1676593894750,121398380010998,-67.783195,20.13,-99.2592,-47.771046,2.9698257,-64.15999
UncalGyro,1676593894750,121398380836192,-0.7849618,-2.5529585,3.467271,0.00046916603,-0.0009971252,-0.0032406067
UncalAccel,1676593894755,121398385315624,8.05125,-4.5505505,6.2315083,0.006110925,-0.043260336,-0.038735468
OrientationDeg,1676593894755,121398385315624,326.0,-47.0,-1.0
UncalGyro,1676593894758,121398389817760,-0.883922,-2.4736989,3.65893,0.00046916603,-0.0009971252,-0.0032406067
UncalMag,1676593894758,121398389994640,-70.8454,20.1178,-100.6744,-47.771046,2.9698257,-64.15999
UncalAccel,1676593894763,121398394306286,9.602397,-4.334,7.097112,0.006110925,-0.043260336,-0.038735468
OrientationDeg,1676593894764,121398394306286,325.0,-48.0,0.0
UncalGyro,1676593894767,121398398800303,-0.9138544,-2.3322835,3.690695,0.00046916603,-0.0009971252,-0.0032406067
UncalMag,1676593894768,121398399999523,-69.418,21.9966,-99.8692,-47.771046,2.9698257,-64.15999
UncalAccel,1676593894772,121398403286205,10.054043,-4.063611,6.8339014,0.006110925,-0.043260336,-0.038735468
OrientationDeg,1676593894772,121398403286205,324.0,-49.0,1.0
UncalGyro,1676593894777,121398407777050,-0.9094256,-2.2221751,3.6103663,0.00046916603,-0.0009971252,-0.0032406067
UncalMag,1676593894780,121398410010998,-71.736,22.448,-99.1494,-47.771046,2.9698257,-64.15999
UncalAccel,1676593894782,121398412266551,9.775877,-4.7048874,6.2141604,0.006110925,-0.043260336,-0.038735468
OrientationDeg,1676593894782,121398412266551,323.0,-50.0,3.0
UncalGyro,1676593894785,121398416758251,-0.9286679,-2.140319,3.5596645,0.00046916603,-0.0009971252,-0.0032406067
UncalMag,1676593894790,121398420010753,-70.0646,23.680199,-96.624,-47.771046,2.9698257,-64.15999
UncalAccel,1676593894790,121398421246044,9.368499,-5.5704913,5.3359947,0.006110925,-0.043260336,-0.038735468
OrientationDeg,1676593894791,121398421246044,322.0,-51.0,5.0
UncalGyro,1676593894795,121398425733775,-1.0178542,-2.1342103,3.5929565,0.00046916603,-0.0009971252,-0.0032406067
UncalMag,1676593894800,121398430010998,-68.5274,25.741999,-96.4776,-47.771046,2.9698257,-64.15999
UncalAccel,1676593894799,121398430211192,9.2997055,-5.493921,3.958925,0.006110925,-0.043260336,-0.038735468
OrientationDeg,1676593894800,121398430211192,322.0,-52.0,6.0
UncalGyro,1676593894804,121398434706432,-1.1707232,-2.2374468,3.6135733,0.00046916603,-0.0009971252,-0.0032406067
UncalAccel,1676593894809,121398439205577,9.497711,-5.581857,3.2584262,0.006110925,-0.043260336,-0.038735468
UncalMag,1676593894810,121398440003673,-68.6494,26.901,-93.8546,-47.771046,2.9698257,-64.15999
OrientationDeg,1676593894808,121398439205577,321.0,-53.0,8.0
UncalGyro,1676593894813,121398443699596,-1.3519975,-2.38268,3.6183076,0.00046916603,-0.0009971252,-0.0032406067
UncalAccel,1676593894817,121398448188121,9.830314,-6.332007,3.2560334,0.006110925,-0.043260336,-0.038735468
OrientationDeg,1676593894817,121398448188121,321.0,-55.0,10.0
UncalMag,1676593894820,121398450010998,-69.4424,27.376799,-93.391,-47.771046,2.9698257,-64.15999
UncalGyro,1676593894822,121398452677623,-1.512655,-2.5547912,3.6317465,0.00046916603,-0.0009971252,-0.0032406067
UncalAccel,1676593894826,121398457164806,10.027123,-6.4911294,3.751946,0.006110925,-0.043260336,-0.038735468
OrientationDeg,1676593894827,121398457164806,320.0,-56.0,12.0
UncalMag,1676593894830,121398460010509,-68.2712,29.011599,-90.8778,-47.771046,2.9698257,-64.15999
UncalGyro,1676593894830,121398461655590,-1.6079501,-2.725528,3.6224308,0.00046916603,-0.0009971252,-0.0032406067
UncalAccel,1676593894835,121398466143993,10.290932,-6.5886374,4.2388854,0.006110925,-0.043260336,-0.038735468
OrientationDeg,1676593894836,121398466143993,320.0,-57.0,14.0
UncalMag,1676593894839,121398469993664,-70.2232,29.6216,-90.3044,-47.771046,2.9698257,-64.15999
UncalGyro,1676593894839,121398470632457,-1.6398678,-2.8791606,3.5932622,0.00046916603,-0.0009971252,-0.0032406067
UncalAccel,1676593894845,121398475112804,10.216755,-7.283154,4.735396,0.006110925,-0.043260336,-0.038735468
OrientationDeg,1676593894845,121398475112804,320.0,-59.0,16.0
UncalGyro,1676593894848,121398479615673,-1.6438384,-2.9633074,3.5882225,0.00046916603,-0.0009971252,-0.0032406067
UncalMag,1676593894849,121398479999279,-68.93,31.9518,-90.828995,-47.771046,2.9698257,-64.15999
UncalAccel,1676593894854,121398484104503,9.87817,-8.115258,5.415556,0.006110925,-0.043260336,-0.038735468
OrientationDeg,1676593894853,121398484104503,319.0,-60.0,19.0
UncalGyro,1676593894858,121398488599253,-1.5940529,-2.9912543,3.634801,0.00046916603,-0.0009971252,-0.0032406067
UncalMag,1676593894860,121398490010998,-68.7348,32.3056,-87.071396,-47.771046,2.9698257,-64.15999
UncalAccel,1676593894863,121398493083812,9.242277,-8.810971,5.638088,0.006110925,-0.043260336,-0.038735468
OrientationDeg,1676593894863,121398493083812,319.0,-62.0,21.0
UncalGyro,1676593894867,121398497574840,-1.4643967,-3.08884,3.7864482,0.00046916603,-0.0009971252,-0.0032406067
UncalMag,1676593894869,121398500010753,-69.503395,33.55,-89.06,-47.771046,2.9698257,-64.15999
UncalAccel,1676593894872,121398502063610,8.559127,-9.727423,5.4873405,0.006110925,-0.043260336,-0.038735468
OrientationDeg,1676593894871,121398502063610,319.0,-63.0,23.0
UncalGyro,1676593894876,121398506555797,-1.2588406,-3.303101,4.0511055,0.00046916603,-0.0009971252,-0.0032406067
UncalMag,1676593894880,121398510010753,-67.954,35.6606,-87.083595,-47.771046,2.9698257,-64.15999
UncalAccel,1676593894880,121398511043346,8.400602,-11.035698,5.6321063,0.006110925,-0.043260336,-0.038735468
OrientationDeg,1676593894880,121398511043346,318.0,-65.0,25.0
UncalGyro,1676593894884,121398515534374,-0.9625709,-3.5204165,4.335158,0.00046916603,-0.0009971252,-0.0032406067
UncalAccel,1676593894890,121398520019175,8.330612,-12.459428,6.105885,0.006110925,-0.043260336,-0.038735468
UncalMag,1676593894890,121398520018566,-67.283,36.843998,-84.8022,-47.771046,2.9698257,-64.15999
OrientationDeg,1676593894890,121398520019175,318.0,-66.0,27.0
UncalGyro,1676593894893,121398524495921,-0.5685628,-3.6908479,4.6448665,0.00046916603,-0.0009971252,-0.0032406067
UncalAccel,1676593894897,121398528991893,8.602198,-13.89871,6.762117,0.006110925,-0.043260336,-0.038735468
UncalMag,1676593894898,121398529999279,-70.089,37.002598,-87.596,-47.771046,2.9698257,-64.15999
OrientationDeg,1676593894897,121398528991893,317.0,-68.0,30.0
UncalGyro,1676593894902,121398533493969,-0.09468412,-3.8342485,5.0016117,0.00046916603,-0.0009971252,-0.0032406067
UncalAccel,1676593894906,121398537986461,8.834899,-14.868402,7.41117,0.006110925,-0.043260336,-0.038735468
OrientationDeg,1676593894907,121398537986461,316.0,-69.0,32.0
UncalMag,1676593894910,121398540010753,-68.6372,37.4418,-83.7652,-47.771046,2.9698257,-64.15999
UncalGyro,1676593894912,121398542476573,0.43310347,-3.9680278,5.42204,0.00046916603,-0.0009971252,-0.0032406067
UncalAccel,1676593894916,121398546962474,9.461819,-15.543776,7.791629,0.006110925,-0.043260336,-0.038735468
OrientationDeg,1676593894915,121398546962474,314.0,-70.0,35.0
UncalMag,1676593894920,121398550010998,-69.8328,37.8932,-85.1316,-47.771046,2.9698257,-64.15999
UncalGyro,1676593894921,121398551453319,0.97417736,-4.1001277,5.8748436,0.00046916603,-0.0009971252,-0.0032406067
UncalAccel,1676593894925,121398555942516,10.864013,-15.710077,7.387242,0.006110925,-0.043260336,-0.038735468
OrientationDeg,1676593894924,121398555942516,312.0,-71.0,38.0
UncalMag,1676593894929,121398560010998,-69.2228,38.8448,-86.0588,-47.771046,2.9698257,-64.15999
UncalGyro,1676593894929,121398560434215,1.4833336,-4.2922444,6.277404,0.00046916603,-0.0009971252,-0.0032406067
UncalAccel,1676593894934,121398564922008,12.970893,-15.123836,7.361519,0.006110925,-0.043260336,-0.038735468
OrientationDeg,1676593894934,121398564922008,309.0,-72.0,41.0
UncalGyro,1676593894938,121398569409862,1.9294178,-4.4252605,6.4945664,0.00046916603,-0.0009971252,-0.0032406067
UncalMag,1676593894939,121398570011242,-69.2228,39.162,-92.6224,-47.771046,2.9698257,-64.15999
UncalAccel,1676593894942,121398573890270,14.6841545,-13.963915,7.818548,0.006110925,-0.043260336,-0.038735468
OrientationDeg,1676593894943,121398573890270,307.0,-72.0,43.0
UncalGyro,1676593894947,121398578393688,2.3127358,-4.3996043,6.5205283,0.00046916603,-0.0009971252,-0.0032406067
UncalMag,1676593894950,121398580010753,-66.4656,40.443,-87.8888,-47.771046,2.9698257,-64.15999
UncalAccel,1676593894952,121398582881542,15.440885,-13.147963,8.369495,0.006110925,-0.043260336,-0.038735468
OrientationDeg,1676593894951,121398582881542,303.0,-72.0,46.0
UncalGyro,1676593894956,121398587375316,2.6386325,-4.183511,6.45486,0.00046916603,-0.0009971252,-0.0032406067
UncalMag,1676593894960,121398590010753,-66.3436,40.821198,-89.9994,-47.771046,2.9698257,-64.15999
UncalAccel,1676593894961,121398591861156,15.311672,-12.988839,8.732008,0.006110925,-0.043260336,-0.038735468
OrientationDeg,1676593894961,121398591861156,299.0,-72.0,49.0
UncalGyro,1676593894966,121398596352977,2.8892398,-3.844786,6.3754478,0.00046916603,-0.0009971252,-0.0032406067
UncalMag,1676593894970,121398600010998,-62.6592,41.6142,-89.792,-47.771046,2.9698257,-64.15999
UncalAccel,1676593894970,121398600841259,15.171692,-13.141382,8.825927,0.006110925,-0.043260336,-0.038735468
OrientationDeg,1676593894969,121398600841259,295.0,-70.0,51.0
UncalGyro,1676593894974,121398605332164,3.0836477,-3.4790304,6.311002,0.00046916603,-0.0009971252,-0.0032406067
UncalAccel,1676593894978,121398609820507,15.361921,-13.492529,9.349357,0.006110925,-0.043260336,-0.038735468
UncalMag,1676593894978,121398609999279,-59.2066,41.3824,-90.4874,-47.771046,2.9698257,-64.15999
OrientationDeg,1676593894978,121398609820507,291.0,-68.0,54.0
UncalGyro,1676593894984,121398614308849,3.2675183,-3.0589077,6.282596,0.00046916603,-0.0009971252,-0.0032406067
UncalAccel,1676593894988,121398618789440,15.699309,-13.278371,9.918848,0.006110925,-0.043260336,-0.038735468
OrientationDeg,1676593894987,121398618789440,286.0,-66.0,56.0
UncalMag,1676593894989,121398620010753,-59.2066,41.3824,-90.4874,-47.771046,2.9698257,-64.15999
UncalGyro,1676593894992,121398623291576,3.4666603,-2.63512,6.219677,0.00046916603,-0.0009971252,-0.0032406067
UncalAccel,1676593894997,121398627780223,16.186249,-12.552748,9.900902,0.006110925,-0.043260336,-0.038735468
OrientationDeg,1676593894996,121398627780223,280.0,-62.0,58.0
UncalMag,1676593895000,121398630010998,-56.669,42.1266,-90.2434,-47.771046,2.9698257,-64.15999
UncalGyro,1676593895001,121398632275096,3.7087157,-2.2904391,6.065739,0.00046916603,-0.0009971252,-0.0032406067
UncalAccel,1676593895005,121398636758617,16.677376,-11.702099,10.17488,0.006110925,-0.043260336,-0.038735468
OrientationDeg,1676593895005,121398636758617,274.0,-58.0,60.0
UncalMag,1676593895010,121398640010509,-56.620197,39.954998,-93.8546,-47.771046,2.9698257,-64.15999
UncalGyro,1676593895011,121398641246105,4.003,-1.9582813,5.7903914,0.00046916603,-0.0009971252,-0.0032406067
UncalAccel,1676593895014,121398645739818,17.047068,-10.759327,10.10489,0.006110925,-0.043260336,-0.038735468
OrientationDeg,1676593895014,121398645739818,267.0,-52.0,61.0
UncalMag,1676593895020,121398650000744,-54.168,38.8936,-96.0262,-47.771046,2.9698257,-64.15999
UncalGyro,1676593895020,121398650231578,4.309349,-1.6624697,5.4023395,0.00046916603,-0.0009971252,-0.0032406067
UncalAccel,1676593895024,121398654720652,17.228922,-9.787243,9.61496,0.006110925,-0.043260336,-0.038735468
OrientationDeg,1676593895023,121398654720652,259.0,-47.0,61.0
UncalGyro,1676593895029,121398659210521,4.5987463,-1.4277447,4.9212832,0.00046916603,-0.0009971252,-0.0032406067
UncalMag,1676593895030,121398660010753,-50.9838,38.9302,-97.3926,-47.771046,2.9698257,-64.15999
UncalAccel,1676593895032,121398663699108,17.23909,-9.044869,8.62792,0.006110925,-0.043260336,-0.038735468
OrientationDeg,1676593895032,121398663699108,252.0,-41.0,61.0
UncalGyro,1676593895037,121398668191112,4.840038,-1.3081679,4.3876925,0.00046916603,-0.0009971252,-0.0032406067
UncalMag,1676593895038,121398669996349,-49.617397,37.271,-97.112,-47.771046,2.9698257,-64.15999
UncalAccel,1676593895042,121398672679027,16.939987,-8.458628,7.3286176,0.006110925,-0.043260336,-0.038735468
OrientationDeg,1676593895041,121398672679027,245.0,-36.0,61.0
UncalGyro,1676593895046,121398677169872,4.976108,-1.3293955,3.8599048,0.00046916603,-0.0009971252,-0.0032406067
UncalMag,1676593895050,121398680010998,-48.287598,35.8558,-97.8684,-47.771046,2.9698257,-64.15999
UncalAccel,1676593895051,121398681655894,15.987644,-7.422536,5.8713884,0.006110925,-0.043260336,-0.038735468
OrientationDeg,1676593895050,121398681655894,240.0,-32.0,59.0
UncalGyro,1676593895055,121398686138805,5.0258937,-1.5228871,3.3724344,0.00046916603,-0.0009971252,-0.0032406067
UncalMag,1676593895059,121398690010753,-48.604797,33.8672,-98.3686,-47.771046,2.9698257,-64.15999
UncalAccel,1676593895060,121398690638622,14.874982,-6.4618177,5.813961,0.006110925,-0.043260336,-0.038735468
OrientationDeg,1676593895060,121398690638622,234.0,-28.0,58.0
UncalGyro,1676593895064,121398695129589,5.0572004,-1.616044,2.9165761,0.00046916603,-0.0009971252,-0.0032406067
UncalAccel,1676593895068,121398699621532,14.111671,-5.804988,5.9473605,0.006110925,-0.043260336,-0.038735468
UncalMag,1676593895068,121398699999035,-49.5808,31.5126,-101.992,-47.771046,2.9698257,-64.15999
OrientationDeg,1676593895069,121398699621532,230.0,-25.0,56.0
Status,0,30,0,6,2,1176450050,36.98,88.0,78.0,1,1,1,32.88485
Status,0,30,1,6,2,1575420030,38.55,88.0,78.0,1,1,1,34.354404
Status,0,30,2,3,17,1604249980,39.25,295.0,74.0,1,1,1,35.054985
Status,0,30,3,1,11,1575420030,41.02,142.0,73.0,1,1,1,36.81713
Status,0,30,4,1,11,1176450050,41.88,142.0,73.0,1,1,1,37.775993
Status,0,30,5,3,15,1602000000,43.92,326.0,70.0,1,1,1,39.72245
Status,0,30,6,6,36,1575420030,39.06,58.0,66.0,1,1,1,34.858704
Status,0,30,7,6,36,1176450050,35.31,58.0,66.0,1,1,1,31.205088
Status,0,30,8,1,12,1575420030,46.23,324.0,60.0,1,1,1,42.034973
Status,0,30,9,6,34,1176450050,44.66,203.0,54.0,1,1,1,40.56321
Status,0,30,10,6,34,1575420030,42.14,203.0,54.0,1,1,1,37.93645
Status,0,30,11,3,14,1598062460,40.21,148.0,52.0,1,1,1,36.00578
Status,0,30,12,1,6,1176450050,37.83,51.0,49.0,1,1,1,33.73159
Status,0,30,13,1,6,1575420030,45.40,51.0,49.0,1,1,1,41.20499
Status,0,30,14,1,24,1575420030,48.29,223.0,42.0,1,1,1,44.08856
Status,0,30,15,6,30,1176450050,41.34,315.0,42.0,1,1,1,37.23797
Status,0,30,16,6,30,1575420030,44.96,315.0,42.0,1,1,1,40.761223
Status,0,30,17,1,24,1176450050,47.59,223.0,42.0,1,1,1,43.492462
Status,0,30,18,3,24,1603124990,43.51,32.0,36.0,1,1,1,39.31166
Status,0,30,19,3,18,1600312450,45.71,233.0,31.0,1,1,1,41.50812
Status,0,30,20,1,25,1176450050,35.15,311.0,30.0,1,1,1,31.045206
Status,0,30,21,1,25,1575420030,45.34,311.0,30.0,1,1,1,41.138226
Status,0,30,22,1,19,1575420030,45.78,57.0,29.0,1,1,1,41.575123
Status,0,30,23,6,25,1575420030,41.00,123.0,29.0,1,1,1,36.800297
Status,0,30,24,6,25,1176450050,33.03,123.0,29.0,1,1,1,28.930744
Status,0,30,25,1,20,1575420030,38.19,145.0,22.0,1,1,1,33.988827
Status,0,30,26,6,11,1575420030,36.15,40.0,18.0,1,1,1,31.951113
Status,0,30,27,6,11,1176450050,33.20,40.0,18.0,1,1,1,29.102556
Status,0,30,28,3,16,1601437440,42.32,328.0,16.0,1,1,1,38.124653
Status,0,30,29,1,29,1575420030,42.41,260.0,11.0,1,1,1,38.213074
UncalGyro,1676593895074,121398704107250,5.0405545,-1.5001323,2.4585798,0.00046916603,-0.0009971252,-0.0032406067
Fix,GPS,37.4312995716,-122.1550374653,-16.98466911301309,0.23052704,2.7550685,2.6321304,1676593894000,0.09568047,59.84788,121398591475000,3.0
UncalAccel,1676593895077,121398708586010,13.551153,-5.7487564,5.601598,0.006110925,-0.043260336,-0.038735468
OrientationDeg,1676593895078,121398708586010,226.0,-23.0,54.0
UncalMag,1676593895080,121398710010753,-48.9464,30.378,-104.2734,-47.771046,2.9698257,-64.15999
Raw,1676593894000,533539000000,,,-1360628578461026015,0.0,6.7925356731285005,294.0,1.0,17,6,0.0,16431,433911929006771,12,44.19036865234375,484.33989338068,0.15,16,244864.63893038375,340282346638528860000000000000000000000,1575420030,,,,0,,1,,39.9903678894043,0.320142130558394,1.0,0.320142130558394,1.0,C,121398591475000
Raw,1676593894000,533539000000,,,-1360628578461026015,0.0,6.7925356731285005,294.0,1.0,17,11,0.0,16431,433911931777685,20,37.836082458496094,-61.55967332720121,0.15,16,-49465.55698408087,340282346638528860000000000000000000000,1575420030,,,,0,,1,,33.63608169555664,-0.20372681261465636,1.0,-0.20372681261465636,1.0,C,121398591475000
Raw,1676593894000,533539000000,,,-1360628578461026015,0.0,6.7925356731285005,294.0,1.0,17,12,0.0,16431,433911930781289,14,44.818302154541016,-229.8813465787581,0.15,16,-131633.86071499746,340282346638528860000000000000000000000,1575420030,,,,0,,1,,40.61830139160156,-0.6984919076624261,1.0,-0.6984919076624261,1.0,C,121398591475000
Raw,1676593894000,533539000000,,,-1360628578461026015,0.0,6.7925356731285005,294.0,1.0,17,19,0.0,16431,433911924789136,14,44.77244186401367,582.7177112477939,0.15,16,308024.96345782746,340282346638528860000000000000000000000,1575420030,,,,0,,1,,40.57244110107422,0.0,1.0,0.0,1.0,C,121398591475000
Raw,1676593894000,533539000000,,,-1360628578461026015,0.0,6.7925356731285005,294.0,1.0,17,20,0.0,16431,433911921771243,26,34.63813018798828,-473.4918223764912,0.580201234135509,16,-255024.15318005686,340282346638528860000000000000000000000,1575420030,,,,0,,1,,30.438129425048828,0.0,1.0,0.0,1.0,C,121398591475000
Raw,1676593894000,533539000000,,,-1360628578461026015,0.0,6.7925356731285005,294.0,1.0,17,24,0.0,16431,433911926524576,13,45.99943161010742,548.1935460884479,0.15,16,281177.4352519811,340282346638528860000000000000000000000,1575420030,,,,0,,1,,41.79943084716797,-0.20372681261465636,1.0,-0.20372681261465636,1.0,C,121398591475000
Raw,1676593894000,533539000000,,,-1360628578461026015,0.0,6.7925356731285005,294.0,1.0,17,25,0.0,16431,433911925343330,12,44.302303314208984,-471.4640525432101,0.15,16,-255422.7941057887,340282346638528860000000000000000000000,1575420030,,,,0,,1,,40.10230255126953,-2.0372682255564105,1.0,-2.0372682255564105,1.0,C,121398591475000
Raw,1676593894000,533539000000,,,-1360628578461026015,0.0,6.7925356731285005,294.0,1.0,17,29,0.0,16423,433911917370180,24,35.7734260559082,-425.28539137588905,0.5319541219952781,16,-154198.316038117,340282346638528860000000000000000000000,1575420030,,,,0,,1,,31.573427200317383,-0.6984919076624261,1.0,-0.6984919076624261,1.0,C,121398591475000
Raw,1676593894000,533539000000,,,-1360628578461026015,0.0,6.7925356731285005,294.0,1.0,17,6,0.0,81921,433911929007323,19,32.35010528564453,484.1730256735443,0.679895814396922,16,246173.3721070452,340282346638528860000000000000000000000,1176450050,,,,0,,1,,28.250104904174805,1.9208527336454408,1.3841176606904733,1.9208527336454408,1.0,Q,121398591475000
Raw,1676593894000,533539000000,,,-1360628578461026015,0.0,6.7925356731285005,294.0,1.0,17,11,0.0,81921,433911931778256,13,37.10807800292969,-61.8578948217758,0.15,16,-49846.08382315411,340282346638528860000000000000000000000,1176450050,,,,0,,1,,33.008079528808594,0.0,1.3841176606904733,0.0,1.0,Q,121398591475000
Raw,1676593894000,533539000000,,,-1360628578461026015,0.0,6.7925356731285005,294.0,1.0,17,24,0.0,81921,433911926525118,10,45.79134750366211,548.1080332050321,0.15,16,282726.657500735,340282346638528860000000000000000000000,1176450050,,,,0,,1,,41.691349029541016,3.5215636101095664,1.3841176606904733,3.5215636101095664,1.0,Q,121398591475000
Raw,1676593894000,533539000000,,,-1360628578461026015,0.0,6.7925356731285005,294.0,1.0,17,25,0.0,81921,433911925343866,26,29.46045684814453,-471.6839184702387,0.8091811561883073,16,-257001.97403671022,340282346638528860000000000000000000000,1176450050,,,,0,,1,,25.360456466674805,1.0186341127782053,1.3841176606904733,1.0186341127782053,1.0,Q,121398591475000
Raw,1676593894000,533539000000,,,-1360628578461026015,0.0,6.7925356731285005,294.0,1.0,17,14,0.0,32995,12693932723190,75,30.33892059326172,575.7396009344006,0.7755019643561516,16,289689.97634233854,340282346638528860000000000000000000000,1598062460,,,,0,,3,,26.138919830322266,50.29141902923584,2.0000000474974513,50.29141902923584,2.0000000474974513,C,121398591475000
Raw,1676593894000,533539000000,,,-1360628578461026015,0.0,6.7925356731285005,294.0,1.0,17,18,0.0,32995,12693928089707,34,42.538936614990234,-471.0670941720889,0.15,16,-262423.9687677007,340282346638528860000000000000000000000,1600312450,,,,0,,3,,38.33893585205078,50.29141902923584,2.0000000474974513,50.29141902923584,2.0000000474974513,C,121398591475000
Raw,1676593894000,533539000000,,,-1360628578461026015,0.0,6.7925356731285005,294.0,1.0,17,16,0.0,32995,12693923260244,33,41.36174774169922,-673.2734349306402,0.15,16,-361161.3537745981,340282346638528860000000000000000000000,1601437440,,,,0,,3,,37.161746978759766,50.29141902923584,2.0000000474974513,50.29141902923584,2.0000000474974513,C,121398591475000
Raw,1676593894000,533539000000,,,-1360628578461026015,0.0,6.7925356731285005,294.0,1.0,17,15,0.0,32995,12693935274944,33,42.694419860839844,-181.59151580704463,0.15,16,-114971.99108174726,340282346638528860000000000000000000000,1602000000,,,,0,,3,,38.49441909790039,50.29141902923584,2.0000000474974513,50.29141902923584,2.0000000474974513,C,121398591475000
Raw,1676593894000,533539000000,,,-1360628578461026015,0.0,6.7925356731285005,294.0,1.0,17,24,0.0,32995,12693929185044,33,41.248809814453125,701.7271055937954,0.15,16,368447.82441077975,340282346638528860000000000000000000000,1603124990,,,,0,,3,,37.04880905151367,50.29141902923584,2.0000000474974513,50.29141902923584,2.0000000474974513,C,121398591475000
Raw,1676593894000,533539000000,,,-1360628578461026015,0.0,6.7925356731285005,294.0,1.0,17,17,0.0,32995,12693936130008,50,35.366363525390625,98.44651957884975,0.5500363296611828,16,35457.23184987536,340282346638528860000000000000000000000,1604249980,,,,0,,3,,31.166362762451172,50.29141902923584,2.0000000474974513,50.29141902923584,2.0000000474974513,C,121398591475000
Raw,1676593894000,533539000000,,,-1360628578461026015,0.0,6.7925356731285005,294.0,1.0,17,2,0.0,85026,433911922206276,29,33.49224853515625,135.93988870616408,0.6318085969062377,16,64766.536475258225,340282346638528860000000000000000000000,1575420030,,,,0,,6,,29.292247772216797,-6.024492904543876,1.5000000237487257,-6.024492904543876,1.5000000237487257,C,121398591475000
Raw,1676593894000,533539000000,,,-1360628578461026015,0.0,6.7925356731285005,294.0,1.0,17,11,0.0,85026,433911910692843,23,35.941341400146484,606.9171415228589,0.5224824941631827,16,320377.4783640273,340282346638528860000000000000000000000,1575420030,,,,0,,6,,31.741342544555664,-6.024492904543876,1.5000000237487257,-6.024492904543876,1.5000000237487257,C,121398591475000
Raw,1676593894000,533539000000,,,-1360628578461026015,0.0,6.7925356731285005,294.0,1.0,17,25,0.0,85026,433911912718537,19,38.5210075378418,500.32889396185647,0.15,16,261061.8325443203,340282346638528860000000000000000000000,1575420030,,,,0,,6,,34.321006774902344,-6.024492904543876,1.5000000237487257,-6.024492904543876,1.5000000237487257,C,121398591475000
Raw,1676593894000,533539000000,,,-1360628578461026015,0.0,6.7925356731285005,294.0,1.0,17,30,0.0,85026,433911915519713,12,44.17823028564453,-296.77445571800195,0.15,16,-161104.9714353885,340282346638528860000000000000000000000,1575420030,,,,0,,6,,39.97822952270508,-6.024492904543876,1.5000000237487257,-6.024492904543876,1.5000000237487257,C,121398591475000
Raw,1676593894000,533539000000,,,-1360628578461026015,0.0,6.7925356731285005,294.0,1.0,17,34,0.0,85026,433911919330380,18,38.9387092590332,-271.19270917128483,0.15,16,-153627.00681353066,340282346638528860000000000000000000000,1575420030,,,,0,,6,,34.73870849609375,-6.024492904543876,1.5000000237487257,-6.024492904543876,1.5000000237487257,C,121398591475000
Raw,1676593894000,533539000000,,,-1360628578461026015,0.0,6.7925356731285005,294.0,1.0,17,36,0.0,85026,433911921079418,23,35.934329986572266,259.38908537479426,0.5225077564527343,16,128081.61495372979,340282346638528860000000000000000000000,1575420030,,,,0,,6,,31.734329223632812,-6.024492904543876,1.5000000237487257,-6.024492904543876,1.5000000237487257,C,121398591475000
Raw,1676593894000,533539000000,,,-1360628578461026015,0.0,6.7925356731285005,294.0,1.0,17,2,0.0,84003,433911922206842,19,31.930532455444336,135.43948155888205,0.7011378385593594,16,64666.71579380675,340282346638528860000000000000000000000,1176450050,,,,0,,6,,27.83053207397461,-3.808038309216499,1.884117684439199,-3.808038309216499,1.5000000237487257,Q,121398591475000
Raw,1676593894000,533539000000,,,-1360628578461026015,0.0,6.7925356731285005,294.0,1.0,17,11,0.0,84003,433911910693389,16,32.08374786376953,606.2498751890553,0.692176881753074,16,321991.83606905665,340282346638528860000000000000000000000,1176450050,,,,0,,6,,27.983749389648438,5.057780072093007,1.884117684439199,5.057780072093007,1.5000000237487257,Q,121398591475000
Raw,1676593894000,533539000000,,,-1360628578461026015,0.0,6.7925356731285005,294.0,1.0,17,25,0.0,84003,433911912719075,60,25.361215591430664,500.1411677913288,0.9948460037692959,16,260401.42760581587,340282346638528860000000000000000000000,1176450050,,,,0,,6,,21.261215209960938,-8.979765698313711,1.884117684439199,-8.979765698313711,1.5000000237487257,Q,121398591475000
Raw,1676593894000,533539000000,,,-1360628578461026015,0.0,6.7925356731285005,294.0,1.0,17,30,0.0,84003,433911915520253,11,39.369754791259766,-296.91310315113674,0.15,16,-162412.22522259507,340282346638528860000000000000000000000,1176450050,,,,0,,6,,35.26975631713867,-8.425652049481869,1.884117684439199,-8.425652049481869,1.5000000237487257,Q,121398591475000
Raw,1676593894000,533539000000,,,-1360628578461026015,0.0,6.7925356731285005,294.0,1.0,17,34,0.0,84003,433911919330935,10,42.32695007324219,-271.29059398641834,0.15,16,-154334.99750175377,340282346638528860000000000000000000000,1176450050,,,,0,,6,,38.226951599121094,-11.011515744030472,1.884117684439199,-11.011515744030472,1.5000000237487257,Q,121398591475000
Raw,1676593894000,533539000000,,,-1360628578461026015,0.0,6.7925356731285005,294.0,1.0,17,36,0.0,84003,433911921079961,15,32.4105110168457,258.9977335677711,0.6793510276309402,16,128114.95183307037,340282346638528860000000000000000000000,1176450050,,,,0,,6,,28.310510635375977,-11.750333942472933,1.884117684439199,-11.750333942472933,1.5000000237487257,Q,121398591475000
UncalGyro,1676593895082,121398713088695,4.940984,-1.2487613,1.9885191,0.00046916603,-0.0009971252,-0.0032406067
Fix,FLP,37.4312980000,-122.1550309000,-15.80000114440918,0.24552068,4.347,66.41741,1676593895047,,,121398677169872,3.4351206
UncalAccel,1676593895086,121398717577831,12.871592,-5.980262,4.8729835,0.006110925,-0.043260336,-0.038735468
OrientationDeg,1676593895087,121398717577831,223.0,-21.0,52.0
UncalMag,1676593895089,121398720010998,-52.106197,27.2792,-105.3592,-47.771046,2.9698257,-64.15999
UncalGyro,1676593895092,121398722072947,4.770552,-0.99372506,1.5251778,0.00046916603,-0.0009971252,-0.0032406067
UncalAccel,1676593895096,121398726557506,11.794821,-6.300302,4.17069,0.006110925,-0.043260336,-0.038735468
OrientationDeg,1676593895096,121398726557506,221.0,-20.0,50.0
UncalMag,1676593895099,121398730010509,-50.2884,26.3398,-108.262794,-47.771046,2.9698257,-64.15999
UncalGyro,1676593895100,121398731048290,4.5659122,-0.7600691,1.1226176,0.00046916603,-0.0009971252,-0.0032406067
UncalAccel,1676593895105,121398735537487,10.389636,-6.517451,3.6107693,0.006110925,-0.043260336,-0.038735468
OrientationDeg,1676593895105,121398735537487,219.0,-19.0,48.0
UncalGyro,1676593895110,121398740024913,4.3316455,-0.5360342,0.8116872,0.00046916603,-0.0009971252,-0.0032406067
UncalMag,1676593895109,121398740018810,-52.826,23.302,-108.4336,-47.771046,2.9698257,-64.15999
UncalAccel,1676593895114,121398744499034,8.922835,-6.801,2.9635108,0.006110925,-0.043260336,-0.038735468
OrientationDeg,1676593895113,121398744499034,218.0,-18.0,46.0
UncalGyro,1676593895119,121398749005199,4.0645447,-0.35231653,0.57925296,0.00046916603,-0.0009971252,-0.0032406067
UncalMag,1676593895119,121398750010753,-51.85,22.277199,-107.421,-47.771046,2.9698257,-64.15999
UncalAccel,1676593895122,121398753484752,7.420741,-7.339385,2.1631117,0.006110925,-0.043260336,-0.038735468
OrientationDeg,1676593895123,121398753484752,217.0,-17.0,45.0
UncalGyro,1676593895126,121398757992442,3.7763689,-0.28053987,0.44028112,0.00046916603,-0.0009971252,-0.0032406067
UncalMag,1676593895129,121398760011730,-47.5556,21.9478,-106.371796,-47.771046,2.9698257,-64.15999
UncalAccel,1676593895132,121398762476390,5.889933,-7.972885,1.4045869,0.006110925,-0.043260336,-0.038735468
OrientationDeg,1676593895132,121398762476390,216.0,-17.0,43.0
UncalGyro,1676593895135,121398766970409,3.499647,-0.35155296,0.40393466,0.00046916603,-0.0009971252,-0.0032406067
UncalMag,1676593895138,121398769995373,-49.300198,19.3736,-106.993996,-47.771046,2.9698257,-64.15999
UncalAccel,1676593895141,121398771456737,4.38066,-8.505886,1.0755738,0.006110925,-0.043260336,-0.038735468
OrientationDeg,1676593895140,121398771456737,215.0,-16.0,41.0
UncalGyro,1676593895144,121398775945750,3.28279,-0.54168475,0.46089783,0.00046916603,-0.0009971252,-0.0032406067
UncalMag,1676593895150,121398780010753,-45.994,19.788399,-105.0664,-47.771046,2.9698257,-64.15999
UncalAccel,1676593895149,121398780424510,3.4390843,-8.83131,1.0839486,0.006110925,-0.043260336,-0.038735468
OrientationDeg,1676593895150,121398780424510,214.0,-16.0,40.0
UncalGyro,1676593895154,121398784927135,3.1613803,-0.81290895,0.59589905,0.00046916603,-0.0009971252,-0.0032406067
UncalAccel,1676593895158,121398789415844,2.9892337,-8.775079,1.5876378,0.006110925,-0.043260336,-0.038735468
UncalMag,1676593895158,121398789999279,-49.3246,17.7754,-109.5682,-47.771046,2.9698257,-64.15999
OrientationDeg,1676593895158,121398789415844,213.0,-16.0,39.0
UncalGyro,1676593895162,121398793910778,3.1311426,-1.0422888,0.7845037,0.00046916603,-0.0009971252,-0.0032406067
UncalAccel,1676593895168,121398798395641,2.818147,-8.222337,2.2666013,0.006110925,-0.043260336,-0.038735468
OrientationDeg,1676593895168,121398798395641,212.0,-16.0,37.0
UncalMag,1676593895170,121398800010753,-49.654,16.3968,-109.8854,-47.771046,2.9698257,-64.15999
UncalGyro,1676593895171,121398802883983,3.1461086,-1.1866057,0.98532563,0.00046916603,-0.0009971252,-0.0032406067
UncalAccel,1676593895177,121398807364940,3.0442686,-7.39442,2.1858435,0.006110925,-0.043260336,-0.038735468
OrientationDeg,1676593895176,121398807364940,210.0,-16.0,36.0
UncalMag,1676593895180,121398810010753,-49.836998,15.189,-113.765,-47.771046,2.9698257,-64.15999
UncalGyro,1676593895181,121398811867565,3.1662674,-1.3416128,1.1330023,0.00046916603,-0.0009971252,-0.0032406067
UncalAccel,1676593895186,121398816355053,3.313461,-7.190432,1.0588241,0.006110925,-0.043260336,-0.038735468
OrientationDeg,1676593895185,121398816355053,209.0,-16.0,34.0
UncalMag,1676593895189,121398820010998,-52.496597,13.0906,-113.093994,-47.771046,2.9698257,-64.15999
UncalGyro,1676593895190,121398820848460,3.1380148,-1.6542231,1.2551754,0.00046916603,-0.0009971252,-0.0032406067
UncalAccel,1676593895195,121398825332103,4.3555355,-6.501299,0.6478567,0.006110925,-0.043260336,-0.038735468
OrientationDeg,1676593895195,121398825332103,208.0,-16.0,33.0
UncalGyro,1676593895199,121398829816051,3.0674598,-2.0102048,1.324814,0.00046916603,-0.0009971252,-0.0032406067
UncalMag,1676593895198,121398829999279,-51.081398,12.7978,-111.7032,-47.771046,2.9698257,-64.15999
UncalAccel,1676593895204,121398834314647,5.5914283,-5.3096733,2.1367905,0.006110925,-0.043260336,-0.038735468
OrientationDeg,1676593895203,121398834314647,207.0,-17.0,32.0
UncalGyro,1676593895208,121398838805614,2.9483411,-2.1948388,1.3243558,0.00046916603,-0.0009971252,-0.0032406067
UncalMag,1676593895209,121398840010998,-52.2892,10.919,-111.373795,-47.771046,2.9698257,-64.15999
UncalAccel,1676593895213,121398843297313,6.2327046,-4.723432,2.5860431,0.006110925,-0.043260336,-0.038735468
OrientationDeg,1676593895212,121398843297313,205.0,-17.0,31.0
