# 
# Header Description:
# 
# Version: v3.0.5.6 Platform: 13 Manufacturer: Google Model: Pixel 6
# 
# Raw,utcTimeMillis,TimeNanos,LeapSecond,TimeUncertaintyNanos,FullBiasNanos,BiasNanos,BiasUncertaintyNanos,DriftNanosPerSecond,DriftUncertaintyNanosPerSecond,HardwareClockDiscontinuityCount,Svid,TimeOffsetNanos,State,ReceivedSvTimeNanos,ReceivedSvTimeUncertaintyNanos,Cn0DbHz,PseudorangeRateMetersPerSecond,PseudorangeRateUncertaintyMetersPerSecond,AccumulatedDeltaRangeState,AccumulatedDeltaRangeMeters,AccumulatedDeltaRangeUncertaintyMeters,CarrierFrequencyHz,CarrierCycles,CarrierPhase,CarrierPhaseUncertainty,MultipathIndicator,SnrInDb,ConstellationType,AgcDb,BasebandCn0DbHz,FullInterSignalBiasNanos,FullInterSignalBiasUncertaintyNanos,SatelliteInterSignalBiasNanos,SatelliteInterSignalBiasUncertaintyNanos,CodeType,ChipsetElapsedRealtimeNanos
# 
# UncalAccel,utcTimeMillis,elapsedRealtimeNanos,UncalAccelXMps2,UncalAccelYMps2,UncalAccelZMps2,BiasXMps2,BiasYMps2,BiasZMps2
# 
# Accel,utcTimeMillis,elapsedRealtimeNanos,AccelXMps2,AccelYMps2,AccelZMps2
# 
# UncalGyro,utcTimeMillis,elapsedRealtimeNanos,UncalGyroXRadPerSec,UncalGyroYRadPerSec,UncalGyroZRadPerSec,DriftXRadPerSec,DriftYRadPerSec,DriftZRadPerSec
# 
# Gyro,utcTimeMillis,elapsedRealtimeNanos,GyroXRadPerSec,GyroYRadPerSec,GyroZRadPerSec
# 
# UncalMag,utcTimeMillis,elapsedRealtimeNanos,UncalMagXMicroT,UncalMagYMicroT,UncalMagZMicroT,BiasXMicroT,BiasYMicroT,BiasZMicroT
# 
# Mag,utcTimeMillis,elapsedRealtimeNanos,MagXMicroT,MagYMicroT,MagZMicroT
# 
# OrientationDeg,utcTimeMillis,elapsedRealtimeNanos,yawDeg,rollDeg,pitchDeg
# 
# Fix,Provider,LatitudeDegrees,LongitudeDegrees,AltitudeMeters,SpeedMps,AccuracyMeters,BearingDegrees,UnixTimeMillis,SpeedAccuracyMps,BearingAccuracyDegrees,elapsedRealtimeNanos,VerticalAccuracyMeters
# 
# Nav,Svid,Type,Status,MessageId,Sub-messageId,Data(Bytes)
# 
# Status,UnixTimeMillis,SignalCount,SignalIndex,ConstellationType,Svid,CarrierFrequencyHz,Cn0DbHz,AzimuthDegrees,ElevationDegrees,UsedInFix,HasAlmanacData,HasEphemerisData,BasebandCn0DbHz
# 
UncalGyro,1676594011953,121515584681713,0.7664832,-0.7816021,-0.11652254,0.0004700959,-0.0010117572,-0.003242697
UncalAccel,1676594011950,121515580194835,2.1511476,0.2955136,11.380862,0.006110925,-0.043260336,-0.038735468
UncalAccel,1676594011959,121515589169506,2.5465615,-0.01794617,11.943774,0.006110925,-0.043260336,-0.038735468
OrientationDeg,1676594011949,121515580194835,331.0,-3.0,-11.0
UncalMag,1676594011948,121515579999035,-39.8574,17.8608,-108.2872,-47.771046,2.9698257,-64.15999
UncalMag,1676594011958,121515589999279,-37.7468,18.3,-107.97,-47.771046,2.9698257,-64.15999
Fix,FLP,37.4312389000,-122.1550750000,-15.80000114440918,0.7787903,4.227,221.3257,1676594011011,,,121514641823375,3.2352808
UncalGyro,1676594011962,121515593660533,1.0421361,-0.77381355,-0.18509217,0.0004700959,-0.0010117572,-0.003242697
UncalGyro,1676594011971,121515602643321,0.87949324,-0.37812558,0.012217305,0.0004700959,-0.0010117572,-0.003242697
UncalAccel,1676594011967,121515598151317,1.9244276,-2.492723,12.466606,0.006110925,-0.043260336,-0.038735468
UncalAccel,1676594011976,121515607131237,1.372882,-2.5471597,13.088141,0.006110925,-0.043260336,-0.038735468
UncalMag,1676594011968,121515599999767,-40.321,17.1654,-113.545395,-47.771046,2.9698257,-64.15999
UncalMag,1676594011979,121515609999279,-38.3568,18.0194,-110.5442,-47.771046,2.9698257,-64.15999
UncalGyro,1676594011981,121515611621654,0.6401868,0.23182335,0.27687466,0.0004700959,-0.0010117572,-0.003242697
UncalAccel,1676594011986,121515616110424,1.602593,-1.2203395,13.039089,0.006110925,-0.043260336,-0.038735468
UncalGyro,1676594011990,121515620602245,0.5271767,0.8220719,0.452193,0.0004700959,-0.0010117572,-0.003242697
UncalMag,1676594011990,121515620000011,-40.6748,17.336199,-113.679596,-47.771046,2.9698257,-64.15999
OrientationDeg,1676594011958,121515589169506,332.0,-3.0,-11.0
OrientationDeg,1676594011967,121515598151317,332.0,-3.0,-11.0
OrientationDeg,1676594011985,121515616110424,331.0,-3.0,-12.0
UncalAccel,1676594011994,121515625092784,1.9220347,-0.41694933,12.234502,0.006110925,-0.043260336,-0.038735468
OrientationDeg,1676594011995,121515625092784,331.0,-2.0,-12.0
UncalGyro,1676594011999,121515629592662,0.5476407,1.2550226,0.51159966,0.0004700959,-0.0010117572,-0.003242697
UncalMag,1676594011999,121515629999279,-38.2348,16.3358,-110.7882,-47.771046,2.9698257,-64.15999
UncalAccel,1676594012003,121515634071117,2.292324,0.12263216,11.471191,0.006110925,-0.043260336,-0.038735468
OrientationDeg,1676594012003,121515634071117,330.0,-2.0,-12.0
UncalGyro,1676594012008,121515638562694,0.65469486,1.5279267,0.46822822,0.0004700959,-0.0010117572,-0.003242697
UncalMag,1676594012010,121515640000011,-36.6,16.5798,-110.422195,-47.771046,2.9698257,-64.15999
UncalAccel,1676594012012,121515643047863,2.7756743,0.67058855,10.975878,0.006110925,-0.043260336,-0.038735468
OrientationDeg,1676594012012,121515643047863,330.0,-1.0,-13.0
UncalGyro,1676594012017,121515647546276,0.8582657,1.5963436,0.34529158,0.0004700959,-0.0010117572,-0.003242697
UncalMag,1676594012020,121515650000011,-36.3438,15.4939995,-108.824,-47.771046,2.9698257,-64.15999
UncalAccel,1676594012022,121515652037791,2.6943183,1.0785648,10.7348,0.006110925,-0.043260336,-0.038735468
OrientationDeg,1676594012022,121515652037791,330.0,0.0,-13.0
UncalGyro,1676594012026,121515656524242,1.17897,1.4822645,0.16905695,0.0004700959,-0.0010117572,-0.003242697
UncalMag,1676594012028,121515659999279,-35.8924,15.433,-109.019196,-47.771046,2.9698257,-64.15999
UncalAccel,1676594012030,121515661007945,2.5968108,1.3190435,10.535598,0.006110925,-0.043260336,-0.038735468
OrientationDeg,1676594012031,121515661007945,330.0,0.0,-14.0
UncalGyro,1676594012034,121515665498668,1.5705346,1.2357804,-0.04153884,0.0004700959,-0.0010117572,-0.003242697
UncalAccel,1676594012038,121515669990368,2.4263222,1.1473584,10.061819,0.006110925,-0.043260336,-0.038735468
UncalMag,1676594012039,121515670001720,-35.989998,14.603399,-110.263596,-47.771046,2.9698257,-64.15999
OrientationDeg,1676594012038,121515669990368,330.0,0.0,-15.0
UncalGyro,1676594012043,121515674482128,1.9654589,0.85047716,-0.2666427,0.0004700959,-0.0010117572,-0.003242697
UncalAccel,1676594012047,121515678969799,2.2971098,1.3202399,9.485747,0.006110925,-0.043260336,-0.038735468
UncalMag,1676594012048,121515679999523,-36.905,13.163799,-110.3978,-47.771046,2.9698257,-64.15999
OrientationDeg,1676594012047,121515678969799,330.0,0.0,-16.0
UncalGyro,1676594012052,121515683459788,2.2843306,0.27137688,-0.515723,0.0004700959,-0.0010117572,-0.003242697
UncalAccel,1676594012056,121515687948009,2.4933212,2.1768703,7.670193,0.006110925,-0.043260336,-0.038735468
OrientationDeg,1676594012056,121515687948009,331.0,0.0,-17.0
UncalMag,1676594012060,121515690002697,-36.221798,12.6514,-110.8614,-47.771046,2.9698257,-64.15999
UncalGyro,1676594012061,121515692440929,2.3577871,-0.700357,-0.8200866,0.0004700959,-0.0010117572,-0.003242697
UncalAccel,1676594012066,121515696929576,3.118446,2.37368,5.9204416,0.006110925,-0.043260336,-0.038735468
OrientationDeg,1676594012065,121515696929576,331.0,0.0,-18.0
Status,0,30,0,6,2,1176450050,38.01,92.0,78.0,1,1,1,33.91176
Status,0,30,1,6,2,1575420030,38.99,92.0,78.0,1,1,1,34.79281
Status,0,30,2,3,17,1604249980,40.19,299.0,74.0,1,1,1,35.986347
Status,0,30,3,1,11,1575420030,39.78,140.0,73.0,1,1,1,35.579243
Status,0,30,4,1,11,1176450050,43.36,140.0,73.0,1,1,1,39.26451
Status,0,30,5,3,15,1602000000,44.33,325.0,71.0,1,1,1,40.13086
Status,0,30,6,6,36,1575420030,39.67,56.0,66.0,1,1,1,35.46669
Status,0,30,7,6,36,1176450050,35.34,56.0,66.0,1,1,1,31.239756
Status,0,30,8,1,12,1575420030,46.62,324.0,60.0,1,1,1,42.42402
Status,0,30,9,6,34,1176450050,43.09,204.0,55.0,1,1,1,38.98974
Status,0,30,10,6,34,1575420030,46.38,204.0,55.0,1,1,1,42.181755
Status,0,30,11,3,14,1598062460,41.19,149.0,51.0,1,1,1,36.985043
Status,0,30,12,1,6,1176450050,37.71,50.0,48.0,1,1,1,33.607502
Status,0,30,13,1,6,1575420030,41.29,50.0,48.0,1,1,1,37.089394
Status,0,30,14,6,30,1176450050,37.76,315.0,43.0,1,1,1,33.656334
Status,0,30,15,6,30,1575420030,41.31,315.0,43.0,1,1,1,37.110596
Status,0,30,16,1,24,1575420030,42.08,222.0,42.0,1,1,1,37.881203
Status,0,30,17,1,24,1176450050,41.80,222.0,42.0,1,1,1,37.69696
Status,0,30,18,3,24,1603124990,43.91,32.0,35.0,1,1,1,39.710514
Status,0,30,19,3,18,1600312450,47.00,234.0,32.0,1,1,1,42.799133
Status,0,30,20,1,25,1176450050,39.25,311.0,31.0,1,1,1,35.145428
Status,0,30,21,1,25,1575420030,43.43,311.0,31.0,1,1,1,39.229424
Status,0,30,22,1,19,1575420030,42.50,58.0,28.0,1,1,1,38.301697
Status,0,30,23,6,25,1575420030,37.76,123.0,28.0,0,1,1,33.562
Status,0,30,24,6,25,1176450050,32.39,123.0,28.0,1,1,1,28.288414
Status,0,30,25,1,20,1575420030,40.43,145.0,23.0,1,1,1,36.233913
Status,0,30,26,6,11,1575420030,38.29,40.0,17.0,1,1,1,34.091103
Status,0,30,27,6,11,1176450050,33.99,40.0,17.0,1,1,1,29.89145
Status,0,30,28,3,16,1601437440,46.27,328.0,17.0,1,1,1,42.06604
Status,0,30,29,1,29,1575420030,45.65,261.0,12.0,1,1,1,41.45192
UncalMag,1676594012069,121515700000011,-37.319798,11.2118,-111.5812,-47.771046,2.9698257,-64.15999
UncalGyro,1676594012070,121515701420055,2.1578815,-1.9573649,-1.1801916,0.0004700959,-0.0010117572,-0.003242697
Raw,1676594010999,650539000000,,,-1360628578460991882,0.0,7.15992186128664,292.0,1.0,17,6,0.0,16431,434028928815759,23,36.42847442626953,494.8652376040543,0.15,16,302200.6702538659,340282346638528860000000000000000000000,1575420030,,,,0,,1,,32.22847366333008,0.320142130558394,1.0,0.320142130558394,1.0,C,121515593418000
Raw,1676594010999,650539000000,,,-1360628578460991882,0.0,7.15992186128664,292.0,1.0,17,11,0.0,16431,434028931799070,20,37.6075553894043,-47.65158564963906,0.15,16,-55805.823362727795,340282346638528860000000000000000000000,1575420030,,,,0,,1,,33.407554626464844,-0.20372681261465636,1.0,-0.20372681261465636,1.0,C,121515593418000
Raw,1676594010999,650539000000,,,-1360628578460991882,0.0,7.15992186128664,292.0,1.0,17,12,0.0,16431,434028930869502,15,43.4995231628418,-222.08297378423038,0.15,16,-158006.80418231286,340282346638528860000000000000000000000,1575420030,,,,0,,1,,39.299522399902344,-0.6984919076624261,1.0,-0.6984919076624261,1.0,C,121515593418000
Raw,1676594010999,650539000000,,,-1360628578460991882,0.0,7.15992186128664,292.0,1.0,17,19,0.0,16431,434028924561420,20,38.09486770629883,584.9216192163849,0.15,16,376359.9172884744,340282346638528860000000000000000000000,1575420030,,,,0,,1,,33.894866943359375,0.0,1.0,0.0,1.0,C,121515593418000
Raw,1676594010999,650539000000,,,-1360628578460991882,0.0,7.15992186128664,292.0,1.0,17,20,0.0,16431,434028921955472,47,27.412090301513672,-469.9212079013355,0.9051811848491882,16,-310201.04452347365,340282346638528860000000000000000000000,1575420030,,,,0,,1,,23.21209144592285,0.0,1.0,0.0,1.0,C,121515593418000
Raw,1676594010999,650539000000,,,-1360628578460991882,0.0,7.15992186128664,292.0,1.0,17,24,0.0,16431,434028926308805,18,39.10198211669922,556.7099339945416,0.15,16,345941.9127487233,340282346638528860000000000000000000000,1575420030,,,,0,,1,,34.901981353759766,-0.20372681261465636,1.0,-0.20372681261465636,1.0,C,121515593418000
Raw,1676594010999,650539000000,,,-1360628578460991882,0.0,7.15992186128664,292.0,1.0,17,25,0.0,16431,434028925526608,20,37.96669387817383,-467.3268853932757,0.15,16,-310311.98183100164,340282346638528860000000000000000000000,1575420030,,,,0,,1,,33.766693115234375,-2.0372682255564105,1.0,-2.0372682255564105,1.0,C,121515593418000
Raw,1676594010999,650539000000,,,-1360628578460991882,0.0,7.15992186128664,292.0,1.0,17,29,0.0,16423,434028917535668,25,35.28472137451172,-422.24670179968484,0.5539604385885097,16,-203728.09545648558,340282346638528860000000000000000000000,1575420030,,,,0,,1,,31.084720611572266,-0.6984919076624261,1.0,-0.6984919076624261,1.0,C,121515593418000
Raw,1676594010999,650539000000,,,-1360628578460991882,0.0,7.15992186128664,292.0,1.0,17,6,0.0,81921,434028928816303,10,35.24972152709961,494.80900155079166,0.5494689432975652,16,303497.9923559042,340282346638528860000000000000000000000,1176450050,,,,0,,1,,31.149723052978516,1.9208527336454408,1.3433186417026126,1.9208527336454408,1.0,Q,121515593418000
Raw,1676594010999,650539000000,,,-1360628578460991882,0.0,7.15992186128664,292.0,1.0,17,11,0.0,81921,434028931799615,11,43.36450958251953,-47.92562990161778,0.15,16,-56176.8053422377,340282346638528860000000000000000000000,1176450050,,,,0,,1,,39.26451110839844,0.0,1.3433186417026126,0.0,1.0,Q,121515593418000
Raw,1676594010999,650539000000,,,-1360628578460991882,0.0,7.15992186128664,292.0,1.0,17,24,0.0,81921,434028926309337,12,37.581512451171875,557.302866490669,0.15,16,347493.1689458287,340282346638528860000000000000000000000,1176450050,,,,0,,1,,33.48151397705078,3.5215636101095664,1.3433186417026126,3.5215636101095664,1.0,Q,121515593418000
Raw,1676594010999,650539000000,,,-1360628578460991882,0.0,7.15992186128664,292.0,1.0,17,25,0.0,81921,434028925527174,12,34.19865798950195,-467.5950802436537,0.5961424377991809,16,-311888.5471827263,340282346638528860000000000000000000000,1176450050,,,,0,,1,,30.09865951538086,1.0186341127782053,1.3433186417026126,1.0186341127782053,1.0,Q,121515593418000
Raw,1676594010999,650539000000,,,-1360628578460991882,0.0,7.15992186128664,292.0,1.0,17,14,0.0,32995,12810932496010,35,39.72803497314453,588.6131582472835,0.15,16,357856.4083274719,340282346638528860000000000000000000000,1598062460,,,,0,,3,,35.52803421020508,50.29141902923584,2.0000000474974513,50.29141902923584,2.0000000474974513,C,121515593418000
Raw,1676594010999,650539000000,,,-1360628578460991882,0.0,7.15992186128664,292.0,1.0,17,18,0.0,32995,12810928271485,33,46.9991340637207,-460.8534340136157,0.15,16,-316861.01426595415,340282346638528860000000000000000000000,1600312450,,,,0,,3,,42.79913330078125,50.29141902923584,2.0000000474974513,50.29141902923584,2.0000000474974513,C,121515593418000
Raw,1676594010999,650539000000,,,-1360628578460991882,0.0,7.15992186128664,292.0,1.0,17,16,0.0,32995,12810923522486,44,36.8930778503418,-669.7091597923977,0.15,16,-439762.1097876688,340282346638528860000000000000000000000,1601437440,,,,1,,3,,32.693077087402344,50.29141902923584,2.0000000474974513,50.29141902923584,2.0000000474974513,C,121515593418000
Raw,1676594010999,650539000000,,,-1360628578460991882,0.0,7.15992186128664,292.0,1.0,17,15,0.0,32995,12810935342853,33,41.782859802246094,-166.27141751758484,0.15,16,-135288.2250364084,340282346638528860000000000000000000000,1602000000,,,,0,,3,,37.58285903930664,50.29141902923584,2.0000000474974513,50.29141902923584,2.0000000474974513,C,121515593418000
Raw,1676594010999,650539000000,,,-1360628578460991882,0.0,7.15992186128664,292.0,1.0,17,24,0.0,32995,12810928910547,35,39.535640716552734,706.2830438870255,0.15,16,450798.00042482815,340282346638528860000000000000000000000,1603124990,,,,0,,3,,35.33563995361328,50.29141902923584,2.0000000474974513,50.29141902923584,2.0000000474974513,C,121515593418000
Raw,1676594010999,650539000000,,,-1360628578460991882,0.0,7.15992186128664,292.0,1.0,17,17,0.0,32995,12810936088830,37,39.1383171081543,112.3049320760299,0.15,16,47846.61705536478,340282346638528860000000000000000000000,1604249980,,,,0,,3,,34.938316345214844,50.29141902923584,2.0000000474974513,50.29141902923584,2.0000000474974513,C,121515593418000
Raw,1676594010999,650539000000,,,-1360628578460991882,0.0,7.15992186128664,292.0,1.0,17,2,0.0,85026,434028922152090,19,38.331764221191406,142.25922773804206,0.15,16,81124.07863159118,340282346638528860000000000000000000000,1575420030,,,,0,,6,,34.13176345825195,-6.024492904543876,1.5000000237487257,-6.024492904543876,1.5000000237487257,C,121515593418000
Raw,1676594010999,650539000000,,,-1360628578460991882,0.0,7.15992186128664,292.0,1.0,17,11,0.0,85026,434028910455900,24,35.586952209472656,609.0367294940124,0.5383764683289973,16,391524.1371998788,340282346638528860000000000000000000000,1575420030,,,,0,,6,,31.386951446533203,-6.024492904543876,1.5000000237487257,-6.024492904543876,1.5000000237487257,C,121515593418000
Raw,1676594010999,650539000000,,,-1360628578460991882,0.0,7.15992186128664,292.0,1.0,17,25,0.0,85026,434028912522442,41,30.705650329589844,506.48077736422374,299.79327522205335,16,319966.4525384479,340282346638528860000000000000000000000,1575420030,,,,0,,6,,26.505651473999023,-6.024492904543876,1.5000000237487257,-6.024492904543876,1.5000000237487257,C,121515593418000
Raw,1676594010999,650539000000,,,-1360628578460991882,0.0,7.15992186128664,292.0,1.0,17,30,0.0,85026,434028915635044,24,35.534820556640625,-292.6912751791997,0.5409328522701018,16,-195583.06824967198,340282346638528860000000000000000000000,1575420030,,,,1,,6,,31.334819793701172,-6.024492904543876,1.5000000237487257,-6.024492904543876,1.5000000237487257,C,121515593418000
Raw,1676594010999,650539000000,,,-1360628578460991882,0.0,7.15992186128664,292.0,1.0,17,34,0.0,85026,434028919434668,12,46.38175582885742,-263.38014103361536,0.15,16,-184803.3655793699,340282346638528860000000000000000000000,1575420030,,,,0,,6,,42.18175506591797,-6.024492904543876,1.5000000237487257,-6.024492904543876,1.5000000237487257,C,121515593418000
Raw,1676594010999,650539000000,,,-1360628578460991882,0.0,7.15992186128664,292.0,1.0,17,36,0.0,85026,434028920976638,26,34.90471649169922,268.0436946833163,0.5687898019590718,16,158960.56247825862,340282346638528860000000000000000000000,1575420030,,,,0,,6,,30.704715728759766,-6.024492904543876,1.5000000237487257,-6.024492904543876,1.5000000237487257,C,121515593418000
Raw,1676594010999,650539000000,,,-1360628578460991882,0.0,7.15992186128664,292.0,1.0,17,2,0.0,84003,434028922152634,11,38.011756896972656,142.2787740268579,0.15,16,81021.35954332756,340282346638528860000000000000000000000,1176450050,,,,0,,6,,33.91175842285156,-3.808038309216499,1.8433186654513383,-3.808038309216499,1.5000000237487257,Q,121515593418000
Raw,1676594010999,650539000000,,,-1360628578460991882,0.0,7.15992186128664,292.0,1.0,17,11,0.0,84003,434028910456448,16,31.92049789428711,608.3322451176859,0.6994755199962976,16,393130.0877951181,340282346638528860000000000000000000000,1176450050,,,,0,,6,,27.820497512817383,5.057780072093007,1.8433186654513383,5.057780072093007,1.5000000237487257,Q,121515593418000
Raw,1676594010999,650539000000,,,-1360628578460991882,0.0,7.15992186128664,292.0,1.0,17,25,0.0,84003,434028912522924,28,28.681997299194336,504.66704535790586,0.8454789058178025,16,319306.1149036498,340282346638528860000000000000000000000,1176450050,,,,0,,6,,24.58199691772461,-8.979765698313711,1.8433186654513383,-8.979765698313711,1.5000000237487257,Q,121515593418000
Raw,1676594010999,650539000000,,,-1360628578460991882,0.0,7.15992186128664,292.0,1.0,17,30,0.0,84003,434028915635582,12,31.93168830871582,-293.9664021250876,0.699903947125557,16,-196936.35904032222,340282346638528860000000000000000000000,1176450050,,,,0,,6,,27.831687927246094,-8.425652049481869,1.8433186654513383,-8.425652049481869,1.5000000237487257,Q,121515593418000
Raw,1676594010999,650539000000,,,-1360628578460991882,0.0,7.15992186128664,292.0,1.0,17,34,0.0,84003,434028919435211,11,42.81377410888672,-263.34500202094034,0.15,16,-185520.47257956592,340282346638528860000000000000000000000,1176450050,,,,0,,6,,38.713775634765625,-11.011515744030472,1.8433186654513383,-11.011515744030472,1.5000000237487257,Q,121515593418000
Raw,1676594010999,650539000000,,,-1360628578460991882,0.0,7.15992186128664,292.0,1.0,17,36,0.0,84003,434028920977178,46,25.806591033935547,267.98239738526,0.9763034832384396,16,159004.44395008066,340282346638528860000000000000000000000,1176450050,,,,0,,6,,21.70659065246582,-11.750333942472933,1.8433186654513383,-11.750333942472933,1.5000000237487257,Q,121515593418000
UncalAccel,1676594012074,121515705908275,4.4243293,1.6235301,7.795218,0.006110925,-0.043260336,-0.038735468
UncalMag,1676594012079,121515710002453,-41.0408,9.4184,-117.729996,-47.771046,2.9698257,-64.15999
UncalGyro,1676594012079,121515710398693,1.9645426,-2.8753426,-1.5117388,0.0004700959,-0.0010117572,-0.003242697
UncalAccel,1676594012083,121515714887279,5.4293146,1.5798612,9.739387,0.006110925,-0.043260336,-0.038735468
OrientationDeg,1676594012075,121515705908275,332.0,0.0,-20.0
OrientationDeg,1676594012084,121515714887279,333.0,-2.0,-20.0
Fix,GPS,37.4312994768,-122.1550536051,-18.34738764644034,0.9625208,3.0072942,15.513395,1676594010999,0.14772452,21.94911,121515593418000,3.0
Fix,FLP,37.4312392000,-122.1550799000,-16.5,1.0750734,4.202,213.05078,1676594011550,,,121515180606334,3.171604
UncalGyro,1676594012089,121515719378063,1.8774943,-3.4177911,-1.8058704,0.0004700959,-0.0010117572,-0.003242697
UncalMag,1676594012089,121515719999035,-38.918,10.748199,-112.9598,-47.771046,2.9698257,-64.15999
UncalAccel,1676594012092,121515723867503,6.3326054,2.3228326,10.424332,0.006110925,-0.043260336,-0.038735468
OrientationDeg,1676594012092,121515723867503,334.0,-3.0,-21.0
UncalGyro,1676594012097,121515728355662,1.8573358,-3.7546833,-2.1305454,0.0004700959,-0.0010117572,-0.003242697
UncalMag,1676594012099,121515730001720,-40.357597,9.7722,-112.130196,-47.771046,2.9698257,-64.15999
UncalAccel,1676594012102,121515732844676,6.89432,2.516053,10.880164,0.006110925,-0.043260336,-0.038735468
OrientationDeg,1676594012101,121515732844676,335.0,-5.0,-22.0
UncalGyro,1676594012107,121515737338512,1.8197676,-3.8967094,-2.4707973,0.0004700959,-0.0010117572,-0.003242697
UncalMag,1676594012109,121515739999767,-42.4194,9.3574,-113.3014,-47.771046,2.9698257,-64.15999
UncalAccel,1676594012110,121515741828075,6.6532435,2.4323041,13.285549,0.006110925,-0.043260336,-0.038735468
OrientationDeg,1676594012110,121515741828075,336.0,-6.0,-23.0
UncalGyro,1676594012116,121515746322642,1.5180001,-3.412904,-2.866027,0.0004700959,-0.0010117572,-0.003242697
UncalMag,1676594012119,121515750000255,-45.2986,8.0398,-113.081795,-47.771046,2.9698257,-64.15999
UncalAccel,1676594012120,121515750807628,5.851648,0.8925229,12.959527,0.006110925,-0.043260336,-0.038735468
OrientationDeg,1676594012119,121515750807628,338.0,-7.0,-24.0
UncalGyro,1676594012124,121515755303417,1.4466816,-2.9471195,-3.1351132,0.0004700959,-0.0010117572,-0.003242697
UncalAccel,1676594012129,121515759792247,5.066802,-0.18604197,13.922639,0.006110925,-0.043260336,-0.038735468
UncalMag,1676594012129,121515760003185,-46.4454,6.6124,-111.215195,-47.771046,2.9698257,-64.15999
OrientationDeg,1676594012128,121515759792247,340.0,-8.0,-25.0
UncalGyro,1676594012134,121515764278636,1.317331,-2.2791383,-3.2200234,0.0004700959,-0.0010117572,-0.003242697
UncalAccel,1676594012138,121515768768382,4.2927237,-0.6466603,13.521242,0.006110925,-0.043260336,-0.038735468
OrientationDeg,1676594012137,121515768768382,341.0,-8.0,-26.0
UncalMag,1676594012139,121515769999279,-49.3368,6.5513997,-113.9846,-47.771046,2.9698257,-64.15999
UncalGyro,1676594012142,121515773257579,1.1803443,-1.6163495,-3.108846,0.0004700959,-0.0010117572,-0.003242697
UncalAccel,1676594012146,121515777747752,3.3008988,-0.91405827,13.143177,0.006110925,-0.043260336,-0.038735468
OrientationDeg,1676594012146,121515777747752,343.0,-8.0,-27.0
UncalMag,1676594012150,121515780001964,-51.1546,6.1122,-115.3144,-47.771046,2.9698257,-64.15999
UncalGyro,1676594012151,121515782238780,0.98654735,-0.9211848,-2.8351784,0.0004700959,-0.0010117572,-0.003242697
UncalAccel,1676594012156,121515786726330,1.4045869,-0.4426722,12.803396,0.006110925,-0.043260336,-0.038735468
OrientationDeg,1676594012155,121515786726330,344.0,-8.0,-27.0
UncalMag,1676594012160,121515790002208,-47.4214,6.4782,-114.0334,-47.771046,2.9698257,-64.15999
UncalGyro,1676594012160,121515791224193,0.75579304,-0.14553864,-2.353511,0.0004700959,-0.0010117572,-0.003242697
UncalAccel,1676594012164,121515795708507,-4.4201417,1.1120644,12.075379,0.006110925,-0.043260336,-0.038735468
OrientationDeg,1676594012164,121515795708507,346.0,-7.0,-28.0
UncalMag,1676594012170,121515800002697,-46.2136,6.5758,-111.264,-47.771046,2.9698257,-64.15999
UncalGyro,1676594012169,121515800199718,0.5691737,0.4549419,-1.4054482,0.0004700959,-0.0010117572,-0.003242697
UncalAccel,1676594012173,121515804684459,-7.7150583,2.8671997,11.158929,0.006110925,-0.043260336,-0.038735468
OrientationDeg,1676594012173,121515804684459,346.0,-6.0,-28.0
UncalGyro,1676594012178,121515809180552,0.43310347,0.6973027,-0.26145032,0.0004700959,-0.0010117572,-0.003242697
UncalMag,1676594012179,121515809999523,-48.202198,5.551,-115.3144,-47.771046,2.9698257,-64.15999
UncalAccel,1676594012183,121515813666271,-2.5208387,3.281158,9.264411,0.006110925,-0.043260336,-0.038735468
OrientationDeg,1676594012182,121515813666271,346.0,-6.0,-28.0
UncalGyro,1676594012187,121515818166332,0.29229903,0.573297,0.40485093,0.0004700959,-0.0010117572,-0.003242697
UncalMag,1676594012189,121515819999767,-46.4454,5.7462,-111.678795,-47.771046,2.9698257,-64.15999
UncalAccel,1676594012192,121515822650829,3.3230324,2.8959136,8.707481,0.006110925,-0.043260336,-0.038735468
OrientationDeg,1676594012191,121515822650829,345.0,-6.0,-28.0
UncalGyro,1676594012196,121515827136058,0.23289238,0.30024028,0.52931476,0.0004700959,-0.0010117572,-0.003242697
UncalMag,1676594012200,121515830003185,-45.945198,6.039,-113.7772,-47.771046,2.9698257,-64.15999
UncalAccel,1676594012201,121515831622631,5.8474603,2.8241289,10.062417,0.006110925,-0.043260336,-0.038735468
OrientationDeg,1676594012200,121515831622631,345.0,-6.0,-28.0
UncalGyro,1676594012205,121515836115978,0.31398472,0.1217149,0.40317106,0.0004700959,-0.0010117572,-0.003242697
UncalMag,1676594012210,121515840000011,-45.7622,5.368,-113.2526,-47.771046,2.9698257,-64.15999
UncalAccel,1676594012209,121515840604076,6.476773,2.8205397,10.946566,0.006110925,-0.043260336,-0.038735468
OrientationDeg,1676594012210,121515840604076,345.0,-6.0,-29.0
UncalGyro,1676594012215,121515845095653,0.5013676,0.0154243475,0.24633141,0.0004700959,-0.0010117572,-0.003242697
UncalAccel,1676594012218,121515849584178,5.2863436,3.2644083,11.353345,0.006110925,-0.043260336,-0.038735468
UncalMag,1676594012218,121515849999279,-47.5556,4.3676,-113.155,-47.771046,2.9698257,-64.15999
OrientationDeg,1676594012219,121515849584178,345.0,-6.0,-29.0
UncalGyro,1676594012223,121515854075389,0.71791935,-0.0032070426,0.17913623,0.0004700959,-0.0010117572,-0.003242697
UncalAccel,1676594012228,121515858566966,3.5288153,3.7830527,10.952547,0.006110925,-0.043260336,-0.038735468
OrientationDeg,1676594012227,121515858566966,345.0,-6.0,-29.0
UncalMag,1676594012229,121515860000988,-46.6894,4.9044,-112.300995,-47.771046,2.9698257,-64.15999
UncalGyro,1676594012232,121515863055614,0.88712907,0.045814894,0.25427267,0.0004700959,-0.0010117572,-0.003242697
UncalAccel,1676594012236,121515867547741,2.1260228,3.3397822,9.533604,0.006110925,-0.043260336,-0.038735468
OrientationDeg,1676594012237,121515867547741,344.0,-7.0,-30.0
UncalMag,1676594012239,121515870010998,-49.4344,3.6722,-115.424194,-47.771046,2.9698257,-64.15999
UncalGyro,1676594012241,121515872048778,0.9763154,0.044898596,0.49281552,0.0004700959,-0.0010117572,-0.003242697
UncalAccel,1676594012246,121515876536815,0.907478,2.958127,7.676773,0.006110925,-0.043260336,-0.038735468
OrientationDeg,1676594012245,121515876536815,344.0,-7.0,-30.0
UncalMag,1676594012250,121515880010753,-47.641,3.9039998,-113.1794,-47.771046,2.9698257,-64.15999
UncalGyro,1676594012250,121515881027537,0.99021256,-0.10842858,0.8304713,0.0004700959,-0.0010117572,-0.003242697
UncalAccel,1676594012255,121515885514049,1.457229,3.5102708,5.2277193,0.006110925,-0.043260336,-0.038735468
OrientationDeg,1676594012255,121515885514049,343.0,-7.0,-31.0
UncalGyro,1676594012259,121515890006237,0.86926126,-0.32727104,1.0531317,0.0004700959,-0.0010117572,-0.003242697
UncalMag,1676594012259,121515890013683,-49.1904,2.4034,-114.4238,-47.771046,2.9698257,-64.15999
UncalAccel,1676594012264,121515894493846,1.7623138,3.181856,3.7501514,0.006110925,-0.043260336,-0.038735468
OrientationDeg,1676594012263,121515894493846,342.0,-8.0,-31.0
UncalGyro,1676594012267,121515898984752,0.68294734,-0.59727347,1.1557571,0.0004700959,-0.0010117572,-0.003242697
UncalMag,1676594012270,121515900010753,-48.982998,2.3668,-115.0216,-47.771046,2.9698257,-64.15999
UncalAccel,1676594012273,121515903472667,1.474577,2.9336007,2.8516464,0.006110925,-0.043260336,-0.038735468
OrientationDeg,1676594012273,121515903472667,342.0,-9.0,-31.0
UncalGyro,1676594012277,121515907959666,0.48243082,-0.8753699,1.2180653,0.0004700959,-0.0010117572,-0.003242697
UncalMag,1676594012280,121515910010998,-49.8614,1.1712,-112.154594,-47.771046,2.9698257,-64.15999
UncalAccel,1676594012282,121515912442760,2.2468605,4.0366917,2.5082762,0.006110925,-0.043260336,-0.038735468
OrientationDeg,1676594012282,121515912442760,341.0,-10.0,-31.0
UncalGyro,1676594012285,121515916944164,0.26389378,-1.1045971,1.1731668,0.0004700959,-0.0010117572,-0.003242697
UncalMag,1676594012290,121515920010753,-51.7768,1.3298,-114.948395,-47.771046,2.9698257,-64.15999
UncalAccel,1676594012290,121515921433299,3.057429,5.3312087,2.6039891,0.006110925,-0.043260336,-0.038735468
OrientationDeg,1676594012291,121515921433299,340.0,-11.0,-31.0
UncalGyro,1676594012295,121515925926463,0.03313944,-1.2924381,1.0144944,0.0004700959,-0.0010117572,-0.003242697
UncalMag,1676594012300,121515930010509,-49.6296,2.8425999,-115.0704,-47.771046,2.9698257,-64.15999
UncalAccel,1676594012300,121515930412181,3.1573296,6.587441,3.6311083,0.006110925,-0.043260336,-0.038735468
OrientationDeg,1676594012300,121515930412181,340.0,-12.0,-31.0
UncalGyro,1676594012303,121515934903514,-0.18829921,-1.3632985,0.7658723,0.0004700959,-0.0010117572,-0.003242697
UncalAccel,1676594012308,121515939392650,2.8965118,7.888538,5.2331033,0.006110925,-0.043260336,-0.038735468
UncalMag,1676594012308,121515939999279,-51.471798,2.0618,-113.9602,-47.771046,2.9698257,-64.15999
OrientationDeg,1676594012309,121515939392650,339.0,-13.0,-31.0
UncalGyro,1676594012312,121515943884288,-0.3735441,-1.3016012,0.46563202,0.0004700959,-0.0010117572,-0.003242697
UncalAccel,1676594012317,121515948372081,2.1852453,8.492725,6.3720865,0.006110925,-0.043260336,-0.038735468
OrientationDeg,1676594012317,121515948372081,339.0,-13.0,-31.0
UncalMag,1676594012319,121515949993908,-50.776398,2.5986,-113.3624,-47.771046,2.9698257,-64.15999
UncalGyro,1676594012322,121515952862499,-0.53985214,-1.149343,0.17134771,0.0004700959,-0.0010117572,-0.003242697
UncalAccel,1676594012327,121515957352245,1.5840486,8.559127,7.603792,0.006110925,-0.043260336,-0.038735468
OrientationDeg,1676594012326,121515957352245,339.0,-14.0,-30.0
UncalMag,1676594012330,121515960005626,-50.0444,4.087,-114.0456,-47.771046,2.9698257,-64.15999
UncalGyro,1676594012331,121515961843761,-0.7255552,-0.85994554,-0.08017606,0.0004700959,-0.0010117572,-0.003242697
UncalAccel,1676594012336,121515966331310,1.3968102,8.344969,8.49811,0.006110925,-0.043260336,-0.038735468
OrientationDeg,1676594012336,121515966331310,340.0,-14.0,-30.0
UncalMag,1676594012340,121515970010998,-47.458,4.3188,-110.422195,-47.771046,2.9698257,-64.15999
UncalGyro,1676594012340,121515970822216,-0.91919947,-0.49357912,-0.27947086,0.0004700959,-0.0010117572,-0.003242697
UncalAccel,1676594012345,121515975310924,1.230509,7.468598,8.935996,0.006110925,-0.043260336,-0.038735468
OrientationDeg,1676594012345,121515975310924,340.0,-14.0,-30.0
UncalGyro,1676594012348,121515979803478,-1.0647382,-0.16279559,-0.3472769,0.0004700959,-0.0010117572,-0.003242697
UncalMag,1676594012348,121515979995861,-51.118,3.8795998,-112.8622,-47.771046,2.9698257,-64.15999
UncalAccel,1676594012354,121515984291210,0.8488538,5.864808,8.453842,0.006110925,-0.043260336,-0.038735468
OrientationDeg,1676594012353,121515984291210,340.0,-14.0,-29.0
UncalGyro,1676594012358,121515988782238,-1.1282681,-0.024892759,-0.22052236,0.0004700959,-0.0010117572,-0.003242697
UncalMag,1676594012360,121515990010753,-48.556,4.9898,-111.2762,-47.771046,2.9698257,-64.15999
UncalAccel,1676594012362,121515993269786,0.64606214,4.5278187,7.9651084,0.006110925,-0.043260336,-0.038735468
OrientationDeg,1676594012362,121515993269786,340.0,-14.0,-29.0
UncalGyro,1676594012366,121515997758373,-1.1304061,0.02397646,0.03772093,0.0004700959,-0.0010117572,-0.003242697
UncalMag,1676594012369,121516000010753,-53.106598,3.8674,-114.008995,-47.771046,2.9698257,-64.15999
UncalAccel,1676594012371,121516002250377,0.7609176,3.8177485,8.676374,0.006110925,-0.043260336,-0.038735468
OrientationDeg,1676594012371,121516002250377,340.0,-14.0,-28.0
UncalGyro,1676594012376,121516006741588,-1.1297953,0.21777347,0.33383787,0.0004700959,-0.0010117572,-0.003242697
UncalMag,1676594012380,121516010010753,-50.6788,5.246,-113.9236,-47.771046,2.9698257,-64.15999
UncalAccel,1676594012380,121516011231456,1.1706885,3.662215,9.506684,0.006110925,-0.043260336,-0.038735468
OrientationDeg,1676594012381,121516011231456,340.0,-13.0,-27.0
UncalGyro,1676594012385,121516015718883,-1.1339186,0.47784933,0.5739079,0.0004700959,-0.0010117572,-0.003242697
UncalMag,1676594012390,121516020010998,-50.544598,6.6124,-114.4116,-47.771046,2.9698257,-64.15999
UncalAccel,1676594012390,121516020193248,1.6193427,3.6209388,8.303095,0.006110925,-0.043260336,-0.038735468
OrientationDeg,1676594012389,121516020193248,340.0,-13.0,-27.0
UncalGyro,1676594012394,121516024689342,-1.1140655,0.4906775,0.7145596,0.0004700959,-0.0010117572,-0.003242697
UncalAccel,1676594012399,121516029189891,2.1714866,3.5976088,7.4380894,0.006110925,-0.043260336,-0.038735468
OrientationDeg,1676594012398,121516029189891,340.0,-13.0,-26.0
UncalMag,1676594012398,121516029999523,-48.055798,7.1858,-111.8618,-47.771046,2.9698257,-64.15999
UncalGyro,1676594012402,121516033685497,-1.0621419,0.36071593,0.79076505,0.0004700959,-0.0010117572,-0.003242697
UncalAccel,1676594012408,121516038172496,2.7110682,3.6664026,7.388438,0.006110925,-0.043260336,-0.038735468
OrientationDeg,1676594012408,121516038172496,340.0,-13.0,-25.0
UncalMag,1676594012410,121516040010753,-49.6418,7.1492,-113.0086,-47.771046,2.9698257,-64.15999
UncalGyro,1676594012412,121516042660533,-0.97600996,0.17211129,0.81031275,0.0004700959,-0.0010117572,-0.003242697
UncalAccel,1676594012416,121516047149242,3.3038898,3.9314077,7.4590263,0.006110925,-0.043260336,-0.038735468
OrientationDeg,1676594012416,121516047149242,339.0,-13.0,-25.0
UncalMag,1676594012420,121516050010753,-47.4092,8.064199,-111.7886,-47.771046,2.9698257,-64.15999
UncalGyro,1676594012421,121516051641185,-0.8561276,-0.046578474,0.7600691,0.0004700959,-0.0010117572,-0.003242697
UncalAccel,1676594012425,121516056128795,3.5168512,4.011567,7.8514495,0.006110925,-0.043260336,-0.038735468
OrientationDeg,1676594012425,121516056128795,339.0,-13.0,-24.0
UncalMag,1676594012429,121516059998790,-48.446198,8.2472,-111.0078,-47.771046,2.9698257,-64.15999
UncalGyro,1676594012429,121516060616344,-0.7151705,-0.19822577,0.64721173,0.0004700959,-0.0010117572,-0.003242697
UncalAccel,1676594012435,121516065093944,3.112464,3.8368912,8.472985,0.006110925,-0.043260336,-0.038735468
OrientationDeg,1676594012435,121516065093944,339.0,-14.0,-24.0
UncalGyro,1676594012439,121516069600048,-0.5209153,-0.29932398,0.5174029,0.0004700959,-0.0010117572,-0.003242697
UncalMag,1676594012439,121516069999035,-46.738197,9.2598,-109.3974,-47.771046,2.9698257,-64.15999
UncalAccel,1676594012443,121516074088512,3.2805598,3.9176488,8.273783,0.006110925,-0.043260336,-0.038735468
OrientationDeg,1676594012444,121516074088512,338.0,-14.0,-24.0
UncalGyro,1676594012447,121516078583080,-0.25442538,-0.56245416,0.3391829,0.0004700959,-0.0010117572,-0.003242697
UncalMag,1676594012450,121516080010753,-48.7268,8.881599,-111.325,-47.771046,2.9698257,-64.15999
UncalAccel,1676594012453,121516083068248,4.156333,3.475575,7.8849487,0.006110925,-0.043260336,-0.038735468
OrientationDeg,1676594012453,121516083068248,338.0,-14.0,-24.0
UncalGyro,1676594012456,121516087560436,0.10476339,-0.9399689,0.13805555,0.0004700959,-0.0010117572,-0.003242697
UncalMag,1676594012460,121516090010998,-51.1302,8.1984,-112.972,-47.771046,2.9698257,-64.15999
UncalAccel,1676594012461,121516092047985,4.000201,1.5690935,9.575478,0.006110925,-0.043260336,-0.038735468
OrientationDeg,1676594012462,121516092047985,338.0,-15.0,-24.0
UncalGyro,1676594012465,121516096539012,0.5688683,-1.1314751,0.026419923,0.0004700959,-0.0010117572,-0.003242697
UncalMag,1676594012470,121516100010753,-50.6544,8.3814,-110.837,-47.771046,2.9698257,-64.15999
UncalAccel,1676594012470,121516101027660,2.885744,-0.52342993,11.985648,0.006110925,-0.043260336,-0.038735468
OrientationDeg,1676594012471,121516101027660,338.0,-16.0,-24.0
UncalGyro,1676594012475,121516105519725,1.0383182,-0.9092729,0.011148291,0.0004700959,-0.0010117572,-0.003242697
UncalAccel,1676594012479,121516110007701,0.8542377,-2.1212373,13.5170555,0.006110925,-0.043260336,-0.038735468
UncalMag,1676594012480,121516110018322,-51.5816,7.5762,-112.618195,-47.771046,2.9698257,-64.15999
OrientationDeg,1676594012479,121516110007701,338.0,-16.0,-25.0
UncalGyro,1676594012483,121516114495494,1.3536774,-0.26908615,0.20799962,0.0004700959,-0.0010117572,-0.003242697
UncalAccel,1676594012487,121516118975536,-0.9206385,-3.4301112,11.853445,0.006110925,-0.043260336,-0.038735468
UncalMag,1676594012489,121516119999523,-52.8626,6.4294,-112.3498,-47.771046,2.9698257,-64.15999
OrientationDeg,1676594012488,121516118975536,337.0,-16.0,-25.0
UncalGyro,1676594012492,121516123479320,1.3973542,0.45799622,0.660498,0.0004700959,-0.0010117572,-0.003242697
UncalAccel,1676594012496,121516127966930,-1.1784651,-2.8594232,7.9998045,0.006110925,-0.043260336,-0.038735468
OrientationDeg,1676594012497,121516127966930,337.0,-16.0,-26.0
UncalMag,1676594012500,121516130010998,-49.166,6.9662,-111.4348,-47.771046,2.9698257,-64.15999
UncalGyro,1676594012501,121516132460826,1.1969905,0.9240864,1.0931433,0.0004700959,-0.0010117572,-0.003242697
UncalAccel,1676594012505,121516136946300,-0.28773692,-1.0971092,4.061816,0.006110925,-0.043260336,-0.038735468
OrientationDeg,1676594012506,121516136946300,336.0,-16.0,-26.0
UncalMag,1676594012510,121516140010998,-48.739,6.1976,-110.3002,-47.771046,2.9698257,-64.15999
UncalGyro,1676594012510,121516141437389,0.8501717,1.0447323,1.3240504,0.0004700959,-0.0010117572,-0.003242697
UncalAccel,1676594012514,121516145926403,1.0199406,0.7495517,1.7371893,0.006110925,-0.043260336,-0.038735468
OrientationDeg,1676594012514,121516145926403,335.0,-16.0,-26.0
UncalMag,1676594012519,121516150010998,-49.593,6.1,-110.7028,-47.771046,2.9698257,-64.15999
UncalGyro,1676594012520,121516150417369,0.4334089,0.9062186,1.3437508,0.0004700959,-0.0010117572,-0.003242697
UncalAccel,1676594012523,121516154904430,2.2295125,1.6247265,1.4279169,0.006110925,-0.043260336,-0.038735468
OrientationDeg,1676594012523,121516154904430,334.0,-16.0,-26.0
UncalGyro,1676594012529,121516159390148,0.034208454,0.6899723,1.2006557,0.0004700959,-0.0010117572,-0.003242697
UncalMag,1676594012529,121516160000255,-49.0196,5.7218,-111.1298,-47.771046,2.9698257,-64.15999
UncalAccel,1676594012533,121516163886425,2.3688943,1.9262222,2.612364,0.006110925,-0.043260336,-0.038735468
OrientationDeg,1676594012532,121516163886425,334.0,-16.0,-26.0
UncalGyro,1676594012538,121516168377086,-0.25579983,0.57650405,1.0123564,0.0004700959,-0.0010117572,-0.003242697
UncalMag,1676594012540,121516170009289,-48.7268,5.7339997,-111.812996,-47.771046,2.9698257,-64.15999
UncalAccel,1676594012541,121516172867748,2.1529422,1.8514465,3.7734814,0.006110925,-0.043260336,-0.038735468
OrientationDeg,1676594012542,121516172867748,333.0,-16.0,-25.0
UncalGyro,1676594012546,121516177357982,-0.41920626,0.5143485,0.8700248,0.0004700959,-0.0010117572,-0.003242697
UncalMag,1676594012550,121516180010753,-49.959,5.9658,-112.276596,-47.771046,2.9698257,-64.15999
UncalAccel,1676594012550,121516181842174,1.791626,1.1533405,4.3686957,0.006110925,-0.043260336,-0.038735468
OrientationDeg,1676594012550,121516181842174,333.0,-16.0,-25.0
UncalGyro,1676594012555,121516186322948,-0.4689918,0.41691554,0.82879144,0.0004700959,-0.0010117572,-0.003242697
UncalMag,1676594012560,121516190010998,-50.0932,5.6608,-113.215996,-47.771046,2.9698257,-64.15999
UncalAccel,1676594012559,121516190825267,1.4542379,0.62811595,4.398008,0.006110925,-0.043260336,-0.038735468
OrientationDeg,1676594012559,121516190825267,332.0,-16.0,-25.0
UncalGyro,1676594012564,121516195317211,-0.40653083,0.236863,0.8549059,0.0004700959,-0.0010117572,-0.003242697
UncalAccel,1676594012568,121516199808117,1.1282159,0.6442675,3.862614,0.006110925,-0.043260336,-0.038735468
UncalMag,1676594012569,121516200000011,-47.6044,7.442,-113.1062,-47.771046,2.9698257,-64.15999
OrientationDeg,1676594012568,121516199808117,332.0,-16.0,-24.0
UncalGyro,1676594012573,121516204293529,-0.26618454,-0.046120327,0.91919947,0.0004700959,-0.0010117572,-0.003242697
UncalAccel,1676594012577,121516208776500,0.907478,0.506082,2.9318058,0.006110925,-0.043260336,-0.038735468
UncalMag,1676594012580,121516210010998,-49.471,6.2342,-112.764595,-47.771046,2.9698257,-64.15999
OrientationDeg,1676594012578,121516208776500,331.0,-16.0,-24.0
UncalGyro,1676594012582,121516213275768,-0.10842858,-0.42271876,1.0288498,0.0004700959,-0.0010117572,-0.003242697
UncalAccel,1676594012587,121516217764415,0.79740816,0.089132644,2.4095724,0.006110925,-0.043260336,-0.038735468
OrientationDeg,1676594012586,121516217764415,331.0,-17.0,-24.0
UncalMag,1676594012590,121516220010998,-46.9822,6.8808,-110.7638,-47.771046,2.9698257,-64.15999
UncalGyro,1676594012591,121516222257518,-0.005192355,-0.796721,1.1939361,0.0004700959,-0.0010117572,-0.003242697
UncalAccel,1676594012595,121516226740612,0.82971126,-0.08853444,2.3042881,0.006110925,-0.043260336,-0.038735468
OrientationDeg,1676594012596,121516226740612,330.0,-17.0,-24.0
UncalMag,1676594012600,121516230010998,-48.4584,6.5636,-110.6296,-47.771046,2.9698257,-64.15999
UncalGyro,1676594012600,121516231220653,0.012675454,-1.0948232,1.3988814,0.0004700959,-0.0010117572,-0.003242697
UncalAccel,1676594012605,121516235723949,1.1431711,0.31286156,2.2025933,0.006110925,-0.043260336,-0.038735468
OrientationDeg,1676594012604,121516235723949,329.0,-18.0,-23.0
UncalMag,1676594012609,121516240010753,-48.128998,6.7465997,-108.104195,-47.771046,2.9698257,-64.15999
UncalGyro,1676594012610,121516240211803,-0.04337143,-1.3472633,1.5873333,0.0004700959,-0.0010117572,-0.003242697
UncalAccel,1676594012614,121516244695873,1.9902302,0.5665008,1.8981066,0.006110925,-0.043260336,-0.038735468
OrientationDeg,1676594012613,121516244695873,328.0,-20.0,-23.0
UncalGyro,1676594012618,121516249195446,-0.14721853,-1.614975,1.7183639,0.0004700959,-0.0010117572,-0.003242697
UncalMag,1676594012620,121516250010753,-50.1908,6.4416,-108.4458,-47.771046,2.9698257,-64.15999
UncalAccel,1676594012622,121516253683544,2.777469,0.25962126,1.3615161,0.006110925,-0.043260336,-0.038735468
OrientationDeg,1676594012622,121516253683544,328.0,-21.0,-23.0
UncalGyro,1676594012627,121516258177378,-0.3155119,-1.9225457,1.8550451,0.0004700959,-0.0010117572,-0.003242697
UncalMag,1676594012629,121516260002453,-51.9354,6.4782,-109.7512,-47.771046,2.9698257,-64.15999
UncalAccel,1676594012632,121516262663280,3.4767714,-0.22911277,1.7910278,0.006110925,-0.043260336,-0.038735468
OrientationDeg,1676594012631,121516262663280,327.0,-22.0,-22.0
UncalGyro,1676594012636,121516267155162,-0.5123632,-2.1019874,1.9679024,0.0004700959,-0.0010117572,-0.003242697
UncalMag,1676594012640,121516270012706,-55.0952,5.9658,-109.678,-47.771046,2.9698257,-64.15999
UncalAccel,1676594012641,121516271642955,3.790231,-0.71007013,2.3048863,0.006110925,-0.043260336,-0.038735468
OrientationDeg,1676594012641,121516271642955,326.0,-24.0,-21.0
UncalGyro,1676594012646,121516276133861,-0.73532903,-2.1368067,2.100002,0.0004700959,-0.0010117572,-0.003242697
UncalMag,1676594012649,121516279999523,-56.059,6.1366,-110.715,-47.771046,2.9698257,-64.15999
UncalAccel,1676594012649,121516280622204,3.9397824,-1.3770695,2.87378,0.006110925,-0.043260336,-0.038735468
OrientationDeg,1676594012649,121516280622204,325.0,-25.0,-20.0
UncalGyro,1676594012654,121516285113536,-0.97784257,-2.070375,2.273335,0.0004700959,-0.0010117572,-0.003242697
UncalAccel,1676594012658,121516289601879,4.2741795,-2.0261226,3.6251264,0.006110925,-0.043260336,-0.038735468
UncalMag,1676594012658,121516289999279,-56.229797,6.8441997,-109.3974,-47.771046,2.9698257,-64.15999
OrientationDeg,1676594012659,121516289601879,324.0,-27.0,-19.0
UncalGyro,1676594012664,121516294093212,-1.2008084,-1.927738,2.4726298,0.0004700959,-0.0010117572,-0.003242697
UncalAccel,1676594012667,121516298582347,4.847859,-2.5758736,4.368098,0.006110925,-0.043260336,-0.038735468
OrientationDeg,1676594012667,121516298582347,323.0,-28.0,-18.0
UncalMag,1676594012669,121516300010998,-57.779198,7.8933997,-110.6662,-47.771046,2.9698257,-64.15999
UncalGyro,1676594012672,121516303073986,-1.3753631,-1.7351627,2.6209173,0.0004700959,-0.0010117572,-0.003242697
UncalAccel,1676594012677,121516307561962,5.258228,-2.8229325,4.8454657,0.006110925,-0.043260336,-0.038735468
OrientationDeg,1676594012676,121516307561962,322.0,-29.0,-16.0
UncalMag,1676594012680,121516310010998,-60.902397,7.0271997,-110.287994,-47.771046,2.9698257,-64.15999
UncalGyro,1676594012681,121516312052867,-1.4992161,-1.521818,2.7324002,0.0004700959,-0.0010117572,-0.003242697
UncalAccel,1676594012685,121516316541698,5.620142,-2.882155,4.9088755,0.006110925,-0.043260336,-0.038735468
OrientationDeg,1676594012685,121516316541698,321.0,-30.0,-15.0
UncalMag,1676594012689,121516320010753,-60.438797,8.6254,-108.7996,-47.771046,2.9698257,-64.15999
UncalGyro,1676594012690,121516321033580,-1.5931365,-1.3548992,2.8264735,0.0004700959,-0.0010117572,-0.003242697
UncalAccel,1676594012695,121516325522349,6.1292152,-2.7469604,4.301697,0.006110925,-0.043260336,-0.038735468
OrientationDeg,1676594012695,121516325522349,320.0,-31.0,-13.0
UncalGyro,1676594012700,121516330015696,-1.7282904,-1.3309226,2.8890872,0.0004700959,-0.0010117572,-0.003242697
UncalMag,1676594012699,121516330018810,-57.2912,11.7242,-107.945595,-47.771046,2.9698257,-64.15999
UncalAccel,1676594012703,121516334498912,6.814161,-2.4634109,3.1770704,0.006110925,-0.043260336,-0.038735468
OrientationDeg,1676594012704,121516334498912,320.0,-32.0,-12.0
UncalGyro,1676594012708,121516338992992,-1.9339994,-1.5483906,2.8835895,0.0004700959,-0.0010117572,-0.003242697
UncalMag,1676594012710,121516340010753,-57.2912,11.7242,-107.945595,-47.771046,2.9698257,-64.15999
UncalAccel,1676594012712,121516343479625,9.090932,-2.650051,2.2809582,0.006110925,-0.043260336,-0.038735468
OrientationDeg,1676594012713,121516343479625,319.0,-33.0,-10.0
UncalGyro,1676594012717,121516347972301,-2.155438,-2.0384574,2.617863,0.0004700959,-0.0010117572,-0.003242697
UncalMag,1676594012719,121516349999279,-63.6596,12.2244,-107.921196,-47.771046,2.9698257,-64.15999
UncalAccel,1676594012721,121516352460033,11.165508,-3.0364919,2.4311078,0.006110925,-0.043260336,-0.038735468
OrientationDeg,1676594012722,121516352460033,319.0,-35.0,-8.0
UncalGyro,1676594012725,121516356951366,-2.377182,-2.6800187,2.3162482,0.0004700959,-0.0010117572,-0.003242697
UncalMag,1676594012730,121516360008800,-61.5734,15.4452,-108.4458,-47.771046,2.9698257,-64.15999
UncalAccel,1676594012730,121516361440380,9.136993,-2.5154548,3.735196,0.006110925,-0.043260336,-0.038735468
OrientationDeg,1676594012731,121516361440380,318.0,-36.0,-7.0
UncalGyro,1676594012735,121516365931591,-2.5347853,-3.2462907,2.2417228,0.0004700959,-0.0010117572,-0.003242697
UncalMag,1676594012740,121516370010753,-59.0602,17.263,-104.1026,-47.771046,2.9698257,-64.15999
UncalAccel,1676594012740,121516370418895,10.054641,-2.650051,5.011169,0.006110925,-0.043260336,-0.038735468
OrientationDeg,1676594012740,121516370418895,318.0,-38.0,-5.0
UncalGyro,1676594012744,121516374906078,-2.7017043,-3.6285396,2.1783454,0.0004700959,-0.0010117572,-0.003242697
UncalAccel,1676594012749,121516379399425,10.707881,-3.7657046,7.138388,0.006110925,-0.043260336,-0.038735468
UncalMag,1676594012748,121516379999035,-61.0732,18.4464,-102.2848,-47.771046,2.9698257,-64.15999
OrientationDeg,1676594012748,121516379399425,318.0,-40.0,-3.0
UncalGyro,1676594012753,121516383890575,-2.8486173,-3.7794232,2.208278,0.0004700959,-0.0010117572,-0.003242697
UncalAccel,1676594012758,121516388381237,9.723235,-5.575875,9.669396,0.006110925,-0.043260336,-0.038735468
OrientationDeg,1676594012757,121516388381237,318.0,-42.0,-1.0
UncalMag,1676594012759,121516390010753,-61.9394,19.6054,-99.9424,-47.771046,2.9698257,-64.15999
UncalGyro,1676594012761,121516392871471,-2.922532,-3.7850738,2.388025,0.0004700959,-0.0010117572,-0.003242697
UncalAccel,1676594012767,121516397359081,10.532607,-7.353742,12.056237,0.006110925,-0.043260336,-0.038735468
OrientationDeg,1676594012767,121516397359081,319.0,-44.0,0.0
UncalMag,1676594012770,121516400010753,-63.013,21.069399,-99.3568,-47.771046,2.9698257,-64.15999
UncalGyro,1676594012770,121516401850231,-2.8817568,-3.554014,2.6438248,0.0004700959,-0.0010117572,-0.003242697
UncalAccel,1676594012776,121516406336375,11.969497,-8.435896,12.920046,0.006110925,-0.043260336,-0.038735468
OrientationDeg,1676594012776,121516406336375,319.0,-46.0,2.0
UncalMag,1676594012779,121516410010998,-64.4648,22.021,-99.491,-47.771046,2.9698257,-64.15999
UncalGyro,1676594012780,121516410819591,-2.7296515,-3.2951598,2.8687758,0.0004700959,-0.0010117572,-0.003242697
UncalAccel,1676594012784,121516415318065,13.006785,-9.0747795,13.192827,0.006110925,-0.043260336,-0.038735468
OrientationDeg,1676594012785,121516415318065,318.0,-47.0,4.0
UncalGyro,1676594012788,121516419806041,-2.526844,-3.1526756,3.021034,0.0004700959,-0.0010117572,-0.003242697
UncalMag,1676594012789,121516420003185,-64.2818,24.570799,-99.0396,-47.771046,2.9698257,-64.15999
UncalAccel,1676594012793,121516424301341,13.751552,-9.434899,12.4319105,0.006110925,-0.043260336,-0.038735468
OrientationDeg,1676594012794,121516424301341,318.0,-49.0,6.0
UncalGyro,1676594012798,121516428789440,-2.3246477,-3.1693215,3.138931,0.0004700959,-0.0010117572,-0.003242697
UncalMag,1676594012799,121516430010509,-65.636,25.034399,-96.7826,-47.771046,2.9698257,-64.15999
UncalAccel,1676594012803,121516433279368,14.16551,-9.653245,11.317452,0.006110925,-0.043260336,-0.038735468
OrientationDeg,1676594012803,121516433279368,318.0,-50.0,8.0
UncalGyro,1676594012807,121516437766124,-2.1626158,-3.3027956,3.2467487,0.0004700959,-0.0010117572,-0.003242697
UncalMag,1676594012810,121516440011242,-65.0382,27.449999,-97.173,-47.771046,2.9698257,-64.15999
UncalAccel,1676594012812,121516442246288,14.684752,-10.068997,10.727024,0.006110925,-0.043260336,-0.038735468
OrientationDeg,1676594012812,121516442246288,318.0,-52.0,10.0
UncalGyro,1676594012815,121516446750072,-2.0317378,-3.4631479,3.309057,0.0004700959,-0.0010117572,-0.003242697
UncalMag,1676594012820,121516450010998,-65.5506,28.694399,-94.6598,-47.771046,2.9698257,-64.15999
UncalAccel,1676594012820,121516451237743,15.163916,-10.340583,10.775478,0.006110925,-0.043260336,-0.038735468
OrientationDeg,1676594012821,121516451237743,318.0,-54.0,12.0
UncalGyro,1676594012825,121516455731883,-1.8976529,-3.584099,3.313333,0.0004700959,-0.0010117572,-0.003242697
UncalMag,1676594012829,121516459999279,-63.8304,29.9266,-91.1584,-47.771046,2.9698257,-64.15999
UncalAccel,1676594012830,121516460214488,14.884553,-10.286146,10.512268,0.006110925,-0.043260336,-0.038735468
OrientationDeg,1676594012829,121516460214488,318.0,-56.0,14.0
UncalGyro,1676594012834,121516464697948,-1.7220291,-3.696193,3.3124168,0.00046958926,-0.0010042777,-0.003241648
UncalAccel,1676594012838,121516469197399,14.248062,-10.244272,10.109077,0.006110925,-0.043260336,-0.038735468
UncalMag,1676594012838,121516469999279,-67.6002,30.597599,-92.1466,-47.771046,2.9698257,-64.15999
OrientationDeg,1676594012838,121516469197399,317.0,-58.0,16.0
UncalGyro,1676594012843,121516473688366,-1.50731,-3.8035524,3.3727398,0.00046931554,-0.0010002367,-0.003241081
UncalAccel,1676594012847,121516478179759,13.567903,-10.503893,9.446864,0.006110925,-0.043260336,-0.038735468
OrientationDeg,1676594012847,121516478179759,317.0,-60.0,18.0
UncalMag,1676594012850,121516480010998,-68.2712,31.231998,-90.182396,-47.771046,2.9698257,-64.15999
UncalGyro,1676594012851,121516482668773,-1.3228287,-3.890448,3.5149186,0.00046927412,-0.0009996252,-0.003240995
UncalAccel,1676594012856,121516487156566,13.120444,-10.966905,8.546564,0.006110925,-0.043260336,-0.038735468
OrientationDeg,1676594012857,121516487156566,317.0,-61.0,20.0
UncalMag,1676594012860,121516490010998,-69.052,32.1348,-89.4992,-47.771046,2.9698257,-64.15999
UncalGyro,1676594012861,121516491647655,-1.2124147,-3.9628356,3.7033706,0.00046926783,-0.0009995326,-0.003240982
UncalAccel,1676594012865,121516496136425,12.827922,-11.185847,7.576873,0.006110925,-0.043260336,-0.038735468
OrientationDeg,1676594012866,121516496136425,316.0,-63.0,22.0
UncalMag,1676594012870,121516500010753,-69.6742,33.4036,-88.0962,-47.771046,2.9698257,-64.15999
UncalGyro,1676594012869,121516500624705,-1.1678216,-4.066683,3.904956,0.0004692669,-0.0009995187,-0.0032409802
UncalAccel,1676594012875,121516505104686,12.561123,-10.954342,7.0145597,0.006110925,-0.043260336,-0.038735468
OrientationDeg,1676594012875,121516505104686,316.0,-65.0,24.0
Fix,FLP,37.4312403000,-122.1550805000,-16.5,0.93122566,4.227,204.00359,1676594012627,,,121516258177378,3.171604
UncalGyro,1676594012879,121516509607311,-1.1588113,-4.1766386,4.1099014,0.00046926676,-0.0009995166,-0.00324098
UncalMag,1676594012878,121516509999767,-68.563995,35.2336,-88.4378,-47.771046,2.9698257,-64.15999
UncalAccel,1676594012884,121516514096385,12.770494,-10.807183,7.292725,0.006110925,-0.043260336,-0.038735468
OrientationDeg,1676594012883,121516514096385,316.0,-67.0,26.0
UncalGyro,1676594012887,121516518591198,-1.14018,-4.211152,4.2670465,0.00046926673,-0.0009995163,-0.00324098
UncalMag,1676594012890,121516520010753,-71.3456,34.8554,-86.0344,-47.771046,2.9698257,-64.15999
UncalAccel,1676594012893,121516523075817,13.124632,-10.789836,8.051848,0.006110925,-0.043260336,-0.038735468
OrientationDeg,1676594012892,121516523075817,315.0,-69.0,29.0
UncalGyro,1676594012896,121516527566783,-1.0592403,-4.14075,4.3760858,0.00046926673,-0.0009995163,-0.00324098
UncalMag,1676594012900,121516530004162,-70.6868,36.7464,-86.1808,-47.771046,2.9698257,-64.15999
UncalAccel,1676594012901,121516532055492,13.459627,-10.5996065,8.96471,0.006110925,-0.043260336,-0.038735468
OrientationDeg,1676594012902,121516532055492,315.0,-71.0,31.0
UncalGyro,1676594012905,121516536547496,-0.86498517,-4.000404,4.4498477,0.00046926673,-0.0009995163,-0.00324098
UncalMag,1676594012910,121516540010998,-67.795395,38.6618,-83.387,-47.771046,2.9698257,-64.15999
UncalAccel,1676594012911,121516541035289,13.960924,-9.839885,9.976275,0.006110925,-0.043260336,-0.038735468
OrientationDeg,1676594012910,121516541035289,314.0,-73.0,33.0
UncalGyro,1676594012915,121516545526317,-0.52580225,-3.796222,4.453055,0.00046926673,-0.0009995163,-0.00324098
UncalAccel,1676594012920,121516550013256,14.215161,-8.637491,10.588839,0.006110925,-0.043260336,-0.038735468
UncalMag,1676594012920,121516550019054,-67.2098,38.8814,-80.8006,-47.771046,2.9698257,-64.15999
OrientationDeg,1676594012920,121516550013256,314.0,-74.0,36.0
UncalGyro,1676594012923,121516554498912,-0.05513059,-3.5569155,4.3852487,0.00046926673,-0.0009995163,-0.00324098
UncalAccel,1676594012928,121516558991893,13.76531,-7.6420774,10.459028,0.006110925,-0.043260336,-0.038735468
UncalMag,1676594012929,121516559998790,-66.9658,39.808598,-83.0088,-47.771046,2.9698257,-64.15999
OrientationDeg,1676594012927,121516558991893,313.0,-76.0,38.0
UncalGyro,1676594012933,121516563474254,0.47158796,-3.3226488,4.2943826,0.00046926673,-0.0009995163,-0.00324098
UncalAccel,1676594012936,121516567976512,13.033705,-7.106085,9.867402,0.006110925,-0.043260336,-0.038735468
OrientationDeg,1676594012936,121516567976512,312.0,-77.0,40.0
UncalMag,1676594012939,121516570010753,-64.8918,40.967598,-81.7644,-47.771046,2.9698257,-64.15999
UncalGyro,1676594012941,121516572465526,0.96929044,-3.1129694,4.208556,0.00046926673,-0.0009995163,-0.00324098
UncalAccel,1676594012945,121516576957347,12.325429,-6.699305,9.084352,0.006110925,-0.043260336,-0.038735468
OrientationDeg,1676594012946,121516576957347,310.0,-77.0,42.0
UncalMag,1676594012950,121516580010753,-63.7938,41.7972,-81.679,-47.771046,2.9698257,-64.15999
UncalGyro,1676594012950,121516581445628,1.3784174,-2.8951957,4.1538835,0.00046926673,-0.0009995163,-0.00324098
UncalAccel,1676594012954,121516585936290,11.832508,-6.288936,8.169695,0.006110925,-0.043260336,-0.038735468
OrientationDeg,1676594012955,121516585936290,309.0,-77.0,44.0
UncalMag,1676594012959,121516590010753,-64.5624,42.065598,-84.9608,-47.771046,2.9698257,-64.15999
UncalGyro,1676594012960,121516590423473,1.6789632,-2.6629143,4.106694,0.00046926673,-0.0009995163,-0.00324098
UncalAccel,1676594012963,121516594902294,11.6955185,-6.0155563,7.3603225,0.006110925,-0.043260336,-0.038735468
OrientationDeg,1676594012963,121516594902294,307.0,-77.0,45.0
UncalGyro,1676594012968,121516599404430,1.897042,-2.4263568,4.033085,0.00046926673,-0.0009995163,-0.00324098
UncalMag,1676594012969,121516600000011,-64.294,42.3218,-86.461395,-47.771046,2.9698257,-64.15999
UncalAccel,1676594012973,121516603888805,11.78166,-6.150152,7.0642104,0.006110925,-0.043260336,-0.038735468
OrientationDeg,1676594012972,121516603888805,304.0,-77.0,47.0
UncalGyro,1676594012977,121516608370311,2.0638082,-2.1719313,3.9382482,0.00046926673,-0.0009995163,-0.00324098
UncalMag,1676594012979,121516610010509,-63.1838,42.3584,-87.4862,-47.771046,2.9698257,-64.15999
UncalAccel,1676594012981,121516612873668,11.733206,-6.399006,6.876972,0.006110925,-0.043260336,-0.038735468
OrientationDeg,1676594012982,121516612873668,302.0,-76.0,49.0
UncalGyro,1676594012987,121516617364330,2.198504,-1.9046779,3.858683,0.00046926673,-0.0009995163,-0.00324098
UncalMag,1676594012989,121516620010753,-63.610798,41.6874,-88.0962,-47.771046,2.9698257,-64.15999
UncalAccel,1676594012990,121516621857249,11.630913,-6.1830535,6.663413,0.006110925,-0.043260336,-0.038735468
OrientationDeg,1676594012990,121516621857249,299.0,-75.0,50.0
UncalGyro,1676594012995,121516626343273,2.3246477,-1.6452128,3.8020253,0.00046926673,-0.0009995163,-0.00324098
UncalMag,1676594013000,121516630011242,-61.7808,41.126198,-86.1076,-47.771046,2.9698257,-64.15999
UncalAccel,1676594012999,121516630825817,11.426925,-5.6446686,6.4121666,0.006110925,-0.043260336,-0.038735468
OrientationDeg,1676594012999,121516630825817,297.0,-74.0,52.0
UncalGyro,1676594013004,121516635323986,2.4656048,-1.3965907,3.7496436,0.00046926673,-0.0009995163,-0.00324098
UncalAccel,1676594013008,121516639812328,11.256436,-4.996812,6.114858,0.006110925,-0.043260336,-0.038735468
UncalMag,1676594013009,121516640007580,-61.8784,41.1872,-88.7428,-47.771046,2.9698257,-64.15999
OrientationDeg,1676594013008,121516639812328,294.0,-72.0,53.0
UncalGyro,1676594013013,121516644305187,2.6111436,-1.1334605,3.6783252,0.00046926673,-0.0009995163,-0.00324098
UncalAccel,1676594013017,121516648792919,10.990234,-4.4775696,5.7924256,0.006110925,-0.043260336,-0.038735468
OrientationDeg,1676594013017,121516648792919,290.0,-70.0,55.0
UncalMag,1676594013020,121516650011730,-60.8414,40.687,-88.803795,-47.771046,2.9698257,-64.15999
UncalGyro,1676594013022,121516653284496,2.7206411,-0.851088,3.6015089,0.00046926673,-0.0009995163,-0.00324098
UncalAccel,1676594013026,121516657772167,10.769497,-4.188636,5.5447683,0.006110925,-0.043260336,-0.038735468
OrientationDeg,1676594013026,121516657772167,287.0,-67.0,56.0
UncalMag,1676594013028,121516659996105,-58.5112,41.2726,-88.2426,-47.771046,2.9698257,-64.15999
UncalGyro,1676594013032,121516662263988,2.769663,-0.5537493,3.5358407,0.00046926673,-0.0009995163,-0.00324098
UncalAccel,1676594013035,121516666751537,10.623534,-4.182654,5.258228,0.006110925,-0.043260336,-0.038735468
OrientationDeg,1676594013036,121516666751537,283.0,-64.0,57.0
UncalMag,1676594013040,121516670005382,-58.5966,40.5406,-91.988,-47.771046,2.9698257,-64.15999
