# 
# Header Description:
# 
# Version: v3.0.5.6 Platform: 13 Manufacturer: Google Model: Pixel 7
# 
# Raw,utcTimeMillis,TimeNanos,LeapSecond,TimeUncertaintyNanos,FullBiasNanos,BiasNanos,BiasUncertaintyNanos,DriftNanosPerSecond,DriftUncertaintyNanosPerSecond,HardwareClockDiscontinuityCount,Svid,TimeOffsetNanos,State,ReceivedSvTimeNanos,ReceivedSvTimeUncertaintyNanos,Cn0DbHz,PseudorangeRateMetersPerSecond,PseudorangeRateUncertaintyMetersPerSecond,AccumulatedDeltaRangeState,AccumulatedDeltaRangeMeters,AccumulatedDeltaRangeUncertaintyMeters,CarrierFrequencyHz,CarrierCycles,CarrierPhase,CarrierPhaseUncertainty,MultipathIndicator,SnrInDb,ConstellationType,AgcDb,BasebandCn0DbHz,FullInterSignalBiasNanos,FullInterSignalBiasUncertaintyNanos,SatelliteInterSignalBiasNanos,SatelliteInterSignalBiasUncertaintyNanos,CodeType,ChipsetElapsedRealtimeNanos
# 
# UncalAccel,utcTimeMillis,elapsedRealtimeNanos,UncalAccelXMps2,UncalAccelYMps2,UncalAccelZMps2,BiasXMps2,BiasYMps2,BiasZMps2
# 
# Accel,utcTimeMillis,elapsedRealtimeNanos,AccelXMps2,AccelYMps2,AccelZMps2
# 
# UncalGyro,utcTimeMillis,elapsedRealtimeNanos,UncalGyroXRadPerSec,UncalGyroYRadPerSec,UncalGyroZRadPerSec,DriftXRadPerSec,DriftYRadPerSec,DriftZRadPerSec
# 
# Gyro,utcTimeMillis,elapsedRealtimeNanos,GyroXRadPerSec,GyroYRadPerSec,GyroZRadPerSec
# 
# UncalMag,utcTimeMillis,elapsedRealtimeNanos,UncalMagXMicroT,UncalMagYMicroT,UncalMagZMicroT,BiasXMicroT,BiasYMicroT,BiasZMicroT
# 
# Mag,utcTimeMillis,elapsedRealtimeNanos,MagXMicroT,MagYMicroT,MagZMicroT
# 
# OrientationDeg,utcTimeMillis,elapsedRealtimeNanos,yawDeg,rollDeg,pitchDeg
# 
# Fix,Provider,LatitudeDegrees,LongitudeDegrees,AltitudeMeters,SpeedMps,AccuracyMeters,BearingDegrees,UnixTimeMillis,SpeedAccuracyMps,BearingAccuracyDegrees,elapsedRealtimeNanos,VerticalAccuracyMeters
# 
# Nav,Svid,Type,Status,MessageId,Sub-messageId,Data(Bytes)
# 
# Status,UnixTimeMillis,SignalCount,SignalIndex,ConstellationType,Svid,CarrierFrequencyHz,Cn0DbHz,AzimuthDegrees,ElevationDegrees,UsedInFix,HasAlmanacData,HasEphemerisData,BasebandCn0DbHz
# 
UncalAccel,1676593951635,31008457073872,-5.3497534,2.4011974,18.026329,0.037048545,-0.031444572,0.0098014325
UncalMag,1676593951642,31008464587656,-158.0388,741.8454,399.26938,-174.57417,771.0116,430.86337
UncalGyro,1676593951639,31008461317250,-1.2168436,-0.20555615,0.36560285,0.0007930726,-0.0013252532,-0.00032473617
UncalAccel,1676593951643,31008465560627,-5.1990056,2.3072793,17.71287,0.037048545,-0.031444572,0.0098014325
OrientationDeg,1676593951643,31008465560627,204.0,12.0,-9.0
UncalGyro,1676593951647,31008469804004,-1.0578659,-0.6908886,0.31322116,0.0007930726,-0.0013252532,-0.00032473617
UncalGyro,1676593951656,31008478268837,-0.8416196,-1.0259482,0.2507602,0.0007930726,-0.0013252532,-0.00032473617
UncalAccel,1676593951652,31008474025409,-4.5768714,2.062613,17.249859,0.037048545,-0.031444572,0.0098014325
UncalAccel,1676593951660,31008482505623,-3.7040894,1.8442681,16.450058,0.037048545,-0.031444572,0.0098014325
OrientationDeg,1676593951652,31008474025409,204.0,12.0,-9.0
OrientationDeg,1676593951660,31008482505623,204.0,11.0,-9.0
UncalMag,1676593951652,31008474580291,-158.41699,742.3578,399.0376,-174.57417,771.0116,430.86337
UncalMag,1676593951662,31008484587574,-158.1852,742.8702,398.6716,-174.57417,771.0116,430.86337
Fix,FLP,37.4312735000,-122.1550680000,-16.5,0.10750308,3.756,244.36887,1676593950731,,,31007553799821,1.7253418
UncalGyro,1676593951664,31008486746732,-0.5705481,-1.2035573,0.18585575,0.0007930726,-0.0013252532,-0.00032473617
UncalAccel,1676593951668,31008490986254,-2.8761728,1.5876378,15.306289,0.037048545,-0.031444572,0.0098014325
OrientationDeg,1676593951668,31008490986254,204.0,10.0,-8.0
UncalMag,1676593951672,31008494590136,-159.5394,742.919,398.3544,-174.57417,771.0116,430.86337
UncalGyro,1676593951673,31008495228726,-0.2649628,-1.2687671,0.13607024,0.0007930726,-0.0013252532,-0.00032473617
UncalAccel,1676593951677,31008499467964,-2.1822543,1.2490535,14.157733,0.037048545,-0.031444572,0.0098014325
OrientationDeg,1676593951677,31008499467964,204.0,10.0,-8.0
UncalGyro,1676593951681,31008503711330,0.051618114,-1.2508993,0.11178834,0.0007930726,-0.0013252532,-0.00032473617
UncalMag,1676593951682,31008504587735,-159.332,742.8214,397.598,-174.57417,771.0116,430.86337
UncalAccel,1676593951685,31008507952114,-1.713261,0.9523434,13.049856,0.037048545,-0.031444572,0.0098014325
OrientationDeg,1676593951685,31008507952114,204.0,9.0,-9.0
UncalGyro,1676593951690,31008512191341,0.3491095,-1.1844677,0.1085813,0.0007930726,-0.0013252532,-0.00032473617
UncalMag,1676593951692,31008514590257,-160.3812,742.7848,397.25638,-174.57417,771.0116,430.86337
UncalAccel,1676593951694,31008516430914,-1.4362918,0.7495517,12.040684,0.037048545,-0.031444572,0.0098014325
OrientationDeg,1676593951694,31008516430914,204.0,8.0,-9.0
UncalGyro,1676593951698,31008520673701,0.5925393,-1.0997101,0.113926366,0.0007930726,-0.0013252532,-0.00032473617
UncalMag,1676593951702,31008524588506,-160.491,742.614,397.3296,-174.57417,771.0116,430.86337
UncalAccel,1676593951702,31008524915023,-1.2855439,0.5557331,11.197812,0.037048545,-0.031444572,0.0098014325
OrientationDeg,1676593951702,31008524915023,204.0,8.0,-9.0
UncalGyro,1676593951707,31008529154627,0.7528914,-1.0137309,0.122783914,0.0007930726,-0.0013252532,-0.00032473617
UncalAccel,1676593951711,31008533391800,-1.2352947,0.35593235,10.3543415,0.037048545,-0.031444572,0.0098014325
OrientationDeg,1676593951711,31008533391800,204.0,7.0,-10.0
UncalMag,1676593951712,31008534587651,-160.8326,742.1748,397.598,-174.57417,771.0116,430.86337
UncalGyro,1676593951715,31008537628330,0.8258898,-0.929126,0.116980694,0.0007930726,-0.0013252532,-0.00032473617
UncalAccel,1676593951719,31008541878492,-1.2233306,0.19441684,9.543773,0.037048545,-0.031444572,0.0098014325
OrientationDeg,1676593951719,31008541878492,204.0,7.0,-10.0
UncalMag,1676593951722,31008544587813,-161.894,741.9064,397.9274,-174.57417,771.0116,430.86337
UncalGyro,1676593951724,31008546119744,0.82253003,-0.86330533,0.08399397,0.0007930726,-0.0013252532,-0.00032473617
UncalAccel,1676593951728,31008550359164,-1.154537,0.1052842,8.728418,0.037048545,-0.031444572,0.0098014325
OrientationDeg,1676593951728,31008550359164,204.0,7.0,-10.0
UncalMag,1676593951732,31008554587365,-162.1258,741.5282,397.354,-174.57417,771.0116,430.86337
UncalGyro,1676593951732,31008554604484,0.75900006,-0.819323,0.012980887,0.0007930726,-0.0013252532,-0.00032473617
UncalAccel,1676593951736,31008558857851,-1.035494,0.12622139,8.132606,0.037048545,-0.031444572,0.0098014325
OrientationDeg,1676593951736,31008558857851,204.0,6.0,-11.0
UncalGyro,1676593951741,31008563083122,0.6586655,-0.75701475,-0.0936151,0.0007930726,-0.0013252532,-0.00032473617
UncalMag,1676593951742,31008564588096,-162.2234,741.7356,398.5008,-174.57417,771.0116,430.86337
UncalAccel,1676593951745,31008567319267,-0.8662018,0.1902294,7.847262,0.037048545,-0.031444572,0.0098014325
OrientationDeg,1676593951745,31008567319267,204.0,6.0,-11.0
UncalGyro,1676593951749,31008571557253,0.5392413,-0.64919704,-0.23060162,0.0007930726,-0.0013252532,-0.00032473617
UncalMag,1676593951752,31008574589439,-161.9184,741.46716,398.06158,-174.57417,771.0116,430.86337
UncalAccel,1676593951753,31008575801169,-0.75553375,0.253041,7.7186475,0.037048545,-0.031444572,0.0098014325
OrientationDeg,1676593951753,31008575801169,204.0,6.0,-11.0
UncalGyro,1676593951758,31008580043346,0.42546764,-0.50625455,-0.3923282,0.0007930726,-0.0013252532,-0.00032473617
OrientationDeg,1676593951762,31008584285920,205.0,6.0,-11.0
UncalAccel,1676593951762,31008584285920,-0.8177471,0.28175488,7.665407,0.037048545,-0.031444572,0.0098014325
UncalMag,1676593951762,31008584587607,-162.2478,741.1988,398.0128,-174.57417,771.0116,430.86337
UncalGyro,1676593951766,31008588525696,0.3368922,-0.36254853,-0.5687156,0.0007930726,-0.0013252532,-0.00032473617
UncalAccel,1676593951770,31008592764587,-1.0845468,0.3188436,7.54457,0.037048545,-0.031444572,0.0098014325
OrientationDeg,1676593951770,31008592764587,205.0,5.0,-11.0
UncalMag,1676593951772,31008594587443,-161.9428,741.2354,398.85458,-174.57417,771.0116,430.86337
UncalGyro,1676593951775,31008597009368,0.28527406,-0.28053987,-0.7464773,0.0007930726,-0.0013252532,-0.00032473617
UncalAccel,1676593951779,31008601247721,-1.3938192,0.317049,7.2658057,0.037048545,-0.031444572,0.0098014325
OrientationDeg,1676593951779,31008601247721,205.0,5.0,-11.0
UncalMag,1676593951782,31008604590616,-162.4796,740.9182,397.4638,-174.57417,771.0116,430.86337
UncalGyro,1676593951783,31008605489552,0.26251933,-0.30466905,-0.905455,0.0007930726,-0.0013252532,-0.00032473617
UncalAccel,1676593951787,31008609725574,-1.6803597,0.25782663,7.283154,0.037048545,-0.031444572,0.0098014325
OrientationDeg,1676593951787,31008609725574,206.0,5.0,-11.0
UncalGyro,1676593951791,31008613969551,0.25335637,-0.39354995,-1.0377073,0.0007930726,-0.0013252532,-0.00032473617
UncalMag,1676593951792,31008614587401,-161.8208,741.394,398.15918,-174.57417,771.0116,430.86337
UncalAccel,1676593951796,31008618210111,-1.8921245,0.2656033,7.487142,0.037048545,-0.031444572,0.0098014325
OrientationDeg,1676593951796,31008618210111,206.0,5.0,-11.0
UncalGyro,1676593951800,31008622450762,0.25793785,-0.5207626,-1.1612549,0.0007930726,-0.0013252532,-0.00032473617
UncalMag,1676593951802,31008624591184,-161.40599,741.2964,397.52478,-174.57417,771.0116,430.86337
UncalAccel,1676593951804,31008626689949,-2.0464616,0.38464624,7.5140615,0.037048545,-0.031444572,0.0098014325
OrientationDeg,1676593951804,31008626689949,207.0,5.0,-12.0
UncalGyro,1676593951808,31008630933825,0.26221392,-0.6892087,-1.2985468,0.0007930726,-0.0013252532,-0.00032473617
UncalMag,1676593951812,31008634588051,-161.3084,741.3208,398.2568,-174.57417,771.0116,430.86337
UncalAccel,1676593951813,31008635174924,-2.1864417,0.5461618,7.550552,0.037048545,-0.031444572,0.0098014325
OrientationDeg,1676593951813,31008635174924,208.0,5.0,-12.0
UncalGyro,1676593951817,31008639413459,0.2415972,-0.86330533,-1.4450017,0.0007930726,-0.0013252532,-0.00032473617
UncalAccel,1676593951821,31008643653601,-2.0338993,0.60000026,7.6277204,0.037048545,-0.031444572,0.0098014325
UncalMag,1676593951822,31008644587439,-161.3938,741.57697,398.1958,-174.57417,771.0116,430.86337
OrientationDeg,1676593951822,31008643653601,208.0,5.0,-12.0
UncalGyro,1676593951825,31008647892777,0.18280143,-1.0102184,-1.5792394,0.0007930726,-0.0013252532,-0.00032473617
UncalAccel,1676593951830,31008652134557,-1.8442681,0.634098,7.8484583,0.037048545,-0.031444572,0.0098014325
OrientationDeg,1676593951830,31008652134557,209.0,4.0,-12.0
UncalMag,1676593951832,31008654588130,-160.979,741.394,397.781,-174.57417,771.0116,430.86337
UncalGyro,1676593951834,31008656376816,0.07941248,-1.1191051,-1.7023287,0.0007930726,-0.0013252532,-0.00032473617
UncalAccel,1676593951838,31008660615799,-1.6360924,0.78364944,8.025527,0.037048545,-0.031444572,0.0098014325
OrientationDeg,1676593951838,31008660615799,210.0,4.0,-11.0
UncalMag,1676593951842,31008664590734,-161.467,742.1138,398.69598,-174.57417,771.0116,430.86337
UncalGyro,1676593951842,31008664860285,-0.047036625,-1.2087497,-1.8190039,0.0007930726,-0.0013252532,-0.00032473617
UncalAccel,1676593951847,31008669096074,-1.4117653,0.933799,8.002197,0.037048545,-0.031444572,0.0098014325
OrientationDeg,1676593951847,31008669096074,211.0,4.0,-11.0
UncalGyro,1676593951851,31008673340163,-0.1777618,-1.3034338,-1.9162843,0.0007930726,-0.0013252532,-0.00032473617
UncalMag,1676593951852,31008674587600,-160.857,741.8332,397.8786,-174.57417,771.0116,430.86337
UncalAccel,1676593951855,31008677577966,-1.0253245,1.055833,8.056634,0.037048545,-0.031444572,0.0098014325
OrientationDeg,1676593951855,31008677577966,212.0,3.0,-11.0
UncalGyro,1676593951859,31008681820011,-0.2947425,-1.3683381,-1.992337,0.0007930726,-0.0013252532,-0.00032473617
UncalMag,1676593951862,31008684589919,-161.0278,742.3334,397.0368,-174.57417,771.0116,430.86337
UncalAccel,1676593951864,31008686061923,-0.90448695,1.1036894,8.443673,0.037048545,-0.031444572,0.0098014325
OrientationDeg,1676593951864,31008686061923,213.0,3.0,-11.0
UncalGyro,1676593951868,31008690300916,-0.37904188,-1.3617713,-2.0857995,0.0007930726,-0.0013252532,-0.00032473617
UncalAccel,1676593951872,31008694541395,-0.8596215,1.0887343,8.830712,0.037048545,-0.031444572,0.0098014325
OrientationDeg,1676593951872,31008694541395,214.0,2.0,-11.0
UncalMag,1676593951872,31008694587395,-160.7228,742.1748,397.354,-174.57417,771.0116,430.86337
UncalGyro,1676593951876,31008698784701,-0.43371433,-1.3176364,-2.208125,0.0007930726,-0.0013252532,-0.00032473617
UncalAccel,1676593951881,31008703021842,-0.8386843,1.0737791,9.269794,0.037048545,-0.031444572,0.0098014325
OrientationDeg,1676593951881,31008703021842,215.0,2.0,-10.0
UncalMag,1676593951882,31008704587191,-160.674,742.919,396.20718,-174.57417,771.0116,430.86337
UncalGyro,1676593951885,31008707265586,-0.4428773,-1.2837334,-2.3700044,0.0007930726,-0.0013252532,-0.00032473617
UncalAccel,1676593951889,31008711504468,-0.9493524,1.1736795,9.287741,0.037048545,-0.031444572,0.0098014325
OrientationDeg,1676593951889,31008711504468,216.0,1.0,-10.0
UncalMag,1676593951892,31008714593700,-160.5276,743.6388,396.6098,-174.57417,771.0116,430.86337
UncalGyro,1676593951893,31008715745403,-0.40332377,-1.3228287,-2.5755606,0.0007930726,-0.0013252532,-0.00032473617
UncalAccel,1676593951897,31008719984945,-1.0785648,1.2257234,9.238688,0.037048545,-0.031444572,0.0098014325
OrientationDeg,1676593951897,31008719984945,218.0,1.0,-10.0
UncalGyro,1676593951902,31008724229920,-0.31581733,-1.4555391,-2.787989,0.0007930726,-0.0013252532,-0.00032473617
UncalMag,1676593951902,31008724579499,-160.7106,744.2488,396.7684,-174.57417,771.0116,430.86337
UncalAccel,1676593951906,31008728469614,-1.0259227,1.0007981,9.38824,0.037048545,-0.031444572,0.0098014325
OrientationDeg,1676593951906,31008728469614,219.0,0.0,-10.0
UncalGyro,1676593951910,31008732709797,-0.19807306,-1.643533,-2.9681942,0.0007930726,-0.0013252532,-0.00032473617
UncalMag,1676593951912,31008734588043,-160.491,744.21216,395.5362,-174.57417,771.0116,430.86337
UncalAccel,1676593951914,31008736944548,-0.8679964,0.7573284,9.533604,0.037048545,-0.031444572,0.0098014325
OrientationDeg,1676593951914,31008736944548,221.0,0.0,-10.0
UncalGyro,1676593951919,31008741191986,-0.070554934,-1.8371773,-3.0992248,0.0007930726,-0.0013252532,-0.00032473617
UncalMag,1676593951922,31008744587757,-160.552,745.1028,395.9998,-174.57417,771.0116,430.86337
UncalAccel,1676593951923,31008745431436,-0.6472585,0.5479564,9.593424,0.037048545,-0.031444572,0.0098014325
OrientationDeg,1676593951923,31008745431436,222.0,0.0,-10.0
UncalGyro,1676593951927,31008749672799,0.047647487,-1.9837849,-3.1855094,0.0007930726,-0.0013252532,-0.00032473617
UncalAccel,1676593951931,31008753911599,-0.32961133,0.2961118,9.558728,0.037048545,-0.031444572,0.0098014325
UncalMag,1676593951932,31008754588326,-159.8932,745.4444,395.4508,-174.57417,771.0116,430.86337
OrientationDeg,1676593951931,31008753911599,224.0,0.0,-10.0
UncalGyro,1676593951936,31008758152117,0.14080444,-2.020895,-3.2313244,0.0007930726,-0.0013252532,-0.00032473617
UncalAccel,1676593951940,31008762395769,0.106480606,-0.032303106,9.639486,0.037048545,-0.031444572,0.0098014325
OrientationDeg,1676593951940,31008762395769,225.0,-1.0,-10.0
UncalMag,1676593951942,31008764587634,-160.5032,745.847,394.71878,-174.57417,771.0116,430.86337
UncalGyro,1676593951944,31008766637652,0.20723604,-1.8860464,-3.229492,0.0007930726,-0.0013252532,-0.00032473617
UncalAccel,1676593951948,31008770874499,0.654437,-0.15373886,9.982258,0.037048545,-0.031444572,0.0098014325
OrientationDeg,1676593951948,31008770874499,227.0,-2.0,-10.0
UncalMag,1676593951952,31008774590563,-160.064,746.1032,394.1576,-174.57417,771.0116,430.86337
UncalGyro,1676593951953,31008775117743,0.27000242,-1.5537357,-3.1758883,0.0007930726,-0.0013252532,-0.00032473617
UncalAccel,1676593951957,31008779356024,0.9942178,0.16869399,10.421939,0.037048545,-0.031444572,0.0098014325
OrientationDeg,1676593951957,31008779356024,229.0,-2.0,-10.0
UncalGyro,1676593951961,31008783609432,0.36392298,-1.0644327,-3.0868547,0.0007930726,-0.0013252532,-0.00032473617
UncalMag,1676593951962,31008784587388,-160.00299,747.07916,394.87738,-174.57417,771.0116,430.86337
UncalAccel,1676593951966,31008787848018,1.0755738,0.7818548,10.629517,0.037048545,-0.031444572,0.0098014325
OrientationDeg,1676593951965,31008787848018,230.0,-2.0,-10.0
UncalGyro,1676593951970,31008792090601,0.52671856,-0.53786683,-2.9466612,0.0007930726,-0.0013252532,-0.00032473617
UncalMag,1676593951972,31008794597967,-159.5882,746.9938,394.60898,-174.57417,771.0116,430.86337
UncalAccel,1676593951974,31008796328049,1.5894325,0.613759,9.817153,0.037048545,-0.031444572,0.0098014325
OrientationDeg,1676593951974,31008796328049,231.0,-2.0,-11.0
UncalGyro,1676593951978,31008800570745,0.7939721,-0.1554652,-2.64749,0.0007930726,-0.0013252532,-0.00032473617
UncalMag,1676593951982,31008804597966,-159.271,747.1646,394.5236,-174.57417,771.0116,430.86337
UncalAccel,1676593951982,31008804812230,2.2438695,-0.18065812,9.18126,0.037048545,-0.031444572,0.0098014325
OrientationDeg,1676593951982,31008804812230,233.0,-2.0,-11.0
UncalGyro,1676593951987,31008809062697,1.1366675,0.10048734,-2.1368067,0.0007930726,-0.0013252532,-0.00032473617
UncalAccel,1676593951991,31008813290337,2.370689,-0.07597212,10.074382,0.037048545,-0.031444572,0.0098014325
UncalMag,1676593951992,31008814587427,-158.8318,747.433,394.3284,-174.57417,771.0116,430.86337
OrientationDeg,1676593951991,31008813290337,234.0,-2.0,-12.0
UncalGyro,1676593951995,31008817532595,1.4465289,0.47632217,-1.5560265,0.0007930726,-0.0013252532,-0.00032473617
UncalAccel,1676593951999,31008821766534,1.6480566,1.5122639,11.555539,0.037048545,-0.031444572,0.0098014325
OrientationDeg,1676593951999,31008821766534,234.0,-1.0,-13.0
UncalMag,1676593952002,31008824598087,-157.8192,746.945,394.792,-174.57417,771.0116,430.86337
UncalGyro,1676593952004,31008826003472,1.651627,0.9636399,-1.1068878,0.0007930726,-0.0013252532,-0.00032473617
UncalAccel,1676593952008,31008830253014,0.7052845,2.5513473,10.923834,0.037048545,-0.031444572,0.0098014325
OrientationDeg,1676593952008,31008830253014,235.0,0.0,-14.0
UncalGyro,1676593952012,31008834493207,1.751656,1.135293,-0.8211556,0.0007930726,-0.0013252532,-0.00032473617
UncalMag,1676593952012,31008834584862,-157.5264,746.7376,396.1828,-174.57417,771.0116,430.86337
UncalAccel,1676593952016,31008838734021,-0.040677983,2.4771698,9.668798,0.037048545,-0.031444572,0.0098014325
OrientationDeg,1676593952016,31008838734021,235.0,0.0,-14.0
UncalGyro,1676593952020,31008842961356,1.725847,0.94974273,-0.6385069,0.0007930726,-0.0013252532,-0.00032473617
UncalMag,1676593952022,31008844587587,-156.74559,745.7738,395.8168,-174.57417,771.0116,430.86337
UncalAccel,1676593952025,31008847216157,-0.73100734,2.2528424,9.3409815,0.037048545,-0.031444572,0.0098014325
OrientationDeg,1676593952025,31008847216157,235.0,0.0,-15.0
UncalGyro,1676593952029,31008851457989,1.5784758,0.7199047,-0.5371033,0.0007930726,-0.0013252532,-0.00032473617
UncalMag,1676593952032,31008854579286,-156.6724,745.2614,396.0608,-174.57417,771.0116,430.86337
UncalAccel,1676593952033,31008855701447,-1.2604194,2.653042,8.906086,0.037048545,-0.031444572,0.0098014325
OrientationDeg,1676593952033,31008855701447,235.0,0.0,-16.0
UncalGyro,1676593952037,31008859939992,1.3585643,0.43157628,-0.539394,0.0007930726,-0.0013252532,-0.00032473617
UncalAccel,1676593952042,31008864179504,-1.500898,3.3367913,8.619545,0.037048545,-0.031444572,0.0098014325
OrientationDeg,1676593952042,31008864179504,236.0,0.0,-17.0
UncalMag,1676593952042,31008864587301,-155.9038,744.1756,396.866,-174.57417,771.0116,430.86337
UncalGyro,1676593952046,31008868421885,1.096045,0.12782355,-0.61453044,0.0007930726,-0.0013252532,-0.00032473617
UncalAccel,1676593952050,31008872660684,-1.3597214,3.6729827,8.66142,0.037048545,-0.031444572,0.0098014325
OrientationDeg,1676593952050,31008872660684,236.0,0.0,-17.0
UncalMag,1676593952052,31008874598164,-155.9038,744.1756,396.866,-174.57417,771.0116,430.86337
UncalGyro,1676593952054,31008876900409,0.8003862,-0.111177474,-0.70157874,0.0007930726,-0.0013252532,-0.00032473617
UncalAccel,1676593952059,31008881134510,-1.0408778,3.7322052,8.8492565,0.037048545,-0.031444572,0.0098014325
OrientationDeg,1676593952059,31008881134510,236.0,0.0,-17.0
UncalMag,1676593952062,31008884597960,-155.63539,745.07837,397.9274,-174.57417,771.0116,430.86337
UncalGyro,1676593952063,31008885383889,0.50610185,-0.26740626,-0.76144356,0.0007930726,-0.0013252532,-0.00032473617
UncalAccel,1676593952067,31008889622740,-0.88354975,3.6658044,8.917452,0.037048545,-0.031444572,0.0098014325
OrientationDeg,1676593952067,31008889622740,237.0,0.0,-17.0
UncalGyro,1676593952071,31008893863961,0.25457808,-0.34574974,-0.79809546,0.0007930726,-0.0013252532,-0.00032473617
UncalMag,1676593952072,31008894587421,-155.5866,744.1878,397.2198,-174.57417,771.0116,430.86337
UncalAccel,1676593952077,31008898107002,-1.0301101,3.5216367,8.812167,0.037048545,-0.031444572,0.0098014325
OrientationDeg,1676593952076,31008898107002,237.0,0.0,-18.0
UncalGyro,1676593952080,31008902354316,0.073303826,-0.38163805,-0.8393288,0.0007930726,-0.0013252532,-0.00032473617
UncalMag,1676593952082,31008904597918,-155.5866,744.1878,397.2198,-174.57417,771.0116,430.86337
UncalAccel,1676593952084,31008906587328,-1.4488541,3.4426737,8.571689,0.037048545,-0.031444572,0.0098014325
OrientationDeg,1676593952084,31008906587328,238.0,0.0,-18.0
UncalGyro,1676593952088,31008910829108,-0.04153884,-0.40530908,-0.90194255,0.0007930726,-0.0013252532,-0.00032473617
Status,0,30,0,6,2,1176450050,35.31,90.0,78.0,1,1,1,31.713951
Status,0,30,1,6,2,1575420030,40.82,90.0,78.0,1,1,1,37.22396
Status,0,30,2,3,17,1604249980,43.39,297.0,74.0,1,1,1,39.78995
Status,0,30,3,1,11,1575420030,43.11,141.0,73.0,1,1,1,39.507023
Status,0,30,4,1,11,1176450050,38.74,141.0,73.0,1,1,1,35.135002
Status,0,30,5,3,15,1602000000,43.46,326.0,71.0,1,1,1,39.85945
Status,0,30,6,6,36,1575420030,40.07,57.0,66.0,1,1,1,36.470127
Status,0,30,7,6,36,1176450050,36.84,57.0,66.0,1,1,1,33.239895
Status,0,30,8,1,12,1575420030,44.43,324.0,60.0,1,1,1,40.825455
Status,0,30,9,6,34,1176450050,39.15,203.0,55.0,1,1,1,35.55173
Status,0,30,10,6,34,1575420030,44.87,203.0,55.0,1,1,1,41.27301
Status,0,30,11,3,14,1598062460,41.70,149.0,51.0,1,1,1,38.09541
Status,0,30,12,1,6,1176450050,36.61,51.0,49.0,1,1,1,33.01217
Status,0,30,13,1,6,1575420030,42.10,51.0,49.0,1,1,1,38.49697
Status,0,30,14,1,24,1575420030,46.69,223.0,42.0,1,1,1,43.086887
Status,0,30,15,6,30,1176450050,34.67,315.0,42.0,1,1,1,31.072084
Status,0,30,16,6,30,1575420030,43.91,315.0,42.0,1,1,1,40.309917
Status,0,30,17,1,24,1176450050,39.77,223.0,42.0,1,1,1,36.17045
Status,0,30,18,3,24,1603124990,43.94,32.0,35.0,1,1,1,40.342648
Status,0,30,19,3,18,1600312450,45.62,234.0,32.0,1,1,1,42.01802
Status,0,30,20,1,25,1176450050,38.92,311.0,30.0,1,1,1,35.315777
Status,0,30,21,1,25,1575420030,45.94,311.0,30.0,1,1,1,42.336597
Status,0,30,22,1,19,1575420030,41.98,57.0,29.0,0,1,1,38.384727
Status,0,30,23,6,25,1575420030,38.72,123.0,29.0,1,1,1,35.11955
Status,0,30,24,6,25,1176450050,40.10,123.0,29.0,1,1,1,36.496616
Status,0,30,25,1,20,1575420030,41.94,145.0,22.0,1,1,1,38.343567
Status,0,30,26,6,11,1575420030,36.38,40.0,17.0,1,1,1,32.783287
Status,0,30,27,6,11,1176450050,28.81,40.0,17.0,0,1,1,25.214863
Status,0,30,28,3,16,1601437440,44.24,328.0,17.0,1,1,1,40.636154
Status,0,30,29,1,29,1575420030,48.57,261.0,12.0,1,1,1,44.97485
UncalMag,1676593952092,31008914597958,-155.3548,744.566,398.0372,-174.57417,771.0116,430.86337
UncalAccel,1676593952093,31008915063248,-1.8628124,3.3206396,8.373683,0.037048545,-0.031444572,0.0098014325
OrientationDeg,1676593952093,31008915063248,238.0,0.0,-17.0
Fix,GPS,37.4312889932,-122.1550563688,-7.70074456647833,0.27063295,3.4481425,320.57217,1676593951999,0.12409946,50.442142,31008819002000,3.0
UncalGyro,1676593952097,31008919298966,-0.10919216,-0.4280638,-0.97051215,0.0007930726,-0.0013252532,-0.00032473617
Raw,1676593951999,708043000000,,,-1360628461956697368,0.0,8.317224260821519,160.0,1.0,56,6,0.0,16431,433969928600925,28,33.13669204711914,450.688307273231,0.6219663556431057,16,295916.9964758427,340282346638528860000000000000000000000,1575420030,,,,0,,1,,29.536693572998047,0.320142130558394,1.0,0.320142130558394,1.0,C,31008819002000
Raw,1676593951999,708043000000,,,-1360628461956697368,0.0,8.317224260821519,160.0,1.0,56,11,0.0,16431,433969931477286,12,43.10702133178711,-94.28615079663746,0.15,16,-94943.29139207664,340282346638528860000000000000000000000,1575420030,,,,0,,1,,39.507022857666016,-0.20372681261465636,1.0,-0.20372681261465636,1.0,C,31008819002000
Raw,1676593951999,708043000000,,,-1360628461956697368,0.0,8.317224260821519,160.0,1.0,56,12,0.0,16431,433969930513724,14,41.7957649230957,-266.2417211244988,0.15,16,-202730.2735123992,340282346638528860000000000000000000000,1575420030,,,,0,,1,,38.19576644897461,-0.6984919076624261,1.0,-0.6984919076624261,1.0,C,31008819002000
Raw,1676593951999,708043000000,,,-1360628461956697368,0.0,8.317224260821519,160.0,1.0,56,19,0.0,16430,433969924364662,1000000000,30.09316635131836,543.2820596087718,299792458,16,381554.7690903685,340282346638528860000000000000000000000,1575420030,,,,0,,1,,26.493165969848633,0.0,1.0,0.0,1.0,C,31008819002000
Raw,1676593951999,708043000000,,,-1360628461956697368,0.0,8.317224260821519,160.0,1.0,56,20,0.0,16431,433969921551068,18,38.711158752441406,-512.1821588562725,0.15,16,-365800.9950415215,340282346638528860000000000000000000000,1575420030,,,,0,,1,,35.11116027832031,0.0,1.0,0.0,1.0,C,31008819002000
Raw,1676593951999,708043000000,,,-1360628461956697368,0.0,8.317224260821519,160.0,1.0,56,24,0.0,16431,433969926106370,13,44.978721618652344,513.0474783449301,0.15,16,344323.2047387408,340282346638528860000000000000000000000,1575420030,,,,0,,1,,41.37872314453125,-0.20372681261465636,1.0,-0.20372681261465636,1.0,C,31008819002000
Raw,1676593951999,708043000000,,,-1360628461956697368,0.0,8.317224260821519,160.0,1.0,56,25,0.0,16431,433969925122708,18,38.243309020996094,-509.12424677458944,0.15,16,-366621.14145133586,340282346638528860000000000000000000000,1575420030,,,,0,,1,,34.643310546875,-2.0372682255564105,1.0,-2.0372682255564105,1.0,C,31008819002000
Raw,1676593951999,708043000000,,,-1360628461956697368,0.0,8.317224260821519,160.0,1.0,56,29,0.0,16419,433969917140680,12,46.18992233276367,-463.72007534929276,0.15,16,-194634.1530326152,340282346638528860000000000000000000000,1575420030,,,,0,,1,,42.58992385864258,-0.6984919076624261,1.0,-0.6984919076624261,1.0,C,31008819002000
Raw,1676593951999,708043000000,,,-1360628461956697368,0.0,8.317224260821519,160.0,1.0,56,6,0.0,81921,433969928601441,32,28.5778865814209,449.7543457171364,0.8269708671472564,16,297129.8143676403,340282346638528860000000000000000000000,1176450050,,,,0,,1,,24.977886199951172,1.9208527336454408,1.3749477236143712,1.9208527336454408,1.0,Q,31008819002000
Raw,1676593951999,708043000000,,,-1360628461956697368,0.0,8.317224260821519,160.0,1.0,56,11,0.0,81921,433969931477810,7,38.73500061035156,-94.69898307188413,0.15,16,-95519.8616246392,340282346638528860000000000000000000000,1176450050,,,,0,,1,,35.13500213623047,0.0,1.3749477236143712,0.0,1.0,Q,31008819002000
Raw,1676593951999,708043000000,,,-1360628461956697368,0.0,8.317224260821519,160.0,1.0,56,24,0.0,81921,433969926106874,8,34.328983306884766,513.0522839712999,0.5679018607724355,16,344279.9516126007,340282346638528860000000000000000000000,1176450050,,,,0,,1,,30.72898292541504,3.5215636101095664,1.3749477236143712,3.5215636101095664,1.0,Q,31008819002000
Raw,1676593951999,708043000000,,,-1360628461956697368,0.0,8.317224260821519,160.0,1.0,56,25,0.0,81921,433969925123217,16,32.82725524902344,-509.18719707178707,0.6352559175623838,16,-368162.440914057,340282346638528860000000000000000000000,1176450050,,,,0,,1,,29.22725486755371,1.0186341127782053,1.3749477236143712,1.0186341127782053,1.0,Q,31008819002000
Raw,1676593951999,708043000000,,,-1360628461956697368,0.0,8.317224260821519,160.0,1.0,56,14,0.0,32995,12751932299409,33,41.69540786743164,542.0170210700146,0.15,16,354984.8985414051,340282346638528860000000000000000000000,1598062460,,,,0,,3,,38.09540939331055,52.1540641784668,2.0000000474974513,52.1540641784668,2.0000000474974513,C,31008819002000
Raw,1676593951999,708043000000,,,-1360628461956697368,0.0,8.317224260821519,160.0,1.0,56,18,0.0,32995,12751927868649,33,45.618019104003906,-505.63120397047965,0.15,16,-376583.0768221494,340282346638528860000000000000000000000,1600312450,,,,0,,3,,42.01802062988281,52.1540641784668,2.0000000474974513,52.1540641784668,2.0000000474974513,C,31008819002000
Raw,1676593951999,708043000000,,,-1360628461956697368,0.0,8.317224260821519,160.0,1.0,56,16,0.0,32867,12751923079283,55,33.538753509521484,-711.4048191234474,0.6028930274788258,16,-506358.6786066134,340282346638528860000000000000000000000,1601437440,,,,0,,3,,29.938753128051758,52.1540641784668,2.0000000474974513,52.1540641784668,2.0000000474974513,C,31008819002000
Raw,1676593951999,708043000000,,,-1360628461956697368,0.0,8.317224260821519,160.0,1.0,56,15,0.0,32995,12751934997755,39,37.72663116455078,-214.39088713036904,0.15,16,-181991.7809638909,340282346638528860000000000000000000000,1602000000,,,,0,,3,,34.12663269042969,52.1540641784668,2.0000000474974513,52.1540641784668,2.0000000474974513,C,31008819002000
Raw,1676593951999,708043000000,,,-1360628461956697368,0.0,8.317224260821519,160.0,1.0,56,24,0.0,32995,12751928737571,55,33.44523620605469,663.7141238549484,0.6081162305082444,16,460746.47479338583,340282346638528860000000000000000000000,1603124990,,,,0,,3,,29.84523582458496,52.1540641784668,2.0000000474974513,52.1540641784668,2.0000000474974513,C,31008819002000
Raw,1676593951999,708043000000,,,-1360628461956697368,0.0,8.317224260821519,160.0,1.0,56,17,0.0,32995,12751935798519,33,40.67133331298828,65.72561033074791,0.15,16,17555.507009674566,340282346638528860000000000000000000000,1604249980,,,,0,,3,,37.07133483886719,52.1540641784668,2.0000000474974513,52.1540641784668,2.0000000474974513,C,31008819002000
Raw,1676593951999,708043000000,,,-1360628461956697368,0.0,8.317224260821519,160.0,1.0,56,2,0.0,85026,433969921868072,15,40.82395935058594,99.14662435951305,0.15,16,57749.96999205349,340282346638528860000000000000000000000,1575420030,,,,0,,6,,37.223960876464844,-5.878973752260207,1.5000000237487257,-5.878973752260207,1.5000000237487257,C,31008819002000
Raw,1676593951999,708043000000,,,-1360628461956697368,0.0,8.317224260821519,160.0,1.0,56,11,0.0,85026,433969910263812,51,25.91796875,567.0296928401704,0.9461638077700161,16,398099.10799078306,340282346638528860000000000000000000000,1575420030,,,,1,,6,,22.317968368530273,-5.878973752260207,1.5000000237487257,-5.878973752260207,1.5000000237487257,C,31008819002000
Raw,1676593951999,708043000000,,,-1360628461956697368,0.0,8.317224260821519,160.0,1.0,56,25,0.0,85026,433969912309855,36,30.03240966796875,462.8632423923093,0.7607906580884083,16,319872.40935622086,340282346638528860000000000000000000000,1575420030,,,,1,,6,,26.432409286499023,-5.878973752260207,1.5000000237487257,-5.878973752260207,1.5000000237487257,C,31008819002000
Raw,1676593951999,708043000000,,,-1360628461956697368,0.0,8.317224260821519,160.0,1.0,56,30,0.0,85026,433969915265303,19,38.01662063598633,-335.1159923377288,0.15,16,-241335.18386682792,340282346638528860000000000000000000000,1575420030,,,,0,,6,,34.416622161865234,-5.878973752260207,1.5000000237487257,-5.878973752260207,1.5000000237487257,C,31008819002000
Raw,1676593951999,708043000000,,,-1360628461956697368,0.0,8.317224260821519,160.0,1.0,56,34,0.0,85026,433969919070790,11,44.873008728027344,-306.9420023127998,0.15,16,-232222.67269838523,340282346638528860000000000000000000000,1575420030,,,,0,,6,,41.27301025390625,-5.878973752260207,1.5000000237487257,-5.878973752260207,1.5000000237487257,C,31008819002000
Raw,1676593951999,708043000000,,,-1360628461956697368,0.0,8.317224260821519,160.0,1.0,56,36,0.0,85026,433969920717203,22,35.92985916137695,223.52295757231911,0.4956621970043489,16,141080.18517875086,340282346638528860000000000000000000000,1575420030,,,,0,,6,,32.32986068725586,-5.878973752260207,1.5000000237487257,-5.878973752260207,1.5000000237487257,C,31008819002000
Raw,1676593951999,708043000000,,,-1360628461956697368,0.0,8.317224260821519,160.0,1.0,56,2,0.0,84003,433969921868588,23,28.929101943969727,98.9732980268663,0.8135635476780001,16,57693.414087187775,340282346638528860000000000000000000000,1176450050,,,,0,,6,,25.3291015625,-4.216632805764675,1.8749477473630969,-4.216632805764675,1.5000000237487257,Q,31008819002000
Raw,1676593951999,708043000000,,,-1360628461956697368,0.0,8.317224260821519,160.0,1.0,56,11,0.0,16384,433969910264333,1000000000,23.03700828552246,567.082929637259,299792458,16,400903.18255834386,340282346638528860000000000000000000000,1176450050,,,,0,,6,,19.437007904052734,4.279776476323602,1.8749477473630969,4.279776476323602,1.5000000237487257,Q,31008819002000
Raw,1676593951999,708043000000,,,-1360628461956697368,0.0,8.317224260821519,160.0,1.0,56,25,0.0,84003,433969912310350,7,40.096614837646484,462.670778760325,0.15,16,320277.38222509157,340282346638528860000000000000000000000,1176450050,,,,0,,6,,36.49661636352539,-8.649541996419428,1.8749477473630969,-8.649541996419428,1.5000000237487257,Q,31008819002000
Raw,1676593951999,708043000000,,,-1360628461956697368,0.0,8.317224260821519,160.0,1.0,56,30,0.0,84003,433969915265851,17,32.83893585205078,-335.2509247831026,0.6365549783808264,16,-241790.75461923203,340282346638528860000000000000000000000,1176450050,,,,0,,6,,29.238937377929688,-8.2801328971982,1.8749477473630969,-8.2801328971982,1.5000000237487257,Q,31008819002000
Raw,1676593951999,708043000000,,,-1360628461956697368,0.0,8.317224260821519,160.0,1.0,56,34,0.0,84003,433969919071296,9,39.151729583740234,-307.1092449269572,0.15,16,-232966.85414941088,340282346638528860000000000000000000000,1176450050,,,,0,,6,,35.55173110961914,-9.942473843693731,1.8749477473630969,-9.942473843693731,1.5000000237487257,Q,31008819002000
Raw,1676593951999,708043000000,,,-1360628461956697368,0.0,8.317224260821519,160.0,1.0,56,36,0.0,84003,433969920717719,10,31.983131408691406,223.35370409322684,0.6760203328807082,16,141289.9741242349,340282346638528860000000000000000000000,1176450050,,,,0,,6,,28.38313102722168,-10.865996591746804,1.8749477473630969,-10.865996591746804,1.5000000237487257,Q,31008819002000
UncalAccel,1676593952101,31008923548722,-2.1379871,3.0364919,8.287541,0.037048545,-0.031444572,0.0098014325
OrientationDeg,1676593952101,31008923548722,239.0,0.0,-17.0
Fix,FLP,37.4312818000,-122.1550636000,-16.5,0.19273703,3.813,309.5673,1676593951997,0.12409946,50.442142,31008819002000,1.7630769
UncalMag,1676593952102,31008924587825,-154.6472,744.32196,398.086,-174.57417,771.0116,430.86337
UncalGyro,1676593952106,31008927789454,-0.14492778,-0.4289801,-1.0155635,0.0007930726,-0.0013252532,-0.00032473617
UncalAccel,1676593952110,31008932025741,-2.2809582,2.800799,8.383254,0.037048545,-0.031444572,0.0098014325
OrientationDeg,1676593952110,31008932025741,239.0,0.0,-17.0
UncalMag,1676593952112,31008934598078,-154.9034,745.17596,397.9274,-174.57417,771.0116,430.86337
UncalGyro,1676593952114,31008936265335,-0.1459968,-0.38362336,-1.0248792,0.0007930726,-0.0013252532,-0.00032473617
UncalAccel,1676593952118,31008940511774,-2.3808584,2.6895328,8.38804,0.037048545,-0.031444572,0.0098014325
OrientationDeg,1676593952118,31008940511774,240.0,0.0,-17.0
UncalMag,1676593952122,31008944598118,-154.4032,744.7246,396.9636,-174.57417,771.0116,430.86337
UncalGyro,1676593952122,31008944755009,-0.11453723,-0.312763,-1.0012082,0.0007930726,-0.0013252532,-0.00032473617
UncalAccel,1676593952126,31008948994195,-2.5166512,2.5549364,8.154141,0.037048545,-0.031444572,0.0098014325
OrientationDeg,1676593952126,31008948994195,240.0,0.0,-17.0
UncalGyro,1676593952131,31008953231276,-0.064599,-0.25121832,-0.96486163,0.0007930726,-0.0013252532,-0.00032473617
UncalMag,1676593952132,31008954597996,-153.8664,744.932,397.84198,-174.57417,771.0116,430.86337
UncalAccel,1676593952135,31008957471895,-2.5531418,2.4592235,7.982456,0.037048545,-0.031444572,0.0098014325
OrientationDeg,1676593952135,31008957471895,241.0,0.0,-17.0
UncalGyro,1676593952139,31008961716759,-0.022602014,-0.18173242,-0.93401295,0.0007930726,-0.0013252532,-0.00032473617
UncalMag,1676593952142,31008964597954,-154.025,745.79816,397.4516,-174.57417,771.0116,430.86337
UncalAccel,1676593952143,31008965954898,-2.5830522,2.4544377,8.077571,0.037048545,-0.031444572,0.0098014325
OrientationDeg,1676593952143,31008965954898,241.0,1.0,-17.0
UncalGyro,1676593952148,31008970189496,-0.017715093,-0.08475755,-0.9236283,0.0007930726,-0.0013252532,-0.00032473617
UncalAccel,1676593952152,31008974437970,-2.620739,2.4831517,7.996215,0.037048545,-0.031444572,0.0098014325
UncalMag,1676593952152,31008974594169,-153.9518,745.27356,397.31738,-174.57417,771.0116,430.86337
OrientationDeg,1676593952153,31008974437970,242.0,1.0,-17.0
UncalGyro,1676593952156,31008978679496,-0.049938235,-0.010842858,-0.93233305,0.0007930726,-0.0013252532,-0.00032473617
UncalAccel,1676593952160,31008982918478,-2.7008986,2.4394827,7.8957167,0.037048545,-0.031444572,0.0098014325
OrientationDeg,1676593952160,31008982918478,242.0,1.0,-17.0
UncalMag,1676593952162,31008984598034,-153.7932,746.152,397.52478,-174.57417,771.0116,430.86337
UncalGyro,1676593952165,31008987162832,-0.12064589,0.02107485,-0.946383,0.0007930726,-0.0013252532,-0.00032473617
UncalAccel,1676593952169,31008991409302,-2.7529426,2.3048863,7.8957167,0.037048545,-0.031444572,0.0098014325
OrientationDeg,1676593952169,31008991409302,243.0,1.0,-17.0
UncalMag,1676593952172,31008994597952,-154.2934,746.55457,396.9148,-174.57417,771.0116,430.86337
UncalGyro,1676593952173,31008995642843,-0.22067507,-0.0056505036,-0.9465357,0.0007930726,-0.0013252532,-0.00032473617
UncalAccel,1676593952177,31008999882192,-2.7182465,2.1571295,7.8490562,0.037048545,-0.031444572,0.0098014325
OrientationDeg,1676593952177,31008999882192,243.0,1.0,-17.0
UncalGyro,1676593952182,31009004122314,-0.32803464,-0.096516706,-0.93111134,0.0007930726,-0.0013252532,-0.00032473617
UncalMag,1676593952182,31009004582937,-153.842,747.07916,396.78058,-174.57417,771.0116,430.86337
UncalAccel,1676593952186,31009008363433,-2.7182465,2.0321047,7.9310107,0.037048545,-0.031444572,0.0098014325
OrientationDeg,1676593952186,31009008363433,244.0,1.0,-17.0
UncalGyro,1676593952190,31009012604959,-0.4268421,-0.2060143,-0.91446525,0.0007930726,-0.0013252532,-0.00032473617
UncalMag,1676593952192,31009014597910,-153.72,747.433,396.866,-174.57417,771.0116,430.86337
UncalAccel,1676593952194,31009016844633,-2.6656044,1.9268204,8.027322,0.037048545,-0.031444572,0.0098014325
OrientationDeg,1676593952194,31009016844633,244.0,1.0,-16.0
UncalGyro,1676593952199,31009021085641,-0.50900346,-0.29764408,-0.9082039,0.0007930726,-0.0013252532,-0.00032473617
UncalMag,1676593952202,31009024598072,-153.48819,747.7014,396.68298,-174.57417,771.0116,430.86337
UncalAccel,1676593952203,31009025322721,-2.580061,1.8795621,8.152347,0.037048545,-0.031444572,0.0098014325
OrientationDeg,1676593952203,31009025322721,245.0,1.0,-16.0
UncalGyro,1676593952207,31009029567991,-0.58291817,-0.3492622,-0.9288206,0.0007930726,-0.0013252532,-0.00032473617
UncalAccel,1676593952211,31009033807919,-2.4999015,1.8795621,8.276773,0.037048545,-0.031444572,0.0098014325
OrientationDeg,1676593952211,31009033807919,245.0,1.0,-16.0
UncalMag,1676593952212,31009034587329,-153.5492,748.56757,396.6464,-174.57417,771.0116,430.86337
UncalGyro,1676593952216,31009038051205,-0.6609562,-0.3642284,-0.9746355,0.0007930726,-0.0013252532,-0.00032473617
UncalAccel,1676593952220,31009042286770,-2.461018,1.8610178,8.239086,0.037048545,-0.031444572,0.0098014325
OrientationDeg,1676593952220,31009042286770,246.0,1.0,-15.0
UncalMag,1676593952222,31009044587287,-153.9518,748.7384,396.93918,-174.57417,771.0116,430.86337
UncalGyro,1676593952224,31009046521166,-0.74220127,-0.37965274,-1.0221303,0.0007930726,-0.0013252532,-0.00032473617
UncalAccel,1676593952228,31009050770209,-2.4831517,1.7078772,8.077571,0.037048545,-0.031444572,0.0098014325
OrientationDeg,1676593952228,31009050770209,246.0,1.0,-15.0
UncalMag,1676593952232,31009054587816,-153.30519,749.0434,395.0604,-174.57417,771.0116,430.86337
UncalGyro,1676593952233,31009055009609,-0.8248208,-0.4036292,-1.0413725,0.0007930726,-0.0013252532,-0.00032473617
UncalAccel,1676593952237,31009059243709,-3.8303108,-0.13459627,10.421341,0.037048545,-0.031444572,0.0098014325
OrientationDeg,1676593952237,31009059243709,247.0,1.0,-15.0
UncalGyro,1676593952241,31009063493525,-0.108123146,-0.4025602,-0.46883908,0.0007930726,-0.0013252532,-0.00032473617
UncalMag,1676593952242,31009064587611,-153.7078,749.2386,395.71918,-174.57417,771.0116,430.86337
UncalAccel,1676593952245,31009067733352,-8.718249,1.3220345,15.113068,0.037048545,-0.031444572,0.0098014325
OrientationDeg,1676593952245,31009067733352,246.0,1.0,-15.0
UncalGyro,1676593952249,31009071978682,1.1468995,-0.37125334,0.33536503,0.0007930726,-0.0013252532,-0.00032473617
UncalMag,1676593952252,31009074597987,-153.1954,749.1654,396.1828,-174.57417,771.0116,430.86337
UncalAccel,1676593952254,31009076212000,-6.541977,4.92084,13.877175,0.037048545,-0.031444572,0.0098014325
OrientationDeg,1676593952254,31009076212000,246.0,1.0,-16.0
UncalGyro,1676593952258,31009080445785,1.196685,0.055588737,0.33658674,0.0007930726,-0.0013252532,-0.00032473617
UncalMag,1676593952262,31009084598027,-153.3418,748.47,396.012,-174.57417,771.0116,430.86337
UncalAccel,1676593952262,31009084692671,-5.1385865,2.295315,7.819146,0.037048545,-0.031444572,0.0098014325
OrientationDeg,1676593952262,31009084692671,246.0,1.0,-16.0
UncalGyro,1676593952266,31009088937646,0.8718574,0.01985312,0.28848112,0.0007930726,-0.0013252532,-0.00032473617
UncalAccel,1676593952271,31009093179568,-3.001796,1.6079768,8.389834,0.037048545,-0.031444572,0.0098014325
OrientationDeg,1676593952271,31009093179568,246.0,1.0,-16.0
UncalMag,1676593952272,31009094587202,-153.964,748.5432,396.04858,-174.57417,771.0116,430.86337
UncalGyro,1676593952275,31009097419985,0.5545129,-0.0035124752,0.24281894,0.0007930726,-0.0013252532,-0.00032473617
UncalAccel,1676593952279,31009101659315,-1.3704891,2.806781,8.19781,0.037048545,-0.031444572,0.0098014325
OrientationDeg,1676593952279,31009101659315,246.0,1.0,-17.0
UncalMag,1676593952282,31009104598066,-154.2812,748.36017,395.88998,-174.57417,771.0116,430.86337
UncalGyro,1676593952283,31009105901695,0.3231477,-0.106595986,0.09896017,0.0007930726,-0.0013252532,-0.00032473617
UncalAccel,1676593952288,31009110137951,-0.9912268,2.6027927,8.158329,0.037048545,-0.031444572,0.0098014325
OrientationDeg,1676593952288,31009110137951,246.0,1.0,-17.0
UncalGyro,1676593952292,31009114372520,0.09208794,-0.19792034,-0.06093381,0.0007930726,-0.0013252532,-0.00032473617
UncalMag,1676593952292,31009114587079,-154.7448,747.7624,396.6098,-174.57417,771.0116,430.86337
UncalAccel,1676593952296,31009118621735,-0.48095736,2.8935208,8.122437,0.037048545,-0.031444572,0.0098014325
OrientationDeg,1676593952296,31009118621735,246.0,1.0,-17.0
UncalGyro,1676593952300,31009122863658,-0.1966986,-0.31810808,-0.23335053,0.0007930726,-0.0013252532,-0.00032473617
UncalMag,1676593952303,31009124597901,-153.8908,747.9698,397.1222,-174.57417,771.0116,430.86337
UncalAccel,1676593952305,31009127102967,0.10229317,2.7631118,8.240881,0.037048545,-0.031444572,0.0098014325
OrientationDeg,1676593952305,31009127102967,246.0,1.0,-17.0
UncalGyro,1676593952309,31009131334077,-0.44623706,-0.44348818,-0.3724751,0.0007930726,-0.0013252532,-0.00032473617
UncalMag,1676593952312,31009134598023,-154.086,748.1894,395.8412,-174.57417,771.0116,430.86337
UncalAccel,1676593952313,31009135584555,0.5521438,2.035694,9.359526,0.037048545,-0.031444572,0.0098014325
OrientationDeg,1676593952313,31009135584555,246.0,1.0,-16.0
UncalGyro,1676593952317,31009139827199,-0.5850562,-0.24312437,-0.4894558,0.0007930726,-0.0013252532,-0.00032473617
UncalAccel,1676593952322,31009144068897,1.0833504,0.5407779,11.647064,0.037048545,-0.031444572,0.0098014325
UncalMag,1676593952322,31009144598063,-153.964,748.55536,396.5366,-174.57417,771.0116,430.86337
OrientationDeg,1676593952322,31009144068897,247.0,1.0,-16.0
UncalGyro,1676593952326,31009148307911,-0.72204274,-0.008093964,-0.50778174,0.0007930726,-0.0013252532,-0.00032473617
UncalAccel,1676593952330,31009152546446,-0.9924232,1.0492527,6.195018,0.037048545,-0.031444572,0.0098014325
OrientationDeg,1676593952330,31009152546446,247.0,1.0,-16.0
UncalMag,1676593952332,31009154586384,-154.23239,749.20197,394.9994,-174.57417,771.0116,430.86337
UncalGyro,1676593952334,31009156785918,-0.9428705,-0.17531833,-0.5195409,0.0007930726,-0.0013252532,-0.00032473617
UncalAccel,1676593952339,31009161028980,-1.0648061,1.6402799,7.804789,0.037048545,-0.031444572,0.0098014325
UncalMag,1676593952342,31009164597817,-153.1832,749.3362,395.73138,-174.57417,771.0116,430.86337
UncalGyro,1676593952343,31009165266833,-1.1833987,-0.2846632,-0.57986385,0.0007930726,-0.0013252532,-0.00032473617
OrientationDeg,1676593952339,31009161028980,247.0,1.0,-15.0
UncalAccel,1676593952347,31009169496915,-1.4446666,1.4063815,8.882756,0.037048545,-0.031444572,0.0098014325
OrientationDeg,1676593952347,31009169496915,247.0,1.0,-14.0
UncalGyro,1676593952351,31009173752987,-1.4179709,-0.32436943,-0.54244834,0.0007930726,-0.0013252532,-0.00032473617
UncalMag,1676593952352,31009174587562,-153.75659,750.178,395.219,-174.57417,771.0116,430.86337
UncalAccel,1676593952355,31009177991818,-1.1820544,0.99661064,8.551949,0.037048545,-0.031444572,0.0098014325
OrientationDeg,1676593952355,31009177991818,248.0,0.0,-14.0
UncalGyro,1676593952360,31009182238043,-1.5189165,-0.4089743,-0.45234573,0.0007930726,-0.0013252532,-0.00032473617
UncalMag,1676593952362,31009184597978,-153.7322,750.5928,394.5968,-174.57417,771.0116,430.86337
UncalAccel,1676593952364,31009186472623,-0.61794645,1.4853446,7.584051,0.037048545,-0.031444572,0.0098014325
OrientationDeg,1676593952364,31009186472623,248.0,0.0,-13.0
UncalGyro,1676593952368,31009190714708,-1.4292719,-0.4540256,-0.44226643,0.0007930726,-0.0013252532,-0.00032473617
UncalMag,1676593952372,31009194597937,-154.208,751.3492,393.938,-174.57417,771.0116,430.86337
UncalAccel,1676593952372,31009194951432,-0.36789647,1.9525433,7.1395845,0.037048545,-0.031444572,0.0098014325
OrientationDeg,1676593952372,31009194951432,248.0,0.0,-12.0
UncalGyro,1676593952377,31009199185552,-1.1745411,-0.31535918,-0.49480084,0.0007930726,-0.0013252532,-0.00032473617
UncalAccel,1676593952381,31009203435938,0.12921242,2.2959132,6.888338,0.037048545,-0.031444572,0.0098014325
UncalMag,1676593952382,31009204587804,-153.415,752.2398,394.2552,-174.57417,771.0116,430.86337
OrientationDeg,1676593952381,31009203435938,248.0,0.0,-12.0
UncalGyro,1676593952385,31009207678532,-0.77381355,-0.027183503,-0.5703954,0.0007930726,-0.0013252532,-0.00032473617
UncalAccel,1676593952389,31009211919112,0.7585248,2.5692933,6.323034,0.037048545,-0.031444572,0.0098014325
OrientationDeg,1676593952389,31009211919112,249.0,0.0,-11.0
UncalMag,1676593952392,31009214598098,-154.147,752.2886,393.1938,-174.57417,771.0116,430.86337
UncalGyro,1676593952394,31009216156051,-0.257327,0.2874121,-0.65209866,0.0007930726,-0.0013252532,-0.00032473617
UncalAccel,1676593952398,31009220399073,1.4757733,2.713461,5.610571,0.037048545,-0.031444572,0.0098014325
OrientationDeg,1676593952398,31009220399073,249.0,0.0,-12.0
UncalMag,1676593952402,31009224598260,-154.025,752.59357,394.4748,-174.57417,771.0116,430.86337
UncalGyro,1676593952402,31009224639896,0.25900686,0.50717086,-0.70463306,0.0007930726,-0.0013252532,-0.00032473617
UncalAccel,1676593952406,31009228870303,2.356332,2.6751757,6.198607,0.037048545,-0.031444572,0.0098014325
OrientationDeg,1676593952406,31009228870303,249.0,1.0,-12.0
UncalGyro,1676593952411,31009233121747,0.6944011,0.7632761,-0.68493265,0.0007930726,-0.0013252532,-0.00032473617
UncalMag,1676593952412,31009234597893,-153.80539,752.74,393.7794,-174.57417,771.0116,430.86337
UncalAccel,1676593952415,31009237361309,2.5465615,2.5836504,7.088139,0.037048545,-0.031444572,0.0098014325
OrientationDeg,1676593952415,31009237361309,250.0,1.0,-12.0
UncalGyro,1676593952419,31009241607058,1.0543534,1.0626001,-0.61911196,0.0007930726,-0.0013252532,-0.00032473617
UncalMag,1676593952422,31009244597811,-152.9148,752.0202,395.28,-174.57417,771.0116,430.86337
UncalAccel,1676593952423,31009245843376,1.8520447,2.521437,7.265208,0.037048545,-0.031444572,0.0098014325
OrientationDeg,1676593952423,31009245843376,250.0,2.0,-13.0
UncalGyro,1676593952428,31009250085746,1.3263412,1.2890784,-0.5758932,0.0007930726,-0.0013252532,-0.00032473617
UncalAccel,1676593952432,31009254323945,0.9631111,2.7601209,7.6163545,0.037048545,-0.031444572,0.0098014325
UncalMag,1676593952432,31009254587150,-152.4146,751.6786,394.9384,-174.57417,771.0116,430.86337
OrientationDeg,1676593952432,31009254323945,250.0,3.0,-14.0
UncalGyro,1676593952436,31009258566224,1.5161675,1.3982705,-0.5674938,0.0007930726,-0.0013252532,-0.00032473617
UncalAccel,1676593952440,31009262805613,0.19980069,3.056831,7.7677007,0.037048545,-0.031444572,0.0098014325
OrientationDeg,1676593952440,31009262805613,251.0,3.0,-14.0
UncalMag,1676593952442,31009264587434,-151.7924,751.4346,395.1092,-174.57417,771.0116,430.86337
UncalGyro,1676593952445,31009267047465,1.5946637,1.3599387,-0.59131753,0.0007930726,-0.0013252532,-0.00032473617
UncalAccel,1676593952449,31009271286804,-0.2961118,3.4360933,8.001,0.037048545,-0.031444572,0.0098014325
OrientationDeg,1676593952449,31009271286804,251.0,4.0,-15.0
UncalMag,1676593952452,31009274598134,-151.3776,751.4712,396.195,-174.57417,771.0116,430.86337
UncalGyro,1676593952453,31009275524658,1.5254833,1.1736249,-0.6553057,0.0007930726,-0.0013252532,-0.00032473617
UncalAccel,1676593952457,31009279760273,-0.6466603,3.7794633,7.9160557,0.037048545,-0.031444572,0.0098014325
OrientationDeg,1676593952457,31009279760273,251.0,5.0,-16.0
UncalGyro,1676593952462,31009284010395,1.3095424,0.82634795,-0.7623598,0.0007930726,-0.0013252532,-0.00032473617
UncalMag,1676593952462,31009284598663,-151.219,750.6172,396.5976,-174.57417,771.0116,430.86337
UncalAccel,1676593952466,31009288249429,-0.9601201,4.0594234,8.084749,0.037048545,-0.031444572,0.0098014325
OrientationDeg,1676593952466,31009288249429,252.0,5.0,-16.0
UncalGyro,1676593952470,31009292488554,0.9947941,0.54702985,-0.89919364,0.0007930726,-0.0013252532,-0.00032473617
UncalMag,1676593952472,31009294597929,-150.914,750.6416,397.0734,-174.57417,771.0116,430.86337
UncalAccel,1676593952474,31009296731424,-0.7148558,4.0181475,13.618152,0.037048545,-0.031444572,0.0098014325
OrientationDeg,1676593952474,31009296731424,252.0,6.0,-17.0
UncalGyro,1676593952478,31009300973163,0.61269784,0.72204274,-1.0187705,0.0007930726,-0.0013252532,-0.00032473617
UncalMag,1676593952482,31009304597929,-150.0112,750.03156,396.7928,-174.57417,771.0116,430.86337
UncalAccel,1676593952483,31009305214332,-1.0809577,3.5288153,9.905089,0.037048545,-0.031444572,0.0098014325
OrientationDeg,1676593952483,31009305214332,253.0,6.0,-17.0
UncalGyro,1676593952487,31009309456804,0.14630222,0.49663344,-1.1203269,0.0007930726,-0.0013252532,-0.00032473617
UncalAccel,1676593952491,31009313699052,-0.74177504,3.7076788,10.435698,0.037048545,-0.031444572,0.0098014325
UncalMag,1676593952492,31009314587877,-149.7184,749.7388,398.15918,-174.57417,771.0116,430.86337
OrientationDeg,1676593952491,31009313699052,254.0,6.0,-17.0
UncalGyro,1676593952495,31009317936967,-0.38927388,0.23105977,-1.1908818,0.0007930726,-0.0013252532,-0.00032473617
UncalAccel,1676593952500,31009322175289,-0.5132605,3.0287154,10.393225,0.037048545,-0.031444572,0.0098014325
OrientationDeg,1676593952500,31009322175289,254.0,7.0,-16.0
UncalMag,1676593952502,31009324598090,-149.5354,750.849,397.3296,-174.57417,771.0116,430.86337
UncalGyro,1676593952504,31009326416439,-0.9014844,-0.02076942,-1.180497,0.0007930726,-0.0013252532,-0.00032473617
UncalAccel,1676593952508,31009330655564,-0.55034924,2.664408,10.518848,0.037048545,-0.031444572,0.0098014325
OrientationDeg,1676593952508,31009330655564,255.0,7.0,-16.0
UncalMag,1676593952512,31009334598130,-148.6692,751.4834,397.8298,-174.57417,771.0116,430.86337
UncalGyro,1676593952512,31009334891657,-1.3321444,-0.16890424,-1.1187997,0.0007930726,-0.0013252532,-0.00032473617
UncalAccel,1676593952517,31009339127365,-0.5982057,2.2420747,10.792827,0.037048545,-0.031444572,0.0098014325
OrientationDeg,1676593952517,31009339127365,255.0,7.0,-15.0
UncalGyro,1676593952521,31009343377395,-1.6195564,-0.19715676,-1.0326678,0.0007930726,-0.0013252532,-0.00032473617
UncalMag,1676593952522,31009344587346,-148.7302,752.0812,397.4882,-174.57417,771.0116,430.86337
UncalAccel,1676593952525,31009347617954,-0.64905316,1.8873389,10.798809,0.037048545,-0.031444572,0.0098014325
OrientationDeg,1676593952526,31009347617954,255.0,7.0,-14.0
UncalGyro,1676593952529,31009351861728,-1.7534887,-0.18066339,-0.9233228,0.0007930726,-0.0013252532,-0.00032473617
UncalMag,1676593952532,31009354597925,-148.4496,753.2036,396.78058,-174.57417,771.0116,430.86337
UncalAccel,1676593952534,31009356091242,-0.67058855,1.6426728,10.72822,0.037048545,-0.031444572,0.0098014325
OrientationDeg,1676593952534,31009356091242,256.0,7.0,-13.0
UncalGyro,1676593952538,31009360343926,-1.7447839,-0.17058411,-0.819323,0.0007930726,-0.0013252532,-0.00032473617
UncalAccel,1676593952542,31009364586103,-0.73818576,1.5080764,10.833505,0.037048545,-0.031444572,0.0098014325
UncalMag,1676593952542,31009364609195,-147.7542,754.3504,396.6708,-174.57417,771.0116,430.86337
UncalGyro,1676593952546,31009368840009,-1.617113,-0.17944166,-0.7480045,0.0007930726,-0.0013252532,-0.00032473617
OrientationDeg,1676593952542,31009364586103,256.0,7.0,-12.0
UncalAccel,1676593952551,31009373064160,-0.7728817,1.3639089,11.096715,0.037048545,-0.031444572,0.0098014325
OrientationDeg,1676593952551,31009373064160,256.0,7.0,-11.0
UncalMag,1676593952552,31009374587344,-147.7542,754.3504,396.6708,-174.57417,771.0116,430.86337
UncalGyro,1676593952555,31009377306835,-1.3817772,-0.1611157,-0.7067711,0.0007930726,-0.0013252532,-0.00032473617
UncalAccel,1676593952559,31009381542666,-0.85064846,1.0654043,11.493923,0.037048545,-0.031444572,0.0098014325
OrientationDeg,1676593952559,31009381542666,256.0,7.0,-11.0
UncalMag,1676593952562,31009384598208,-148.5472,755.00916,395.9998,-174.57417,771.0116,430.86337
UncalGyro,1676593952563,31009385788322,-1.0670289,-0.1328632,-0.66339964,0.0007930726,-0.0013252532,-0.00032473617
UncalAccel,1676593952568,31009390026836,-0.93978107,0.8877372,11.432308,0.037048545,-0.031444572,0.0098014325
OrientationDeg,1676593952568,31009390026836,257.0,7.0,-10.0
UncalGyro,1676593952572,31009394268942,-0.7652614,-0.17806722,-0.6291912,0.0007930726,-0.0013252532,-0.00032473617
UncalMag,1676593952573,31009394587139,-147.9616,756.0584,395.7558,-174.57417,771.0116,430.86337
UncalAccel,1676593952577,31009398508332,-1.0743774,0.8147561,11.574681,0.037048545,-0.031444572,0.0098014325
OrientationDeg,1676593952576,31009398508332,257.0,7.0,-10.0
UncalGyro,1676593952580,31009402749400,-0.5123632,-0.28725937,-0.61483586,0.0007930726,-0.0013252532,-0.00032473617
UncalMag,1676593952582,31009404597921,-147.9616,756.0584,395.7558,-174.57417,771.0116,430.86337
UncalAccel,1676593952584,31009406986846,-1.1778669,0.6652047,12.042479,0.037048545,-0.031444572,0.0098014325
OrientationDeg,1676593952584,31009406986846,257.0,6.0,-10.0
UncalGyro,1676593952589,31009411232645,-0.30772337,-0.4063781,-0.6096435,0.0007930726,-0.0013252532,-0.00032473617
UncalMag,1676593952592,31009414597880,-148.46179,756.5708,395.524,-174.57417,771.0116,430.86337
UncalAccel,1676593952593,31009415471283,-1.1766706,0.42891344,12.707085,0.037048545,-0.031444572,0.0098014325
OrientationDeg,1676593952593,31009415471283,257.0,6.0,-9.0
UncalGyro,1676593952597,31009419713815,-0.15118915,-0.5045747,-0.59040123,0.0007930726,-0.0013252532,-0.00032473617
UncalAccel,1676593952601,31009423952239,-1.0893325,0.11724831,13.358531,0.037048545,-0.031444572,0.0098014325
UncalMag,1676593952602,31009424594461,-148.3154,757.1686,395.0604,-174.57417,771.0116,430.86337
OrientationDeg,1676593952601,31009423952239,258.0,6.0,-9.0
UncalGyro,1676593952606,31009428194517,-0.03573562,-0.54199016,-0.5355761,0.0007930726,-0.0013252532,-0.00032473617
UncalAccel,1676593952610,31009432433988,-0.9296116,-0.10289137,13.952549,0.037048545,-0.031444572,0.0098014325
OrientationDeg,1676593952610,31009432433988,258.0,6.0,-9.0
UncalMag,1676593952612,31009434587462,-148.718,757.4126,395.0116,-174.57417,771.0116,430.86337
UncalGyro,1676593952614,31009436675902,0.053145275,-0.4700608,-0.4353942,0.0007930726,-0.0013252532,-0.00032473617
UncalAccel,1676593952618,31009440915820,-0.6963114,-0.24586253,14.18884,0.037048545,-0.031444572,0.0098014325
OrientationDeg,1676593952618,31009440915820,258.0,6.0,-9.0
UncalMag,1676593952622,31009444587664,-148.93759,757.2296,394.975,-174.57417,771.0116,430.86337
UncalGyro,1676593952623,31009445155596,0.1253801,-0.29626966,-0.29061913,0.0007930726,-0.0013252532,-0.00032473617
UncalAccel,1676593952627,31009449386623,-0.53359944,-0.23030917,14.123037,0.037048545,-0.031444572,0.0098014325
OrientationDeg,1676593952627,31009449386623,258.0,6.0,-9.0
UncalGyro,1676593952631,31009453635596,0.16982053,-0.04886922,-0.11530081,0.0007930726,-0.0013252532,-0.00032473617
UncalMag,1676593952632,31009454589006,-148.30319,757.2662,395.57278,-174.57417,771.0116,430.86337
UncalAccel,1676593952635,31009457862321,-0.49351966,-0.0951147,13.821542,0.037048545,-0.031444572,0.0098014325
OrientationDeg,1676593952635,31009457862321,258.0,6.0,-9.0
UncalGyro,1676593952641,31009462122778,0.16539176,0.22617286,0.06918049,0.0007930726,-0.0013252532,-0.00032473617
UncalMag,1676593952642,31009464581315,-148.9498,757.0466,394.6944,-174.57417,771.0116,430.86337
UncalAccel,1676593952644,31009466359666,-0.60598236,0.1680958,13.347165,0.037048545,-0.031444572,0.0098014325
OrientationDeg,1676593952644,31009466359666,258.0,6.0,-9.0
UncalGyro,1676593952648,31009470604782,0.11301007,0.49403727,0.2415972,0.0007930726,-0.0013252532,-0.00032473617
UncalMag,1676593952652,31009474604793,-148.9254,757.315,394.7554,-174.57417,771.0116,430.86337
UncalAccel,1676593952652,31009474834284,-0.8530413,0.53659046,12.795021,0.037048545,-0.031444572,0.0098014325
OrientationDeg,1676593952652,31009474834284,258.0,6.0,-10.0
UncalGyro,1676593952657,31009479067702,0.027488936,0.73532903,0.38866302,0.0007930726,-0.0013252532,-0.00032473617
UncalAccel,1676593952661,31009483322605,-1.1712867,0.98584294,12.246467,0.037048545,-0.031444572,0.0098014325
UncalMag,1676593952662,31009484587295,-148.4008,757.4126,394.76758,-174.57417,771.0116,430.86337
OrientationDeg,1676593952661,31009483322605,258.0,6.0,-10.0
UncalGyro,1676593952665,31009487564263,-0.076816306,0.9450085,0.49846604,0.0007930726,-0.0013252532,-0.00032473617
UncalAccel,1676593952669,31009491805068,-1.494916,1.4781662,11.6644125,0.037048545,-0.031444572,0.0098014325
OrientationDeg,1676593952669,31009491805068,258.0,7.0,-9.0
UncalMag,1676593952672,31009494597996,-148.23,756.7416,395.56058,-174.57417,771.0116,430.86337
UncalGyro,1676593952674,31009496045546,-0.18875736,1.1174252,0.5665775,0.0007930726,-0.0013252532,-0.00032473617
UncalAccel,1676593952678,31009500285465,-1.8370895,1.9322042,11.039288,0.037048545,-0.031444572,0.0098014325
OrientationDeg,1676593952678,31009500285465,257.0,7.0,-9.0
UncalGyro,1676593952682,31009504527936,-0.2921463,1.2278391,0.5902485,0.0007930726,-0.0013252532,-0.00032473617
UncalMag,1676593952682,31009504609103,-147.8274,756.70496,396.7562,-174.57417,771.0116,430.86337
UncalAccel,1676593952686,31009508766502,-2.187638,2.3234308,10.342976,0.037048545,-0.031444572,0.0098014325
