# 
# Header Description:
# 
# Version: v3.0.5.6 Platform: 13 Manufacturer: Google Model: Pixel 6
# 
# Raw,utcTimeMillis,TimeNanos,LeapSecond,TimeUncertaintyNanos,FullBiasNanos,BiasNanos,BiasUncertaintyNanos,DriftNanosPerSecond,DriftUncertaintyNanosPerSecond,HardwareClockDiscontinuityCount,Svid,TimeOffsetNanos,State,ReceivedSvTimeNanos,ReceivedSvTimeUncertaintyNanos,Cn0DbHz,PseudorangeRateMetersPerSecond,PseudorangeRateUncertaintyMetersPerSecond,AccumulatedDeltaRangeState,AccumulatedDeltaRangeMeters,AccumulatedDeltaRangeUncertaintyMeters,CarrierFrequencyHz,CarrierCycles,CarrierPhase,CarrierPhaseUncertainty,MultipathIndicator,SnrInDb,ConstellationType,AgcDb,BasebandCn0DbHz,FullInterSignalBiasNanos,FullInterSignalBiasUncertaintyNanos,SatelliteInterSignalBiasNanos,SatelliteInterSignalBiasUncertaintyNanos,CodeType,ChipsetElapsedRealtimeNanos
# 
# UncalAccel,utcTimeMillis,elapsedRealtimeNanos,UncalAccelXMps2,UncalAccelYMps2,UncalAccelZMps2,BiasXMps2,BiasYMps2,BiasZMps2
# 
# Accel,utcTimeMillis,elapsedRealtimeNanos,AccelXMps2,AccelYMps2,AccelZMps2
# 
# UncalGyro,utcTimeMillis,elapsedRealtimeNanos,UncalGyroXRadPerSec,UncalGyroYRadPerSec,UncalGyroZRadPerSec,DriftXRadPerSec,DriftYRadPerSec,DriftZRadPerSec
# 
# Gyro,utcTimeMillis,elapsedRealtimeNanos,GyroXRadPerSec,GyroYRadPerSec,GyroZRadPerSec
# 
# UncalMag,utcTimeMillis,elapsedRealtimeNanos,UncalMagXMicroT,UncalMagYMicroT,UncalMagZMicroT,BiasXMicroT,BiasYMicroT,BiasZMicroT
# 
# Mag,utcTimeMillis,elapsedRealtimeNanos,MagXMicroT,MagYMicroT,MagZMicroT
# 
# OrientationDeg,utcTimeMillis,elapsedRealtimeNanos,yawDeg,rollDeg,pitchDeg
# 
# Fix,Provider,LatitudeDegrees,LongitudeDegrees,AltitudeMeters,SpeedMps,AccuracyMeters,BearingDegrees,UnixTimeMillis,SpeedAccuracyMps,BearingAccuracyDegrees,elapsedRealtimeNanos,VerticalAccuracyMeters
# 
# Nav,Svid,Type,Status,MessageId,Sub-messageId,Data(Bytes)
# 
# Status,UnixTimeMillis,SignalCount,SignalIndex,ConstellationType,Svid,CarrierFrequencyHz,Cn0DbHz,AzimuthDegrees,ElevationDegrees,UsedInFix,HasAlmanacData,HasEphemerisData,BasebandCn0DbHz
# 
UncalAccel,1676592086083,119589713356578,0.5204389,2.5118656,10.165309,0.006110925,-0.043260336,-0.038735468
UncalGyro,1676592086091,119589722323619,-0.038179077,-0.24281894,-0.1601994,0.0005151411,-0.0008572277,-0.003177878
UncalAccel,1676592086092,119589722323619,0.509073,2.3922246,10.293324,0.006110925,-0.043260336,-0.038735468
UncalMag,1676592086087,119589717864269,-52.9358,18.2024,-110.6784,-47.214203,4.776456,-64.190285
UncalMag,1676592086097,119589727864757,-54.9976,17.3606,-112.300995,-47.214203,4.776456,-64.190285
UncalGyro,1676592086101,119589731303417,-0.02687807,-0.095753126,-0.15607607,0.0005151411,-0.0008572277,-0.003177878
UncalAccel,1676592086101,119589731303417,0.45164528,2.315654,10.211968,0.006110925,-0.043260336,-0.038735468
OrientationDeg,1676592086091,119589722323619,6.0,-1.0,-15.0
OrientationDeg,1676592086100,119589731303417,7.0,-1.0,-15.0
UncalMag,1676592086106,119589737860851,-54.107,17.7876,-111.9594,-47.214203,4.776456,-64.190285
UncalGyro,1676592086109,119589740282970,-0.03145956,0.04260785,-0.14095716,0.0005151411,-0.0008572277,-0.003177878
UncalAccel,1676592086109,119589740282970,0.36191443,2.2779672,9.967901,0.006110925,-0.043260336,-0.038735468
Fix,FLP,37.4307932000,-122.1550456000,-16.100000381469727,0.0017320618,4.182,,1676592085490,,,119589120683849,4.0217786
OrientationDeg,1676592086109,119589740282970,7.0,-1.0,-15.0
UncalMag,1676592086116,119589747864513,-54.3754,18.4464,-114.338394,-47.214203,4.776456,-64.190285
UncalGyro,1676592086118,119589749264598,-0.05971208,0.14202617,-0.123242065,0.0005151411,-0.0008572277,-0.003177878
UncalAccel,1676592086118,119589749264598,0.23988047,2.3216362,9.643674,0.006110925,-0.043260336,-0.038735468
OrientationDeg,1676592086118,119589749264598,7.0,0.0,-15.0
UncalMag,1676592086126,119589757860119,-51.179,19.3126,-110.8004,-47.214203,4.776456,-64.190285
UncalGyro,1676592086128,119589758244457,-0.10827587,0.18845193,-0.105832405,0.0005151411,-0.0008572277,-0.003177878
UncalAccel,1676592086128,119589758244457,0.1471586,2.4562325,9.363115,0.006110925,-0.043260336,-0.038735468
OrientationDeg,1676592086128,119589758244457,7.0,0.0,-15.0
UncalGyro,1676592086136,119589767222728,-0.17165314,0.19226983,-0.0936151,0.0005151411,-0.0008572277,-0.003177878
UncalAccel,1676592086136,119589767222728,0.13938192,2.5998018,9.249456,0.006110925,-0.043260336,-0.038735468
UncalMag,1676592086136,119589767864513,-50.154198,19.2638,-112.910995,-47.214203,4.776456,-64.190285
OrientationDeg,1676592086136,119589767222728,7.0,0.0,-15.0
UncalGyro,1676592086145,119589776205333,-0.23319781,0.17592919,-0.08078693,0.0005151411,-0.0008572277,-0.003177878
UncalAccel,1676592086146,119589776205333,0.16331014,2.6285157,9.268599,0.006110925,-0.043260336,-0.038735468
OrientationDeg,1676592086146,119589776205333,7.0,0.0,-15.0
UncalMag,1676592086146,119589777865001,-49.995598,19.947,-113.033,-47.214203,4.776456,-64.190285
UncalGyro,1676592086155,119589785184398,-0.27168232,0.16417004,-0.07391469,0.0005151411,-0.0008572277,-0.003177878
UncalAccel,1676592086155,119589785184398,0.2434697,2.638087,9.407382,0.006110925,-0.043260336,-0.038735468
OrientationDeg,1676592086154,119589785184398,7.0,0.0,-14.0
UncalMag,1676592086156,119589787865734,-49.8248,19.5688,-111.6056,-47.214203,4.776456,-64.190285
UncalGyro,1676592086163,119589794165966,-0.29016098,0.18341228,-0.08307768,0.0005151411,-0.0008572277,-0.003177878
UncalAccel,1676592086164,119589794165966,0.32422748,2.6709883,9.602996,0.006110925,-0.043260336,-0.038735468
OrientationDeg,1676592086164,119589794165966,7.0,0.0,-14.0
UncalMag,1676592086166,119589797867199,-49.044,20.020199,-112.154594,-47.214203,4.776456,-64.190285
UncalGyro,1676592086172,119589803141063,-0.2883284,0.22006421,-0.10399981,0.0005151411,-0.0008572277,-0.003177878
UncalAccel,1676592086172,119589803141063,0.35174492,2.6422744,9.683753,0.006110925,-0.043260336,-0.038735468
OrientationDeg,1676592086173,119589803141063,7.0,0.0,-14.0
UncalMag,1676592086176,119589807864269,-50.264,19.5566,-110.409996,-47.214203,4.776456,-64.190285
UncalGyro,1676592086181,119589812130015,-0.2657264,0.24785857,-0.1253801,0.0005151411,-0.0008572277,-0.003177878
UncalAccel,1676592086182,119589812130015,0.2656033,2.5992036,9.702297,0.006110925,-0.043260336,-0.038735468
OrientationDeg,1676592086182,119589812130015,7.0,0.0,-14.0
UncalMag,1676592086187,119589817865001,-53.0822,18.7636,-111.2762,-47.214203,4.776456,-64.190285
UncalGyro,1676592086190,119589821106395,-0.22800545,0.25045475,-0.1423316,0.0005151411,-0.0008572277,-0.003177878
UncalAccel,1676592086190,119589821106395,0.13160525,2.5136602,9.644272,0.006110925,-0.043260336,-0.038735468
OrientationDeg,1676592086191,119589821106395,7.0,0.0,-14.0
UncalMag,1676592086197,119589827866222,-52.0818,19.007599,-112.593796,-47.214203,4.776456,-64.190285
UncalGyro,1676592086199,119589830081004,-0.18203785,0.22602014,-0.15470162,0.0005151411,-0.0008572277,-0.003177878
UncalAccel,1676592086199,119589830081004,0.036490545,2.4568307,9.58146,0.006110925,-0.043260336,-0.038735468
OrientationDeg,1676592086200,119589830081004,7.0,0.0,-14.0
UncalMag,1676592086207,119589837865490,-51.5084,19.2882,-110.885796,-47.214203,4.776456,-64.190285
UncalGyro,1676592086208,119589839063121,-0.13927728,0.18906279,-0.15760323,0.0005151411,-0.0008572277,-0.003177878
UncalAccel,1676592086208,119589839063121,-0.07836494,2.3856442,9.523434,0.006110925,-0.043260336,-0.038735468
OrientationDeg,1676592086209,119589839063121,7.0,0.0,-14.0
UncalMag,1676592086217,119589847865978,-51.557198,18.5318,-117.3274,-47.214203,4.776456,-64.190285
UncalGyro,1676592086217,119589848041271,-0.093462385,0.14294247,-0.15134187,0.0005151411,-0.0008572277,-0.003177878
UncalAccel,1676592086217,119589848041271,-0.20757736,2.3288147,9.537193,0.006110925,-0.043260336,-0.038735468
OrientationDeg,1676592086218,119589848041271,7.0,0.0,-14.0
UncalGyro,1676592086227,119589857023509,-0.047647487,0.10323623,-0.13622294,0.0005151411,-0.0008572277,-0.003177878
UncalAccel,1676592086226,119589857023509,-0.2943172,2.204986,9.559925,0.006110925,-0.043260336,-0.038735468
UncalMag,1676592086226,119589857864025,-47.6044,20.3496,-109.6048,-47.214203,4.776456,-64.190285
OrientationDeg,1676592086226,119589857023509,7.0,0.0,-14.0
UncalGyro,1676592086235,119589866002941,0.0016798794,0.063682705,-0.11530081,0.0005151411,-0.0008572277,-0.003177878
UncalAccel,1676592086236,119589866002941,-0.3182454,2.1379871,9.516255,0.006110925,-0.043260336,-0.038735468
OrientationDeg,1676592086236,119589866002941,7.0,0.0,-14.0
UncalMag,1676592086236,119589867865734,-49.4222,19.4102,-110.3856,-47.214203,4.776456,-64.190285
UncalGyro,1676592086243,119589874983775,0.044898596,0.0050396384,-0.094225965,0.0005151411,-0.0008572277,-0.003177878
UncalAccel,1676592086243,119589874983775,-0.29850462,2.1714866,9.440284,0.006110925,-0.043260336,-0.038735468
OrientationDeg,1676592086244,119589874983775,8.0,0.0,-14.0
UncalMag,1676592086246,119589877866466,-49.4832,19.8738,-109.861,-47.214203,4.776456,-64.190285
UncalGyro,1676592086252,119589883960338,0.08353582,-0.062308256,-0.08155051,0.0005151411,-0.0008572277,-0.003177878
UncalAccel,1676592086252,119589883960338,-0.25064817,2.2618155,9.440882,0.006110925,-0.043260336,-0.038735468
OrientationDeg,1676592086253,119589883960338,8.0,0.0,-14.0
UncalMag,1676592086256,119589887867931,-53.667797,18.5928,-112.24,-47.214203,4.776456,-64.190285
UncalGyro,1676592086262,119589892943431,0.114689946,-0.12675454,-0.08017606,0.0005151411,-0.0008572277,-0.003177878
UncalAccel,1676592086261,119589892943431,-0.18364914,2.3144577,9.522836,0.006110925,-0.043260336,-0.038735468
OrientationDeg,1676592086261,119589892943431,8.0,0.0,-14.0
UncalMag,1676592086266,119589897865490,-53.985,18.0804,-111.5568,-47.214203,4.776456,-64.190285
UncalGyro,1676592086271,119589901920543,0.13744467,-0.17012598,-0.08536842,0.0005151411,-0.0008572277,-0.003177878
UncalAccel,1676592086270,119589901920543,-0.11246266,2.309074,9.599406,0.006110925,-0.043260336,-0.038735468
OrientationDeg,1676592086270,119589901920543,8.0,0.0,-14.0
UncalMag,1676592086276,119589907864757,-55.51,17.726599,-114.131,-47.214203,4.776456,-64.190285
UncalGyro,1676592086280,119589910900523,0.1554652,-0.18524489,-0.09208794,0.0005151411,-0.0008572277,-0.003177878
UncalAccel,1676592086279,119589910900523,-0.013160525,2.2701905,9.661619,0.006110925,-0.043260336,-0.038735468
OrientationDeg,1676592086279,119589910900523,8.0,0.0,-14.0
UncalMag,1676592086287,119589917865246,-53.314,19.4956,-113.3258,-47.214203,4.776456,-64.190285
UncalGyro,1676592086289,119589919882762,0.16294831,-0.17562376,-0.10094548,0.0005151411,-0.0008572277,-0.003177878
UncalAccel,1676592086288,119589919882762,0.04366901,2.2073789,9.613763,0.006110925,-0.043260336,-0.038735468
OrientationDeg,1676592086289,119589919882762,8.0,0.0,-14.0
UncalMag,1676592086296,119589927869640,-54.656,18.5074,-113.765,-47.214203,4.776456,-64.190285
UncalGyro,1676592086297,119589928857189,0.15775596,-0.14874569,-0.10598512,0.0005151411,-0.0008572277,-0.003177878
UncalAccel,1676592086297,119589928857189,0.07298109,2.2121646,9.518648,0.006110925,-0.043260336,-0.038735468
OrientationDeg,1676592086297,119589928857189,8.0,0.0,-14.0
UncalGyro,1676592086306,119589937840465,0.14767668,-0.10751228,-0.09514226,0.0005151411,-0.0008572277,-0.003177878
UncalAccel,1676592086306,119589937840465,0.010767702,2.2031915,9.537193,0.006110925,-0.043260336,-0.038735468
UncalMag,1676592086306,119589937871105,-52.5332,18.7514,-111.349396,-47.214203,4.776456,-64.190285
OrientationDeg,1676592086307,119589937840465,8.0,0.0,-14.0
UncalGyro,1676592086315,119589946822033,0.12705997,-0.05589417,-0.0627664,0.0005151411,-0.0008572277,-0.003177878
UncalAccel,1676592086316,119589946822033,-0.023928227,2.1074786,9.650852,0.006110925,-0.043260336,-0.038735468
UncalMag,1676592086317,119589947864513,-54.4852,17.629,-112.0204,-47.214203,4.776456,-64.190285
OrientationDeg,1676592086316,119589946822033,8.0,0.0,-14.0
UncalGyro,1676592086324,119589955801097,0.101098195,0.029932396,-0.0030543262,0.0005151411,-0.0008572277,-0.003177878
UncalAccel,1676592086324,119589955801097,-0.03589234,1.8723837,9.826126,0.006110925,-0.043260336,-0.038735468
OrientationDeg,1676592086325,119589955801097,8.0,0.0,-14.0
UncalMag,1676592086327,119589957865001,-52.337997,18.8246,-111.3128,-47.214203,4.776456,-64.190285
UncalGyro,1676592086334,119589964779674,0.07544186,0.14187345,0.07147124,0.0005151411,-0.0008572277,-0.003177878
UncalAccel,1676592086333,119589964779674,0.0,1.7186449,9.982856,0.006110925,-0.043260336,-0.038735468
OrientationDeg,1676592086333,119589964779674,8.0,0.0,-14.0
UncalMag,1676592086336,119589967866466,-53.3262,18.788,-111.5568,-47.214203,4.776456,-64.190285
UncalGyro,1676592086343,119589973771678,0.05513059,0.2848159,0.13225232,0.0005151411,-0.0008572277,-0.003177878
UncalAccel,1676592086343,119589973771678,0.1058824,1.838286,10.069596,0.006110925,-0.043260336,-0.038735468
OrientationDeg,1676592086342,119589973771678,8.0,0.0,-14.0
UncalMag,1676592086346,119589977864757,-55.1074,16.6408,-118.5474,-47.214203,4.776456,-64.190285
UncalGyro,1676592086352,119589982741588,0.056199603,0.4259258,0.15439619,0.0005151411,-0.0008572277,-0.003177878
UncalAccel,1676592086352,119589982741588,0.20757736,2.0584257,10.057034,0.006110925,-0.043260336,-0.038735468
OrientationDeg,1676592086351,119589982741588,8.0,0.0,-14.0
UncalMag,1676592086356,119589987864269,-54.119198,18.1048,-113.0086,-47.214203,4.776456,-64.190285
UncalGyro,1676592086361,119589991718822,0.089491755,0.547488,0.14569137,0.0005151411,-0.0008572277,-0.003177878
UncalAccel,1676592086360,119589991718822,0.21355942,2.1972094,9.995419,0.006110925,-0.043260336,-0.038735468
OrientationDeg,1676592086360,119589991718822,8.0,0.0,-14.0
UncalMag,1676592086366,119589997875988,-50.508,19.7396,-113.9724,-47.214203,4.776456,-64.190285
UncalGyro,1676592086369,119590000701305,0.14370605,0.66706485,0.16417004,0.0005151411,-0.0008572277,-0.003177878
UncalAccel,1676592086370,119590000701305,-0.09930214,1.9447666,10.216755,0.006110925,-0.043260336,-0.038735468
OrientationDeg,1676592086370,119590000701305,8.0,1.0,-14.0
UncalMag,1676592086377,119590007875988,-51.7402,18.91,-113.1306,-47.214203,4.776456,-64.190285
UncalGyro,1676592086379,119590009693431,0.21563543,0.8400924,0.31566462,0.0005151411,-0.0008572277,-0.003177878
UncalAccel,1676592086379,119590009693431,-0.56829536,1.2909278,10.526027,0.006110925,-0.043260336,-0.038735468
OrientationDeg,1676592086378,119590009693431,7.0,1.0,-15.0
UncalMag,1676592086387,119590017875988,-49.141598,19.166199,-111.2396,-47.214203,4.776456,-64.190285
UncalGyro,1676592086388,119590018670055,0.30115658,1.0221303,0.56016344,0.0005151411,-0.0008572277,-0.003177878
UncalAccel,1676592086387,119590018670055,-0.92662054,1.0869397,10.389636,0.006110925,-0.043260336,-0.038735468
OrientationDeg,1676592086387,119590018670055,7.0,1.0,-15.0
UncalGyro,1676592086396,119590027650096,0.36987892,1.0596985,0.7959574,0.0005151411,-0.0008572277,-0.003177878
UncalAccel,1676592086396,119590027650096,-0.9529416,1.3692927,9.461819,0.006110925,-0.043260336,-0.038735468
UncalMag,1676592086397,119590027866222,-49.617397,18.178,-112.2156,-47.214203,4.776456,-64.190285
OrientationDeg,1676592086396,119590027650096,7.0,2.0,-15.0
UncalGyro,1676592086406,119590036630870,0.40866885,0.903317,0.9673051,0.0005151411,-0.0008572277,-0.003177878
UncalAccel,1676592086406,119590036630870,-0.6735796,1.8807586,8.589037,0.006110925,-0.043260336,-0.038735468
OrientationDeg,1676592086405,119590036630870,6.0,2.0,-15.0
UncalMag,1676592086407,119590037876232,-48.2754,19.276,-110.715,-47.214203,4.776456,-64.190285
UncalGyro,1676592086414,119590045609813,0.43554693,0.64553183,1.0363328,0.0005151411,-0.0008572277,-0.003177878
UncalAccel,1676592086414,119590045609813,-0.29491538,2.5064816,8.188837,0.006110925,-0.043260336,-0.038735468
OrientationDeg,1676592086415,119590045609813,6.0,2.0,-15.0
UncalMag,1676592086417,119590047862316,-49.1782,17.799799,-112.130196,-47.214203,4.776456,-64.190285
UncalGyro,1676592086424,119590054589733,0.46395215,0.43081272,0.9981538,0.0005151411,-0.0008572277,-0.003177878
UncalAccel,1676592086424,119590054589733,0.0035892338,3.03709,8.416754,0.006110925,-0.043260336,-0.038735468
OrientationDeg,1676592086424,119590054589733,5.0,2.0,-16.0
UncalMag,1676592086427,119590057868664,-49.654,18.056,-114.143196,-47.214203,4.776456,-64.190285
UncalGyro,1676592086433,119590063569530,0.48472157,0.32436943,0.8772025,0.0005151411,-0.0008572277,-0.003177878
UncalAccel,1676592086432,119590063569530,0.2009971,3.3954153,8.609974,0.006110925,-0.043260336,-0.038735468
OrientationDeg,1676592086432,119590063569530,5.0,2.0,-16.0
UncalMag,1676592086437,119590067876232,-48.5316,17.8974,-112.9598,-47.214203,4.776456,-64.190285
UncalGyro,1676592086442,119590072539317,0.49357912,0.2648101,0.72692966,0.0005151411,-0.0008572277,-0.003177878
UncalAccel,1676592086442,119590072539317,0.3068795,3.557529,8.583055,0.006110925,-0.043260336,-0.038735468
OrientationDeg,1676592086441,119590072539317,4.0,2.0,-16.0
UncalMag,1676592086446,119590077875988,-48.8732,18.0194,-114.375,-47.214203,4.776456,-64.190285
UncalGyro,1676592086451,119590081529552,0.47616947,0.20570888,0.573297,0.0005151411,-0.0008572277,-0.003177878
UncalAccel,1676592086451,119590081529552,0.37507495,3.638885,8.502297,0.006110925,-0.043260336,-0.038735468
OrientationDeg,1676592086450,119590081529552,4.0,2.0,-16.0
UncalMag,1676592086456,119590087875988,-45.5426,18.4464,-111.7886,-47.214203,4.776456,-64.190285
UncalGyro,1676592086460,119590090505443,0.4353942,0.111635625,0.42073345,0.0005151411,-0.0008572277,-0.003177878
UncalAccel,1676592086459,119590090505443,0.49651068,3.7387853,8.170293,0.006110925,-0.043260336,-0.038735468
OrientationDeg,1676592086459,119590090505443,4.0,2.0,-17.0
UncalMag,1676592086467,119590097876232,-45.335197,18.848999,-112.2644,-47.214203,4.776456,-64.190285
UncalGyro,1676592086469,119590099488903,0.38805214,-0.0355829,0.25992316,0.0005151411,-0.0008572277,-0.003177878
UncalAccel,1676592086469,119590099488903,0.6119644,3.6897326,7.9034934,0.006110925,-0.043260336,-0.038735468
OrientationDeg,1676592086468,119590099488903,4.0,2.0,-17.0
UncalMag,1676592086477,119590107875988,-44.9814,18.788,-110.9712,-47.214203,4.776456,-64.190285
UncalGyro,1676592086478,119590108473400,0.33399057,-0.20357084,0.10919216,0.0005151411,-0.0008572277,-0.003177878
UncalAccel,1676592086477,119590108473400,0.5515456,3.234498,7.8436728,0.006110925,-0.043260336,-0.038735468
OrientationDeg,1676592086477,119590108473400,4.0,2.0,-17.0
UncalGyro,1676592086487,119590117437999,0.28527406,-0.35078937,0.01817324,0.0005151411,-0.0008572277,-0.003177878
UncalAccel,1676592086487,119590117437999,0.39481574,2.7032914,7.830512,0.006110925,-0.043260336,-0.038735468
UncalMag,1676592086486,119590117865734,-46.0062,17.8242,-111.874,-47.214203,4.776456,-64.190285
OrientationDeg,1676592086486,119590117437999,4.0,2.0,-17.0
UncalGyro,1676592086495,119590126428478,0.2490803,-0.5140431,-0.0106901415,0.0005151411,-0.0008572277,-0.003177878
UncalAccel,1676592086496,119590126428478,0.29910284,2.6129622,7.8012,0.006110925,-0.043260336,-0.038735468
UncalMag,1676592086497,119590127875988,-44.6764,18.4098,-110.3856,-47.214203,4.776456,-64.190285
OrientationDeg,1676592086496,119590126428478,4.0,2.0,-17.0
UncalGyro,1676592086504,119590135406261,0.21960606,-0.6834055,-0.0025961774,0.0005151411,-0.0008572277,-0.003177878
UncalAccel,1676592086504,119590135406261,0.25902304,2.5986054,8.129615,0.006110925,-0.043260336,-0.038735468
OrientationDeg,1676592086504,119590135406261,4.0,1.0,-18.0
UncalMag,1676592086507,119590137876232,-46.8358,17.531399,-111.9106,-47.214203,4.776456,-64.190285
UncalGyro,1676592086513,119590144389110,0.20479257,-0.8324566,0.013897184,0.0005151411,-0.0008572277,-0.003177878
UncalAccel,1676592086514,119590144389110,0.3188436,2.4789643,8.4347,0.006110925,-0.043260336,-0.038735468
OrientationDeg,1676592086514,119590144389110,4.0,1.0,-18.0
UncalMag,1676592086516,119590147876232,-48.763397,16.8726,-113.765,-47.214203,4.776456,-64.190285
UncalGyro,1676592086522,119590153369945,0.19853121,-1.0183123,0.03970624,0.0005151411,-0.0008572277,-0.003177878
UncalAccel,1676592086523,119590153369945,0.32243285,2.3587248,8.429316,0.006110925,-0.043260336,-0.038735468
OrientationDeg,1676592086523,119590153369945,4.0,0.0,-18.0
UncalMag,1676592086527,119590157881603,-48.495,16.836,-110.8736,-47.214203,4.776456,-64.190285
UncalGyro,1676592086532,119590162341442,0.18982637,-1.2860241,0.05971208,0.0005151411,-0.0008572277,-0.003177878
UncalAccel,1676592086532,119590162341442,0.5844469,2.3138595,8.391629,0.006110925,-0.043260336,-0.038735468
OrientationDeg,1676592086531,119590162341442,3.0,0.0,-18.0
UncalMag,1676592086536,119590167875988,-48.982998,16.787199,-114.4482,-47.214203,4.776456,-64.190285
UncalGyro,1676592086541,119590171327831,0.20906863,-1.5722144,0.079107046,0.0005151411,-0.0008572277,-0.003177878
UncalAccel,1676592086541,119590171327831,0.87936234,2.3700907,8.645866,0.006110925,-0.043260336,-0.038735468
OrientationDeg,1676592086540,119590171327831,3.0,0.0,-18.0
UncalMag,1676592086547,119590177875744,-48.592598,16.8116,-113.1672,-47.214203,4.776456,-64.190285
UncalGyro,1676592086550,119590180308605,0.268628,-1.8629863,0.0759,0.0005151411,-0.0008572277,-0.003177878
UncalAccel,1676592086549,119590180308605,1.564906,2.2073789,8.567501,0.006110925,-0.043260336,-0.038735468
OrientationDeg,1676592086549,119590180308605,3.0,-1.0,-18.0
UncalMag,1676592086557,119590187875988,-49.8004,16.8482,-111.3128,-47.214203,4.776456,-64.190285
UncalGyro,1676592086559,119590189287548,0.36346483,-2.1421516,0.020158553,0.0005151411,-0.0008572277,-0.003177878
UncalAccel,1676592086559,119590189287548,2.2755744,2.207977,8.546564,0.006110925,-0.043260336,-0.038735468
OrientationDeg,1676592086558,119590189287548,3.0,-2.0,-18.0
UncalMag,1676592086567,119590197875988,-49.7516,16.8116,-111.837395,-47.214203,4.776456,-64.190285
UncalGyro,1676592086567,119590198264354,0.48349985,-2.3964243,-0.07727446,0.0005151411,-0.0008572277,-0.003177878
UncalAccel,1676592086567,119590198264354,2.5531418,2.3503501,8.496315,0.006110925,-0.043260336,-0.038735468
OrientationDeg,1676592086567,119590198264354,3.0,-3.0,-18.0
UncalGyro,1676592086576,119590207235546,0.6113234,-2.6497808,-0.19333886,0.0005151411,-0.0008572277,-0.003177878
UncalAccel,1676592086577,119590207235546,2.6231318,2.5322046,8.158927,0.006110925,-0.043260336,-0.038735468
UncalMag,1676592086576,119590207864513,-53.131,14.9938,-107.7382,-47.214203,4.776456,-64.190285
OrientationDeg,1676592086577,119590207235546,3.0,-5.0,-19.0
UncalGyro,1676592086586,119590216231395,0.74281216,-2.9219213,-0.3202461,0.0005151411,-0.0008572277,-0.003177878
UncalAccel,1676592086586,119590216231395,2.6201408,2.6805596,7.9980097,0.006110925,-0.043260336,-0.038735468
OrientationDeg,1676592086586,119590216231395,4.0,-6.0,-19.0
UncalMag,1676592086587,119590217875744,-52.5332,16.3724,-108.763,-47.214203,4.776456,-64.190285
UncalGyro,1676592086594,119590225206981,0.86620694,-3.176652,-0.4448626,0.0005151411,-0.0008572277,-0.003177878
UncalAccel,1676592086595,119590225206981,2.673381,2.7762725,7.9507513,0.006110925,-0.043260336,-0.038735468
OrientationDeg,1676592086595,119590225206981,4.0,-8.0,-20.0
UncalMag,1676592086597,119590227876232,-56.2664,14.8962,-110.3368,-47.214203,4.776456,-64.190285
UncalGyro,1676592086604,119590234186352,0.9839512,-3.3554828,-0.55771995,0.0005151411,-0.0008572277,-0.003177878
UncalAccel,1676592086603,119590234186352,2.6219354,2.8917263,7.999206,0.006110925,-0.043260336,-0.038735468
OrientationDeg,1676592086604,119590234186352,4.0,-10.0,-20.0
UncalMag,1676592086607,119590237876232,-57.828,14.1642,-108.6288,-47.214203,4.776456,-64.190285
UncalGyro,1676592086612,119590243163768,1.1064297,-3.3469307,-0.6366743,0.0005151411,-0.0008572277,-0.003177878
UncalAccel,1676592086612,119590243163768,2.0697916,3.269194,9.375677,0.006110925,-0.043260336,-0.038735468
OrientationDeg,1676592086612,119590243163768,4.0,-11.0,-21.0
UncalMag,1676592086616,119590247872326,-59.962997,13.5786,-108.384796,-47.214203,4.776456,-64.190285
UncalGyro,1676592086622,119590252147228,1.0598512,-2.5445592,-0.7266242,0.0005151411,-0.0008572277,-0.003177878
UncalAccel,1676592086621,119590252147228,1.6319051,3.9978085,13.147364,0.006110925,-0.043260336,-0.038735468
OrientationDeg,1676592086621,119590252147228,4.0,-12.0,-21.0
UncalMag,1676592086627,119590257867931,-58.5234,13.7494,-108.1652,-47.214203,4.776456,-64.190285
UncalGyro,1676592086630,119590261129039,1.0261009,-1.5654949,-0.75487673,0.0005151411,-0.0008572277,-0.003177878
UncalAccel,1676592086630,119590261129039,1.0971092,3.1561332,11.186446,0.006110925,-0.043260336,-0.038735468
OrientationDeg,1676592086631,119590261129039,5.0,-13.0,-22.0
UncalMag,1676592086636,119590267865001,-60.8658,12.4074,-108.458,-47.214203,4.776456,-64.190285
UncalGyro,1676592086640,119590270106212,1.0477866,-0.7078401,-0.6711882,0.0005151411,-0.0008572277,-0.003177878
UncalAccel,1676592086639,119590270106212,0.9774681,2.845066,10.722239,0.006110925,-0.043260336,-0.038735468
OrientationDeg,1676592086640,119590270106212,5.0,-13.0,-23.0
UncalMag,1676592086647,119590277876232,-59.645798,12.5294,-107.421,-47.214203,4.776456,-64.190285
UncalGyro,1676592086648,119590279083201,0.9637926,0.028405234,-0.5317582,0.0005151411,-0.0008572277,-0.003177878
UncalAccel,1676592086648,119590279083201,0.8225328,3.118446,8.773883,0.006110925,-0.043260336,-0.038735468
OrientationDeg,1676592086648,119590279083201,5.0,-13.0,-23.0
UncalMag,1676592086657,119590287876232,-59.731197,11.1264,-107.238,-47.214203,4.776456,-64.190285
UncalGyro,1676592086657,119590288064464,0.77289724,0.3481932,-0.34498614,0.0005151411,-0.0008572277,-0.003177878
UncalAccel,1676592086658,119590288064464,0.30209386,3.5090744,6.643074,0.006110925,-0.043260336,-0.038735468
OrientationDeg,1676592086658,119590288064464,5.0,-13.0,-24.0
UncalGyro,1676592086667,119590297048594,0.50594914,0.2657264,-0.10170906,0.0005151411,-0.0008572277,-0.003177878
UncalAccel,1676592086666,119590297048594,-0.32961133,3.7184465,5.5022955,0.006110925,-0.043260336,-0.038735468
UncalMag,1676592086666,119590297867199,-59.231,11.333799,-106.835396,-47.214203,4.776456,-64.190285
OrientationDeg,1676592086667,119590297048594,5.0,-13.0,-24.0
UncalGyro,1676592086675,119590306027965,0.2742785,0.007941248,0.2125811,0.0005151411,-0.0008572277,-0.003177878
UncalAccel,1676592086676,119590306027965,-0.98584294,3.3003006,5.5304112,0.006110925,-0.043260336,-0.038735468
OrientationDeg,1676592086676,119590306027965,5.0,-13.0,-24.0
UncalMag,1676592086677,119590307876232,-61.854,10.321199,-108.6654,-47.214203,4.776456,-64.190285
UncalGyro,1676592086685,119590315005321,0.12095132,-0.27580565,0.63087106,0.0005151411,-0.0008572277,-0.003177878
UncalAccel,1676592086685,119590315005321,-1.6474584,3.1369905,5.97428,0.006110925,-0.043260336,-0.038735468
OrientationDeg,1676592086684,119590315005321,5.0,-13.0,-24.0
UncalMag,1676592086687,119590317875988,-60.280197,10.5286,-107.786995,-47.214203,4.776456,-64.190285
UncalGyro,1676592086693,119590323985057,0.01863139,-0.4552473,1.061073,0.0005151411,-0.0008572277,-0.003177878
UncalAccel,1676592086692,119590323985057,-1.6719848,3.583252,6.858428,0.006110925,-0.043260336,-0.038735468
OrientationDeg,1676592086692,119590323985057,4.0,-14.0,-24.0
UncalMag,1676592086696,119590327876232,-59.5482,11.0654,-106.201,-47.214203,4.776456,-64.190285
UncalGyro,1676592086701,119590332965038,-0.030085113,-0.57009,1.4216361,0.0005151411,-0.0008572277,-0.003177878
UncalAccel,1676592086702,119590332965038,-0.9822537,3.5886357,7.176075,0.006110925,-0.043260336,-0.038735468
OrientationDeg,1676592086702,119590332965038,3.0,-14.0,-24.0
UncalMag,1676592086706,119590337864757,-59.657997,11.9072,-108.3604,-47.214203,4.776456,-64.190285
UncalGyro,1676592086710,119590341946666,-0.030085113,-0.66645396,1.6423112,0.0005151411,-0.0008572277,-0.003177878
UncalAccel,1676592086711,119590341946666,0.43010986,3.3696926,7.5009007,0.006110925,-0.043260336,-0.038735468
OrientationDeg,1676592086711,119590341946666,2.0,-15.0,-23.0
UncalMag,1676592086717,119590347876232,-58.877197,11.712,-105.2006,-47.214203,4.776456,-64.190285
UncalGyro,1676592086719,119590350922069,0.003970624,-0.7652614,1.721571,0.0005151411,-0.0008572277,-0.003177878
UncalAccel,1676592086719,119590350922069,1.9142581,3.1399815,7.7587276,0.006110925,-0.043260336,-0.038735468
OrientationDeg,1676592086720,119590350922069,2.0,-16.0,-23.0
UncalMag,1676592086727,119590357875988,-61.7198,10.845799,-106.1522,-47.214203,4.776456,-64.190285
UncalGyro,1676592086728,119590359905773,0.07727446,-0.8355109,1.7238617,0.0005151411,-0.0008572277,-0.003177878
UncalAccel,1676592086728,119590359905773,2.806781,2.9910283,8.319844,0.006110925,-0.043260336,-0.038735468
OrientationDeg,1676592086728,119590359905773,1.0,-16.0,-23.0
UncalMag,1676592086737,119590367864269,-61.2562,11.858399,-107.3478,-47.214203,4.776456,-64.190285
UncalGyro,1676592086738,119590368881725,0.21120666,-0.8304713,1.7038559,0.0005151411,-0.0008572277,-0.003177878
UncalAccel,1676592086737,119590368881725,3.1555347,2.9030921,9.011969,0.006110925,-0.043260336,-0.038735468
OrientationDeg,1676592086737,119590368881725,0.0,-17.0,-23.0
UncalGyro,1676592086746,119590377864391,0.38606682,-0.7545713,1.6901114,0.0005151411,-0.0008572277,-0.003177878
UncalAccel,1676592086747,119590377864391,3.2117662,2.8785655,9.202796,0.006110925,-0.043260336,-0.038735468
UncalMag,1676592086747,119590377875255,-61.4636,10.9312,-104.6028,-47.214203,4.776456,-64.190285
OrientationDeg,1676592086746,119590377864391,359.0,-18.0,-23.0
UncalGyro,1676592086756,119590386847423,0.54290646,-0.6284276,1.6885842,0.0005151411,-0.0008572277,-0.003177878
UncalAccel,1676592086756,119590386847423,3.141776,3.028117,9.059825,0.006110925,-0.043260336,-0.038735468
UncalMag,1676592086756,119590387864757,-59.8532,12.3952,-103.443794,-47.214203,4.776456,-64.190285
OrientationDeg,1676592086755,119590386847423,358.0,-19.0,-23.0
UncalGyro,1676592086764,119590395825389,0.61559945,-0.42470407,1.6943874,0.0005151411,-0.0008572277,-0.003177878
UncalAccel,1676592086764,119590395825389,2.9413772,3.2015967,9.431909,0.006110925,-0.043260336,-0.038735468
OrientationDeg,1676592086765,119590395825389,357.0,-19.0,-23.0
UncalMag,1676592086766,119590397876232,-59.023598,13.0418,-102.6142,-47.214203,4.776456,-64.190285
UncalGyro,1676592086774,119590404804149,0.59864795,-0.11591168,1.7437148,0.0005151411,-0.0008572277,-0.003177878
UncalAccel,1676592086773,119590404804149,2.7589245,2.7858438,10.034302,0.006110925,-0.043260336,-0.038735468
OrientationDeg,1676592086773,119590404804149,356.0,-20.0,-23.0
UncalMag,1676592086777,119590407875988,-58.803997,12.7002,-102.2726,-47.214203,4.776456,-64.190285
UncalGyro,1676592086783,119590413783946,0.50961435,0.2724459,1.8565722,0.0005151411,-0.0008572277,-0.003177878
UncalAccel,1676592086783,119590413783946,3.0622149,2.204388,10.413564,0.006110925,-0.043260336,-0.038735468
OrientationDeg,1676592086782,119590413783946,355.0,-20.0,-23.0
UncalMag,1676592086787,119590417875988,-58.8406,12.809999,-102.199394,-47.214203,4.776456,-64.190285
UncalGyro,1676592086792,119590422772167,0.34895676,0.6789767,1.9920316,0.0005151411,-0.0008572277,-0.003177878
UncalAccel,1676592086791,119590422772167,3.5587256,1.9758734,9.933205,0.006110925,-0.043260336,-0.038735468
OrientationDeg,1676592086792,119590422772167,353.0,-20.0,-22.0
UncalMag,1676592086797,119590427864269,-57.071598,13.590799,-101.1624,-47.214203,4.776456,-64.190285
UncalGyro,1676592086800,119590431745067,0.12492194,1.0186177,2.1201606,0.0005151411,-0.0008572277,-0.003177878
UncalAccel,1676592086800,119590431745067,3.728616,1.9890338,9.271589,0.006110925,-0.043260336,-0.038735468
OrientationDeg,1676592086801,119590431745067,352.0,-20.0,-22.0
UncalMag,1676592086806,119590437875988,-56.2054,13.7006,-100.8696,-47.214203,4.776456,-64.190285
UncalGyro,1676592086810,119590440723339,-0.129198,1.2742649,2.240043,0.0005151411,-0.0008572277,-0.003177878
UncalAccel,1676592086809,119590440723339,3.5114672,1.9992033,8.851649,0.006110925,-0.043260336,-0.038735468
OrientationDeg,1676592086810,119590440723339,351.0,-20.0,-21.0
UncalMag,1676592086817,119590447876232,-56.156597,13.847,-100.8818,-47.214203,4.776456,-64.190285
UncalGyro,1676592086819,119590449703014,-0.36270124,1.4146112,2.381458,0.0005151411,-0.0008572277,-0.003177878
UncalAccel,1676592086819,119590449703014,3.1345978,1.6516458,8.423932,0.006110925,-0.043260336,-0.038735468
OrientationDeg,1676592086818,119590449703014,350.0,-19.0,-21.0
UncalMag,1676592086827,119590457875988,-55.302597,13.8348,-101.540596,-47.214203,4.776456,-64.190285
UncalGyro,1676592086828,119590458682994,-0.55680364,1.412015,2.5696046,0.0005151411,-0.0008572277,-0.003177878
UncalAccel,1676592086828,119590458682994,3.048456,1.2011969,7.858628,0.006110925,-0.043260336,-0.038735468
OrientationDeg,1676592086828,119590458682994,349.0,-19.0,-20.0
UncalGyro,1676592086836,119590467661388,-0.698219,1.2218832,2.7698157,0.0005151411,-0.0008572277,-0.003177878
UncalAccel,1676592086837,119590467661388,3.1836505,1.0031909,7.1102724,0.006110925,-0.043260336,-0.038735468
UncalMag,1676592086837,119590467869396,-56.229797,14.151999,-103.1388,-47.214203,4.776456,-64.190285
OrientationDeg,1676592086836,119590467661388,347.0,-19.0,-19.0
UncalGyro,1676592086846,119590476642833,-0.77946407,0.8750645,2.9381092,0.0005151411,-0.0008572277,-0.003177878
UncalAccel,1676592086846,119590476642833,3.391228,1.1509477,6.8021965,0.006110925,-0.043260336,-0.038735468
UncalMag,1676592086847,119590477875988,-53.4604,15.689199,-103.9684,-47.214203,4.776456,-64.190285
OrientationDeg,1676592086845,119590476642833,346.0,-19.0,-18.0
UncalGyro,1676592086855,119590485618541,-0.77488256,0.4166101,3.0500503,0.0005151411,-0.0008572277,-0.003177878
UncalAccel,1676592086855,119590485618541,3.5551362,1.4518452,6.9188466,0.006110925,-0.043260336,-0.038735468
UncalMag,1676592086856,119590487875988,-54.973198,15.2987995,-104.1636,-47.214203,4.776456,-64.190285
OrientationDeg,1676592086854,119590485618541,345.0,-19.0,-17.0
UncalGyro,1676592086863,119590494599559,-0.6774496,-0.08384126,3.0827315,0.0005151411,-0.0008572277,-0.003177878
UncalAccel,1676592086863,119590494599559,3.7094734,1.8969102,7.3172517,0.006110925,-0.043260336,-0.038735468
OrientationDeg,1676592086864,119590494599559,343.0,-20.0,-17.0
UncalMag,1676592086867,119590497876232,-55.4246,15.884399,-106.1278,-47.214203,4.776456,-64.190285
UncalGyro,1676592086872,119590503583751,-0.4978552,-0.5010622,3.0219505,0.0005151411,-0.0008572277,-0.003177878
UncalAccel,1676592086872,119590503583751,3.8458643,2.1936202,8.067402,0.006110925,-0.043260336,-0.038735468
OrientationDeg,1676592086873,119590503583751,342.0,-20.0,-16.0
UncalMag,1676592086877,119590507876232,-56.534798,15.6648,-105.713,-47.214203,4.776456,-64.190285
UncalGyro,1676592086882,119590512551402,-0.25717425,-0.7490735,2.8900034,0.0005151411,-0.0008572277,-0.003177878
UncalAccel,1676592086881,119590512551402,3.9978085,2.0877378,9.016156,0.006110925,-0.043260336,-0.038735468
OrientationDeg,1676592086881,119590512551402,340.0,-21.0,-15.0
UncalMag,1676592086886,119590517875988,-54.9244,16.7628,-105.444595,-47.214203,4.776456,-64.190285
UncalGyro,1676592086891,119590521541942,0.01572978,-0.8202393,2.730873,0.0005151411,-0.0008572277,-0.003177878
UncalAccel,1676592086891,119590521541942,4.258028,1.625923,9.734601,0.006110925,-0.043260336,-0.038735468
OrientationDeg,1676592086891,119590521541942,339.0,-22.0,-15.0
Fix,FLP,37.4307940000,-122.1550454000,-16.100000381469727,0.0021277615,4.169,,1676592086568,,,119590198264354,3.941451
UncalMag,1676592086897,119590527875988,-55.083,17.0312,-107.8114,-47.214203,4.776456,-64.190285
UncalGyro,1676592086900,119590530521251,0.2770274,-0.7451029,2.5757134,0.0005151411,-0.0008572277,-0.003177878
UncalAccel,1676592086900,119590530521251,4.563711,1.2358929,9.976874,0.006110925,-0.043260336,-0.038735468
Fix,NLP,37.4314716000,-122.1538662000,-16.100000381469727,,101.476,,1676592086649,,,119590279000000,2.8231668
OrientationDeg,1676592086899,119590530521251,338.0,-23.0,-14.0
UncalMag,1676592086907,119590537876476,-56.9862,16.3724,-109.019196,-47.214203,4.776456,-64.190285
UncalGyro,1676592086909,119590539490062,0.4709771,-0.6348417,2.4553728,0.0005151411,-0.0008572277,-0.003177878
UncalAccel,1676592086909,119590539490062,4.636094,1.1156535,9.576674,0.006110925,-0.043260336,-0.038735468
OrientationDeg,1676592086908,119590539490062,336.0,-23.0,-14.0
UncalMag,1676592086917,119590547876476,-60.585197,15.1524,-111.264,-47.214203,4.776456,-64.190285
UncalGyro,1676592086918,119590548481639,0.56016344,-0.6640105,2.3721426,0.0005151411,-0.0008572277,-0.003177878
UncalAccel,1676592086918,119590548481639,4.846662,1.2484552,8.648857,0.006110925,-0.043260336,-0.038735468
OrientationDeg,1676592086918,119590548481639,335.0,-24.0,-14.0
UncalGyro,1676592086926,119590557462657,0.54092115,-0.8005389,2.3145685,0.0005151411,-0.0008572277,-0.003177878
UncalAccel,1676592086926,119590557462657,5.307879,0.90029955,8.396415,0.006110925,-0.043260336,-0.038735468
UncalMag,1676592086926,119590557864513,-55.5588,16.713999,-108.726395,-47.214203,4.776456,-64.190285
OrientationDeg,1676592086926,119590557462657,334.0,-25.0,-13.0
UncalGyro,1676592086936,119590566441539,0.43401974,-0.8530733,2.3168592,0.0005151411,-0.0008572277,-0.003177878
UncalAccel,1676592086935,119590566441539,5.6464634,-0.02213361,8.827123,0.006110925,-0.043260336,-0.038735468
UncalMag,1676592086936,119590567864269,-55.4002,16.5432,-109.2998,-47.214203,4.776456,-64.190285
OrientationDeg,1676592086936,119590566441539,333.0,-26.0,-13.0
UncalGyro,1676592086944,119590575421641,0.27320948,-0.7825184,2.3738225,0.0005151411,-0.0008572277,-0.003177878
UncalAccel,1676592086945,119590575421641,6.198607,-0.42831525,9.346964,0.006110925,-0.043260336,-0.038735468
UncalMag,1676592086947,119590577876232,-55.876,17.336199,-110.0318,-47.214203,4.776456,-64.190285
OrientationDeg,1676592086944,119590575421641,331.0,-26.0,-13.0
UncalGyro,1676592086954,119590584401317,0.1049161,-0.6250679,2.4443772,0.0005151411,-0.0008572277,-0.003177878
UncalAccel,1676592086953,119590584401317,6.198607,-0.61016977,10.07498,0.006110925,-0.043260336,-0.038735468
OrientationDeg,1676592086954,119590584401317,330.0,-27.0,-12.0
UncalMag,1676592086957,119590587876232,-54.1802,17.4826,-109.202194,-47.214203,4.776456,-64.190285
UncalGyro,1676592086963,119590593380809,-0.02687807,-0.4251622,2.54685,0.0005151411,-0.0008572277,-0.003177878
UncalAccel,1676592086962,119590593380809,6.1435723,-0.6765706,10.484153,0.006110925,-0.043260336,-0.038735468
OrientationDeg,1676592086962,119590593380809,329.0,-27.0,-11.0
UncalMag,1676592086966,119590597880626,-55.632,17.3606,-108.250595,-47.214203,4.776456,-64.190285
UncalGyro,1676592086972,119590602361644,-0.11362094,-0.1704314,2.6290114,0.0005151411,-0.0008572277,-0.003177878
UncalAccel,1676592086971,119590602361644,6.2344995,-0.28893334,10.963315,0.006110925,-0.043260336,-0.038735468
OrientationDeg,1676592086971,119590602361644,328.0,-28.0,-11.0
UncalMag,1676592086977,119590607875988,-55.632,17.3606,-108.250595,-47.214203,4.776456,-64.190285
UncalGyro,1676592086980,119590611341686,-0.12751812,0.022907447,2.7041478,0.0005151411,-0.0008572277,-0.003177878
UncalAccel,1676592086980,119590611341686,6.0753765,-0.16331014,10.534402,0.006110925,-0.043260336,-0.038735468
OrientationDeg,1676592086980,119590611341686,327.0,-28.0,-10.0
UncalMag,1676592086986,119590617875988,-54.0948,18.2512,-107.8358,-47.214203,4.776456,-64.190285
UncalGyro,1676592086989,119590620319896,-0.09621128,0.15745051,2.7391198,0.0005151411,-0.0008572277,-0.003177878
UncalAccel,1676592086989,119590620319896,6.0508504,0.09092726,10.092328,0.006110925,-0.043260336,-0.038735468
OrientationDeg,1676592086990,119590620319896,325.0,-28.0,-9.0
UncalMag,1676592086997,119590627875988,-54.436398,18.4098,-107.640594,-47.214203,4.776456,-64.190285
UncalGyro,1676592086998,119590629300487,-0.06872234,0.23350324,2.7062857,0.0005151411,-0.0008572277,-0.003177878
UncalAccel,1676592086999,119590629300487,6.20758,0.60717875,9.151948,0.006110925,-0.043260336,-0.038735468
OrientationDeg,1676592086999,119590629300487,324.0,-28.0,-8.0
UncalMag,1676592087006,119590637876232,-53.9118,18.9588,-109.3608,-47.214203,4.776456,-64.190285
UncalGyro,1676592087008,119590638277415,-0.071776666,0.22128594,2.6120598,0.0005151411,-0.0008572277,-0.003177878
UncalAccel,1676592087008,119590638277415,6.108876,0.9194421,8.304889,0.006110925,-0.043260336,-0.038735468
OrientationDeg,1676592087008,119590638277415,323.0,-28.0,-8.0
UncalGyro,1676592087016,119590647261485,-0.106901415,0.25167647,2.4685066,0.0005151411,-0.0008572277,-0.003177878
UncalAccel,1676592087016,119590647261485,6.006583,1.2125629,8.234301,0.006110925,-0.043260336,-0.038735468
UncalMag,1676592087016,119590647864513,-55.1074,18.153599,-110.129395,-47.214203,4.776456,-64.190285
Status,0,29,0,6,2,1575420030,42.70,27.0,78.0,1,1,1,38.49895
Status,0,29,1,6,2,1176450050,40.07,27.0,78.0,1,1,1,35.969215
Status,0,29,2,6,36,1176450050,35.15,88.0,72.0,1,1,1,31.046408
Status,0,29,3,6,36,1575420030,38.80,88.0,72.0,1,1,1,34.602074
Status,0,29,4,3,14,1598062460,40.82,128.0,67.0,1,1,1,36.618603
Status,0,29,5,3,17,1604249980,43.12,240.0,67.0,1,1,1,38.92124
Status,0,29,6,1,11,1575420030,39.41,164.0,59.0,1,1,1,35.20843
Status,0,29,7,1,6,1575420030,40.80,68.0,59.0,1,1,1,36.596626
Status,0,29,8,1,11,1176450050,37.87,164.0,59.0,1,1,1,33.769512
Status,0,29,9,1,6,1176450050,41.92,68.0,59.0,1,1,1,37.822403
Status,0,29,10,3,15,1602000000,45.47,331.0,54.0,1,1,1,41.27371
Status,0,29,11,1,24,1176450050,42.85,239.0,52.0,1,1,1,38.747303
Status,0,29,12,1,24,1575420030,40.54,239.0,52.0,1,1,1,36.34335
Status,0,29,13,3,24,1603124990,44.41,28.0,51.0,1,1,1,40.211308
Status,0,29,14,1,12,1575420030,45.57,315.0,47.0,1,1,1,41.371696
Status,0,29,15,6,34,1575420030,40.76,197.0,42.0,1,1,1,36.563496
Status,0,29,16,6,34,1176450050,36.45,197.0,42.0,1,1,1,32.352592
Status,0,29,17,1,19,1575420030,45.11,48.0,40.0,1,1,1,40.905067
Status,0,29,18,6,25,1176450050,29.92,112.0,37.0,1,1,1,25.822462
Status,0,29,19,6,25,1575420030,32.70,112.0,37.0,1,1,1,28.495316
Status,0,29,20,6,30,1176450050,41.14,311.0,32.0,1,1,1,37.0432
Status,0,29,21,6,30,1575420030,42.82,311.0,32.0,1,1,1,38.615314
Status,0,29,22,6,11,1575420030,36.61,42.0,27.0,1,1,1,32.40667
Status,0,29,23,3,18,1600312450,44.26,221.0,18.0,1,1,1,40.05705
Status,0,29,24,1,25,1575420030,44.61,306.0,18.0,1,1,1,40.405052
Status,0,29,25,1,25,1176450050,39.38,306.0,18.0,1,1,1,35.27653
Status,0,29,26,1,17,1575420030,41.45,60.0,13.0,1,1,1,37.250996
Status,0,29,27,1,20,1575420030,33.42,153.0,11.0,1,1,1,29.220106
Status,0,29,28,3,13,1600875010,17.94,141.0,10.0,0,1,1,13.742139
OrientationDeg,1676592087016,119590647261485,322.0,-28.0,-7.0
Fix,GPS,37.4307904294,-122.1550462276,-20.740928797049694,0.0,3.9548821,329.54007,1676592085999,0.117399946,132.54329,119590561903000,3.0
UncalGyro,1676592087026,119590656242747,-0.17379116,0.35063666,2.2983804,0.0005151411,-0.0008572277,-0.003177878
UncalAccel,1676592087026,119590656242747,5.9934225,1.2604194,8.158329,0.006110925,-0.043260336,-0.038735468
OrientationDeg,1676592087026,119590656242747,321.0,-28.0,-7.0
UncalMag,1676592087026,119590657874279,-54.9366,18.8734,-111.971596,-47.214203,4.776456,-64.190285
Raw,1676592085999,45696000000,,,-1360627258303583466,0.0,8.065133613237816,294.0,1.0,15,6,0.0,16431,432103930390781,18,39.14797592163086,289.1325213989139,0.15,16,13034.406490653126,340282346638528860000000000000000000000,1575420030,,,,0,,1,,34.947975158691406,0.320142130558394,1.0,0.320142130558394,1.0,C,119590561903000
Raw,1676592085999,45696000000,,,-1360627258303583466,0.0,8.065133613237816,294.0,1.0,15,11,0.0,16431,432103929796101,21,37.32758712768555,-269.28373374021396,0.15,16,-12348.443257289193,340282346638528860000000000000000000000,1575420030,,,,0,,1,,33.127586364746094,-0.20372681261465636,1.0,-0.20372681261465636,1.0,C,119590561903000
Raw,1676592085999,45696000000,,,-1360627258303583466,0.0,8.065133613237816,294.0,1.0,15,12,0.0,16431,432103928093928,11,45.38554000854492,-332.1751534942016,0.15,16,-15085.919341505296,340282346638528860000000000000000000000,1575420030,,,,0,,1,,41.18553924560547,-0.6984919076624261,1.0,-0.6984919076624261,1.0,C,119590561903000
Raw,1676592085999,45696000000,,,-1360627258303583466,0.0,8.065133613237816,294.0,1.0,15,17,0.0,16431,432103917967858,19,38.81040573120117,598.3074358508056,0.15,16,27132.969893745372,340282346638528860000000000000000000000,1575420030,,,,0,,1,,34.61040496826172,-0.7858034271858065,1.0,-0.7858034271858065,1.0,C,119590561903000
Raw,1676592085999,45696000000,,,-1360627258303583466,0.0,8.065133613237816,294.0,1.0,15,19,0.0,16431,432103927198530,12,43.87179946899414,534.2355531739222,0.15,16,24201.496009736482,340282346638528860000000000000000000000,1575420030,,,,0,,1,,39.67179870605469,0.0,1.0,0.0,1.0,C,119590561903000
Raw,1676592085999,45696000000,,,-1360627258303583466,0.0,8.065133613237816,294.0,1.0,15,20,0.0,16431,432103917874243,39,29.697284698486328,-485.13323072116145,0.8052821098486382,16,-22045.980279992305,340282346638528860000000000000000000000,1575420030,,,,0,,1,,25.497283935546875,0.0,1.0,0.0,1.0,C,119590561903000
Raw,1676592085999,45696000000,,,-1360627258303583466,0.0,8.065133613237816,294.0,1.0,15,24,0.0,16431,432103928369695,30,33.08345031738281,376.7294447836455,0.6513003005377946,16,17038.47869766984,340282346638528860000000000000000000000,1575420030,,,,0,,1,,28.883451461791992,-0.20372681261465636,1.0,-0.20372681261465636,1.0,C,119590561903000
Raw,1676592085999,45696000000,,,-1360627258303583466,0.0,8.065133613237816,294.0,1.0,15,25,0.0,16431,432103921387610,11,44.60505294799805,-511.2690557635699,0.15,16,-23250.210953400267,340282346638528860000000000000000000000,1575420030,,,,0,,1,,40.405052185058594,-2.0372682255564105,1.0,-2.0372682255564105,1.0,C,119590561903000
Raw,1676592085999,45696000000,,,-1360627258303583466,0.0,8.065133613237816,294.0,1.0,15,6,0.0,81921,432103930391327,9,39.5629768371582,288.73259785407527,0.15,16,13922.083503181255,340282346638528860000000000000000000000,1176450050,,,,0,,1,,35.46297836303711,1.9208527336454408,2.782716786619562,1.9208527336454408,1.0,Q,119590561903000
Raw,1676592085999,45696000000,,,-1360627258303583466,0.0,8.065133613237816,294.0,1.0,15,11,0.0,81921,432103929796652,19,32.615665435791016,-269.5757522277014,0.6680958954699632,16,-13191.582881347225,340282346638528860000000000000000000000,1176450050,,,,0,,1,,28.51566505432129,0.0,2.782716786619562,0.0,1.0,Q,119590561903000
Raw,1676592085999,45696000000,,,-1360627258303583466,0.0,8.065133613237816,294.0,1.0,15,24,0.0,81921,432103928370257,8,36.129154205322266,376.6436933230341,0.15,16,18192.562217444032,340282346638528860000000000000000000000,1176450050,,,,0,,1,,32.02915573120117,3.5215636101095664,2.782716786619562,3.5215636101095664,1.0,Q,119590561903000
Raw,1676592085999,45696000000,,,-1360627258303583466,0.0,8.065133613237816,294.0,1.0,15,25,0.0,81921,432103921388150,11,37.30466842651367,-511.4538849252931,0.15,16,-24850.98919034081,340282346638528860000000000000000000000,1176450050,,,,0,,1,,33.20466995239258,1.0186341127782053,2.782716786619562,1.0186341127782053,1.0,Q,119590561903000
Raw,1676592085999,45696000000,,,-1360627258303583466,0.0,8.065133613237816,294.0,1.0,15,14,0.0,32995,10885934530998,33,40.818603515625,342.45326357795943,0.15,16,15404.469406919738,340282346638528860000000000000000000000,1598062460,,,,0,,3,,36.61860275268555,50.29141902923584,2.0000000474974513,50.29141902923584,2.0000000474974513,C,119590561903000
Raw,1676592085999,45696000000,,,-1360627258303583466,0.0,8.065133613237816,294.0,1.0,15,18,0.0,32995,10885923843917,33,43.0706901550293,-608.1158215187661,0.15,16,-27559.081664226138,340282346638528860000000000000000000000,1600312450,,,,0,,3,,38.870689392089844,50.29141902923584,2.0000000474974513,50.29141902923584,2.0000000474974513,C,119590561903000
Raw,1676592085999,45696000000,,,-1360627258303583466,0.0,8.065133613237816,294.0,1.0,15,13,0.0,32768,10885920843421,1000000000,14.627490043640137,827.552991244359,299792458,16,13239.77943172178,340282346638528860000000000000000000000,1600875010,,,,1,,3,,10.427490234375,50.29141902923584,2.0000000474974513,50.29141902923584,2.0000000474974513,C,119590561903000
Raw,1676592085999,45696000000,,,-1360627258303583466,0.0,8.065133613237816,294.0,1.0,15,15,0.0,32995,10885932551606,33,43.65495681762695,-386.7371105748948,0.15,16,-17991.341755462152,340282346638528860000000000000000000000,1602000000,,,,0,,3,,39.4549560546875,50.29141902923584,2.0000000474974513,50.29141902923584,2.0000000474974513,C,119590561903000
Raw,1676592085999,45696000000,,,-1360627258303583466,0.0,8.065133613237816,294.0,1.0,15,24,0.0,32995,10885932139357,33,43.76105499267578,588.0651123463967,0.15,16,26993.80479983942,340282346638528860000000000000000000000,1603124990,,,,0,,3,,39.56105422973633,50.29141902923584,2.0000000474974513,50.29141902923584,2.0000000474974513,C,119590561903000
Raw,1676592085999,45696000000,,,-1360627258303583466,0.0,8.065133613237816,294.0,1.0,15,17,0.0,32995,10885935063048,33,42.23282241821289,-133.4260007954981,0.15,16,-6176.252391141656,340282346638528860000000000000000000000,1604249980,,,,0,,3,,38.03282165527344,50.29141902923584,2.0000000474974513,50.29141902923584,2.0000000474974513,C,119590561903000
Raw,1676592085999,45696000000,,,-1360627258303583466,0.0,8.065133613237816,294.0,1.0,15,2,0.0,85026,432103921752443,15,41.18264389038086,39.281633017995546,0.15,16,1818.846232598719,340282346638528860000000000000000000000,1575420030,,,,0,,6,,36.982643127441406,-6.024492904543876,1.5000000237487257,-6.024492904543876,1.5000000237487257,C,119590561903000
Raw,1676592085999,45696000000,,,-1360627258303583466,0.0,8.065133613237816,294.0,1.0,15,11,0.0,85026,432103913219511,22,36.4757194519043,547.2275470232219,0.15,16,24745.905311816514,340282346638528860000000000000000000000,1575420030,,,,0,,6,,32.275718688964844,-6.024492904543876,1.5000000237487257,-6.024492904543876,1.5000000237487257,C,119590561903000
Raw,1676592085999,45696000000,,,-1360627258303583466,0.0,8.065133613237816,294.0,1.0,15,25,0.0,85026,432103914543247,32,32.24738311767578,426.53693326186317,0.6885688676398067,16,19236.866439524147,340282346638528860000000000000000000000,1575420030,,,,0,,6,,28.047382354736328,-6.024492904543876,1.5000000237487257,-6.024492904543876,1.5000000237487257,C,119590561903000
Raw,1676592085999,45696000000,,,-1360627258303583466,0.0,8.065133613237816,294.0,1.0,15,30,0.0,85026,432103912654420,16,40.626739501953125,-326.91473082464495,0.15,16,-14765.646102052211,340282346638528860000000000000000000000,1575420030,,,,0,,6,,36.42673873901367,-6.024492904543876,1.5000000237487257,-6.024492904543876,1.5000000237487257,C,119590561903000
Raw,1676592085999,45696000000,,,-1360627258303583466,0.0,8.065133613237816,294.0,1.0,15,34,0.0,85026,432103916373983,16,40.76349639892578,-383.52231694583725,0.15,16,-17274.73992340497,340282346638528860000000000000000000000,1575420030,,,,0,,6,,36.56349563598633,-6.024492904543876,1.5000000237487257,-6.024492904543876,1.5000000237487257,C,119590561903000
Raw,1676592085999,45696000000,,,-1360627258303583466,0.0,8.065133613237816,294.0,1.0,15,36,0.0,85026,432103921235849,22,36.45798873901367,111.25449372476862,0.15,16,4973.754684569667,340282346638528860000000000000000000000,1575420030,,,,0,,6,,32.25798797607422,-6.024492904543876,1.5000000237487257,-6.024492904543876,1.5000000237487257,C,119590561903000
Raw,1676592085999,45696000000,,,-1360627258303583466,0.0,8.065133613237816,294.0,1.0,15,2,0.0,84003,432103921752990,9,39.37955856323242,39.147914760135365,0.15,16,1800.4528773287811,340282346638528860000000000000000000000,1176450050,,,,0,,6,,35.27956008911133,-4.362151958048344,3.2827168103682878,-4.362151958048344,1.5000000237487257,Q,119590561903000
Raw,1676592085999,45696000000,,,-1360627258303583466,0.0,8.065133613237816,294.0,1.0,15,11,0.0,16384,432103913220073,1000000000,12.99386215209961,546.9499794973001,299792458,16,25826.58495024186,340282346638528860000000000000000000000,1176450050,,,,0,,6,,8.893861770629883,4.134257324039933,3.2827168103682878,4.134257324039933,1.5000000237487257,Q,119590561903000
Raw,1676592085999,45696000000,,,-1360627258303583466,0.0,8.065133613237816,294.0,1.0,15,25,0.0,84003,432103914543784,29,29.047405242919922,426.4102487709679,0.8294104920478511,16,18831.15804599389,340282346638528860000000000000000000000,1176450050,,,,0,,6,,24.947404861450195,-8.795061148703097,3.2827168103682878,-8.795061148703097,1.5000000237487257,Q,119590561903000
Raw,1676592085999,45696000000,,,-1360627258303583466,0.0,8.065133613237816,294.0,1.0,15,30,0.0,84003,432103912654960,9,39.48710632324219,-326.8411127185557,0.15,16,-14451.8536203195,340282346638528860000000000000000000000,1176450050,,,,0,,6,,35.387107849121094,-8.425652049481869,3.2827168103682878,-8.425652049481869,1.5000000237487257,Q,119590561903000
Raw,1676592085999,45696000000,,,-1360627258303583466,0.0,8.065133613237816,294.0,1.0,15,34,0.0,84003,432103916374517,7,35.62889099121094,-383.63441414534077,0.5337777996884401,16,-18288.82800151642,340282346638528860000000000000000000000,1176450050,,,,0,,6,,31.52889060974121,-10.0879929959774,3.2827168103682878,-10.0879929959774,1.5000000237487257,Q,119590561903000
Raw,1676592085999,45696000000,,,-1360627258303583466,0.0,8.065133613237816,294.0,1.0,15,36,0.0,84003,432103921236401,9,34.825599670410156,111.15821078509168,0.570775437888015,16,5215.16532839981,340282346638528860000000000000000000000,1176450050,,,,0,,6,,30.72559928894043,-11.011515744030472,3.2827168103682878,-11.011515744030472,1.5000000237487257,Q,119590561903000
UncalGyro,1676592087035,119590665219616,-0.28512135,0.45677447,2.1311562,0.0005151411,-0.0008572277,-0.003177878
UncalAccel,1676592087035,119590665219616,5.9342003,0.9343972,8.047063,0.006110925,-0.043260336,-0.038735468
OrientationDeg,1676592087034,119590665219616,320.0,-28.0,-6.0
UncalMag,1676592087036,119590667867687,-52.9724,18.970999,-108.4824,-47.214203,4.776456,-64.190285
UncalGyro,1676592087043,119590674199901,-0.4373795,0.5751296,1.9953914,0.0005151411,-0.0008572277,-0.003177878
UncalAccel,1676592087044,119590674199901,5.7780685,0.50368917,8.100901,0.006110925,-0.043260336,-0.038735468
OrientationDeg,1676592087044,119590674199901,319.0,-28.0,-5.0
UncalMag,1676592087047,119590677876232,-50.5812,20.1422,-107.3844,-47.214203,4.776456,-64.190285
UncalGyro,1676592087053,119590683168895,-0.61162883,0.63591075,1.9321668,0.0005151411,-0.0008572277,-0.003177878
UncalAccel,1676592087053,119590683168895,5.6524453,0.106480606,7.8173513,0.006110925,-0.043260336,-0.038735468
OrientationDeg,1676592087052,119590683168895,319.0,-28.0,-4.0
UncalMag,1676592087056,119590687864025,-53.655598,19.2516,-109.787796,-47.214203,4.776456,-64.190285
UncalGyro,1676592087062,119590692159679,-0.7852673,0.64476824,1.9417878,0.0005151411,-0.0008572277,-0.003177878
UncalAccel,1676592087062,119590692159679,5.5710893,-0.20458634,8.396415,0.006110925,-0.043260336,-0.038735468
OrientationDeg,1676592087062,119590692159679,318.0,-27.0,-4.0
UncalMag,1676592087067,119590697875744,-51.325397,20.3862,-108.0554,-47.214203,4.776456,-64.190285
UncalGyro,1676592087070,119590701139293,-0.977079,0.8176431,2.0120375,0.0005151411,-0.0008572277,-0.003177878
UncalAccel,1676592087070,119590701139293,5.642276,-0.49651068,9.891929,0.006110925,-0.043260336,-0.038735468
OrientationDeg,1676592087070,119590701139293,317.0,-27.0,-3.0
UncalMag,1676592087077,119590707875988,-51.0448,20.8986,-109.507195,-47.214203,4.776456,-64.190285
UncalGyro,1676592087079,119590710119518,-1.162782,0.98761636,2.084883,0.0005151411,-0.0008572277,-0.003177878
UncalAccel,1676592087079,119590710119518,5.6093745,-0.6693921,9.600004,0.006110925,-0.043260336,-0.038735468
OrientationDeg,1676592087079,119590710119518,316.0,-26.0,-2.0
UncalMag,1676592087087,119590717875988,-49.9102,22.045399,-109.4706,-47.214203,4.776456,-64.190285
UncalGyro,1676592087088,119590719100414,-1.2713633,0.9036224,2.154369,0.0005151411,-0.0008572277,-0.003177878
UncalAccel,1676592087088,119590719100414,5.523233,-0.8177471,8.422137,0.006110925,-0.043260336,-0.038735468
OrientationDeg,1676592087089,119590719100414,316.0,-26.0,0.0
UncalMag,1676592087097,119590727876232,-48.909798,22.8384,-109.617,-47.214203,4.776456,-64.190285
UncalGyro,1676592087097,119590728061351,-1.2652546,0.6598872,2.2073615,0.0005151411,-0.0008572277,-0.003177878
UncalAccel,1676592087097,119590728061351,5.426922,-0.74536425,7.835896,0.006110925,-0.043260336,-0.038735468
OrientationDeg,1676592087097,119590728061351,315.0,-26.0,0.0
UncalGyro,1676592087106,119590737058544,-1.1577424,0.36300668,2.1833851,0.0005151411,-0.0008572277,-0.003177878
UncalAccel,1676592087106,119590737058544,5.328218,-0.5389833,7.8646097,0.006110925,-0.043260336,-0.038735468
UncalMag,1676592087106,119590737864513,-48.5682,22.8262,-107.0428,-47.214203,4.776456,-64.190285
OrientationDeg,1676592087106,119590737058544,314.0,-25.0,1.0
UncalGyro,1676592087115,119590746039012,-0.9578367,0.07376198,2.0867157,0.0005151411,-0.0008572277,-0.003177878
UncalAccel,1676592087116,119590746039012,5.5669017,-0.91405827,8.1738825,0.006110925,-0.043260336,-0.038735468
OrientationDeg,1676592087116,119590746039012,314.0,-25.0,2.0
UncalMag,1676592087116,119590747876476,-47.8118,23.594799,-109.0802,-47.214203,4.776456,-64.190285
UncalGyro,1676592087124,119590755019420,-0.73639804,-0.18677205,1.9650007,0.0005151411,-0.0008572277,-0.003177878
UncalAccel,1676592087125,119590755019420,5.505885,-1.3549358,8.27139,0.006110925,-0.043260336,-0.038735468
OrientationDeg,1676592087124,119590755019420,313.0,-26.0,2.0
UncalMag,1676592087126,119590757876232,-47.7264,23.607,-107.2258,-47.214203,4.776456,-64.190285
UncalGyro,1676592087133,119590764000621,-0.5187773,-0.40408736,1.8550451,0.0005151411,-0.0008572277,-0.003177878
UncalAccel,1676592087133,119590764000621,5.5483575,-2.035694,8.2014,0.006110925,-0.043260336,-0.038735468
OrientationDeg,1676592087134,119590764000621,312.0,-26.0,3.0
UncalMag,1676592087136,119590767876232,-48.2388,23.4728,-108.5068,-47.214203,4.776456,-64.190285
UncalGyro,1676592087141,119590772966564,-0.3996586,-0.5726862,1.781283,0.0005151411,-0.0008572277,-0.003177878
UncalAccel,1676592087142,119590772966564,5.3144593,-1.8191434,7.672586,0.006110925,-0.043260336,-0.038735468
OrientationDeg,1676592087142,119590772966564,311.0,-26.0,4.0
UncalMag,1676592087146,119590777864269,-47.1042,24.2414,-107.0916,-47.214203,4.776456,-64.190285
UncalGyro,1676592087150,119590781957958,-0.30375275,-0.77579886,1.7304286,0.0005151411,-0.0008572277,-0.003177878
UncalAccel,1676592087150,119590781957958,5.118846,-1.5493526,8.073383,0.006110925,-0.043260336,-0.038735468
OrientationDeg,1676592087151,119590781957958,311.0,-26.0,4.0
UncalMag,1676592087157,119590787876232,-47.8606,23.8144,-108.0554,-47.214203,4.776456,-64.190285
UncalGyro,1676592087159,119590790939098,-0.18463401,-0.8188649,1.6937766,0.0005151411,-0.0008572277,-0.003177878
UncalAccel,1676592087159,119590790939098,5.1140604,-1.6444674,8.9826565,0.006110925,-0.043260336,-0.038735468
OrientationDeg,1676592087159,119590790939098,310.0,-27.0,5.0
UncalMag,1676592087167,119590797875988,-48.2754,24.1926,-107.8114,-47.214203,4.776456,-64.190285
UncalGyro,1676592087168,119590799917919,-0.098807454,-0.7182248,1.6577356,0.0005151411,-0.0008572277,-0.003177878
UncalAccel,1676592087168,119590799917919,5.2977095,-2.0775683,8.690732,0.006110925,-0.043260336,-0.038735468
OrientationDeg,1676592087169,119590799917919,309.0,-27.0,5.0
UncalMag,1676592087177,119590807875988,-48.3974,23.875399,-106.0424,-47.214203,4.776456,-64.190285
UncalGyro,1676592087177,119590808897411,-0.09621128,-0.7079928,1.609019,0.0005151411,-0.0008572277,-0.003177878
