# 
# Header Description:
# 
# Version: v3.0.5.6 Platform: 13 Manufacturer: Google Model: Pixel 7
# 
# Raw,utcTimeMillis,TimeNanos,LeapSecond,TimeUncertaintyNanos,FullBiasNanos,BiasNanos,BiasUncertaintyNanos,DriftNanosPerSecond,DriftUncertaintyNanosPerSecond,HardwareClockDiscontinuityCount,Svid,TimeOffsetNanos,State,ReceivedSvTimeNanos,ReceivedSvTimeUncertaintyNanos,Cn0DbHz,PseudorangeRateMetersPerSecond,PseudorangeRateUncertaintyMetersPerSecond,AccumulatedDeltaRangeState,AccumulatedDeltaRangeMeters,AccumulatedDeltaRangeUncertaintyMeters,CarrierFrequencyHz,CarrierCycles,CarrierPhase,CarrierPhaseUncertainty,MultipathIndicator,SnrInDb,ConstellationType,AgcDb,BasebandCn0DbHz,FullInterSignalBiasNanos,FullInterSignalBiasUncertaintyNanos,SatelliteInterSignalBiasNanos,SatelliteInterSignalBiasUncertaintyNanos,CodeType,ChipsetElapsedRealtimeNanos
# 
# UncalAccel,utcTimeMillis,elapsedRealtimeNanos,UncalAccelXMps2,UncalAccelYMps2,UncalAccelZMps2,BiasXMps2,BiasYMps2,BiasZMps2
# 
# Accel,utcTimeMillis,elapsedRealtimeNanos,AccelXMps2,AccelYMps2,AccelZMps2
# 
# UncalGyro,utcTimeMillis,elapsedRealtimeNanos,UncalGyroXRadPerSec,UncalGyroYRadPerSec,UncalGyroZRadPerSec,DriftXRadPerSec,DriftYRadPerSec,DriftZRadPerSec
# 
# Gyro,utcTimeMillis,elapsedRealtimeNanos,GyroXRadPerSec,GyroYRadPerSec,GyroZRadPerSec
# 
# UncalMag,utcTimeMillis,elapsedRealtimeNanos,UncalMagXMicroT,UncalMagYMicroT,UncalMagZMicroT,BiasXMicroT,BiasYMicroT,BiasZMicroT
# 
# Mag,utcTimeMillis,elapsedRealtimeNanos,MagXMicroT,MagYMicroT,MagZMicroT
# 
# OrientationDeg,utcTimeMillis,elapsedRealtimeNanos,yawDeg,rollDeg,pitchDeg
# 
# Fix,Provider,LatitudeDegrees,LongitudeDegrees,AltitudeMeters,SpeedMps,AccuracyMeters,BearingDegrees,UnixTimeMillis,SpeedAccuracyMps,BearingAccuracyDegrees,elapsedRealtimeNanos,VerticalAccuracyMeters
# 
# Nav,Svid,Type,Status,MessageId,Sub-messageId,Data(Bytes)
# 
# Status,UnixTimeMillis,SignalCount,SignalIndex,ConstellationType,Svid,CarrierFrequencyHz,Cn0DbHz,AzimuthDegrees,ElevationDegrees,UsedInFix,HasAlmanacData,HasEphemerisData,BasebandCn0DbHz
# 
UncalGyro,1676593537486,30594308047149,0.2556471,0.55481833,0.45860708,0.00065224327,-0.0016893186,-0.0003236903
UncalAccel,1676593537486,30594308047149,-2.2947168,3.7154553,10.730015,0.037048545,-0.031444572,0.0098014325
UncalGyro,1676593537494,30594316521495,0.122478485,0.4813618,0.36743546,0.00065224327,-0.0016893186,-0.0003236903
UncalAccel,1676593537494,30594316521495,-2.6075785,3.7567315,10.952547,0.037048545,-0.031444572,0.0098014325
UncalMag,1676593537492,30594314587596,-160.5032,737.5876,404.24698,-174.57417,771.0116,430.86337
UncalMag,1676593537502,30594324584423,-160.735,737.1972,402.9416,-174.57417,771.0116,430.86337
UncalGyro,1676593537504,30594325002758,-0.035277467,0.32910365,0.26175576,0.00065224327,-0.0016893186,-0.0003236903
UncalAccel,1676593537503,30594325002758,-2.8809586,3.7304106,11.070394,0.037048545,-0.031444572,0.0098014325
OrientationDeg,1676593537486,30594308047149,207.0,8.0,-18.0
OrientationDeg,1676593537494,30594316521495,206.0,8.0,-18.0
OrientationDeg,1676593537503,30594325002758,206.0,8.0,-18.0
UncalGyro,1676593537511,30594333485331,-0.18203785,0.14385876,0.1516473,0.00065224327,-0.0016893186,-0.0003236903
UncalAccel,1676593537511,30594333485331,-3.0119655,3.5904303,11.408978,0.037048545,-0.031444572,0.0098014325
UncalMag,1676593537512,30594334584626,-160.3812,737.734,402.9416,-174.57417,771.0116,430.86337
OrientationDeg,1676593537511,30594333485331,206.0,8.0,-18.0
Fix,FLP,37.4312884000,-122.1550493000,-16.200000762939453,0.94330573,4.523,286.33496,1676593536671,,,30593493882212,3.1485589
UncalGyro,1676593537519,30594341965516,-0.30390546,-0.026725354,0.03359759,0.00065224327,-0.0016893186,-0.0003236903
UncalAccel,1676593537519,30594341965516,-2.9982069,3.3840494,11.610574,0.037048545,-0.031444572,0.0098014325
OrientationDeg,1676593537519,30594341965516,206.0,8.0,-17.0
UncalMag,1676593537522,30594344585481,-160.064,737.8926,402.3682,-174.57417,771.0116,430.86337
UncalGyro,1676593537528,30594350444652,-0.38347065,-0.19822577,-0.082619525,0.00065224327,-0.0016893186,-0.0003236903
UncalAccel,1676593537528,30594350444652,-2.8522446,2.9970105,11.532208,0.037048545,-0.031444572,0.0098014325
OrientationDeg,1676593537528,30594350444652,206.0,8.0,-17.0
UncalMag,1676593537532,30594354586946,-160.674,738.1244,401.9534,-174.57417,771.0116,430.86337
UncalGyro,1676593537536,30594358926586,-0.4120286,-0.34972036,-0.18310685,0.00065224327,-0.0016893186,-0.0003236903
UncalAccel,1676593537536,30594358926586,-2.6338995,2.5674987,11.464013,0.037048545,-0.031444572,0.0098014325
OrientationDeg,1676593537537,30594358926586,206.0,8.0,-17.0
UncalMag,1676593537542,30594364584709,-160.5398,738.5636,401.9412,-174.57417,771.0116,430.86337
UncalGyro,1676593537545,30594367406495,-0.3941608,-0.43783766,-0.27382034,0.00065224327,-0.0016893186,-0.0003236903
UncalAccel,1676593537545,30594367406495,-2.431706,2.2474587,11.505289,0.037048545,-0.031444572,0.0098014325
OrientationDeg,1676593537545,30594367406495,206.0,8.0,-17.0
UncalMag,1676593537552,30594374586418,-160.8204,739.1004,402.4292,-174.57417,771.0116,430.86337
UncalGyro,1676593537553,30594375889640,-0.34422258,-0.45875978,-0.36713,0.00065224327,-0.0016893186,-0.0003236903
UncalAccel,1676593537553,30594375889640,-2.3150558,1.9704895,11.474183,0.037048545,-0.031444572,0.0098014325
OrientationDeg,1676593537553,30594375889640,207.0,8.0,-16.0
UncalGyro,1676593537562,30594384369692,-0.28985557,-0.44822237,-0.45830166,0.00065224327,-0.0016893186,-0.0003236903
UncalAccel,1676593537562,30594384369692,-2.2223341,1.7030915,11.38505,0.037048545,-0.031444572,0.0098014325
OrientationDeg,1676593537562,30594384369692,207.0,7.0,-16.0
UncalMag,1676593537562,30594384592400,-160.61299,739.0028,402.1608,-174.57417,771.0116,430.86337
UncalGyro,1676593537570,30594392852226,-0.2582433,-0.44348818,-0.54473907,0.00065224327,-0.0016893186,-0.0003236903
UncalAccel,1676593537570,30594392852226,-2.167299,1.4979069,11.252847,0.037048545,-0.031444572,0.0098014325
UncalMag,1676593537572,30594394581088,-160.61299,739.0028,402.1608,-174.57417,771.0116,430.86337
OrientationDeg,1676593537570,30594392852226,207.0,7.0,-16.0
UncalGyro,1676593537579,30594401331078,-0.24846944,-0.46777007,-0.6427829,0.00065224327,-0.0016893186,-0.0003236903
UncalAccel,1676593537579,30594401331078,-2.1702902,1.3543376,11.076974,0.037048545,-0.031444572,0.0098014325
OrientationDeg,1676593537579,30594401331078,207.0,7.0,-16.0
UncalMag,1676593537582,30594404586296,-160.9424,738.7832,400.6602,-174.57417,771.0116,430.86337
UncalGyro,1676593537587,30594409812899,-0.24755314,-0.52290064,-0.7644979,0.00065224327,-0.0016893186,-0.0003236903
UncalAccel,1676593537587,30594409812899,-2.1918256,1.2442678,10.881959,0.037048545,-0.031444572,0.0098014325
UncalMag,1676593537592,30594414584628,-161.04,738.9662,401.197,-174.57417,771.0116,430.86337
OrientationDeg,1676593537587,30594409812899,208.0,7.0,-16.0
UncalGyro,1676593537596,30594418293897,-0.24617869,-0.5856671,-0.9111055,0.00065224327,-0.0016893186,-0.0003236903
UncalAccel,1676593537596,30594418293897,-2.224727,1.1581261,10.796415,0.037048545,-0.031444572,0.0098014325
OrientationDeg,1676593537596,30594418293897,208.0,7.0,-16.0
UncalMag,1676593537602,30594424589756,-161.0034,739.56396,400.7334,-174.57417,771.0116,430.86337
UncalGyro,1676593537604,30594426774956,-0.23808473,-0.6273586,-1.072374,0.00065224327,-0.0016893186,-0.0003236903
UncalAccel,1676593537604,30594426774956,-2.2959132,1.1718849,10.728819,0.037048545,-0.031444572,0.0098014325
OrientationDeg,1676593537604,30594426774956,209.0,7.0,-15.0
UncalMag,1676593537612,30594434584670,-160.6984,739.3932,400.44058,-174.57417,771.0116,430.86337
UncalGyro,1676593537613,30594435253452,-0.20372356,-0.64812803,-1.235475,0.00065224327,-0.0016893186,-0.0003236903
UncalAccel,1676593537614,30594435253452,-2.3377876,1.1958131,10.561321,0.037048545,-0.031444572,0.0098014325
OrientationDeg,1676593537613,30594435253452,209.0,7.0,-15.0
UncalGyro,1676593537621,30594443739464,-0.13591751,-0.64599,-1.3863586,0.00065224327,-0.0016893186,-0.0003236903
UncalAccel,1676593537621,30594443739464,-2.3742783,1.1240284,10.34178,0.037048545,-0.031444572,0.0098014325
UncalMag,1676593537622,30594444584466,-160.45439,739.8324,400.6602,-174.57417,771.0116,430.86337
OrientationDeg,1676593537621,30594443739464,210.0,6.0,-15.0
UncalGyro,1676593537630,30594452219527,-0.049021937,-0.6200282,-1.5209018,0.00065224327,-0.0016893186,-0.0003236903
UncalAccel,1676593537630,30594452219527,-2.3575284,1.0193424,10.165907,0.037048545,-0.031444572,0.0098014325
OrientationDeg,1676593537630,30594452219527,211.0,6.0,-15.0
UncalMag,1676593537632,30594454585484,-160.45439,739.8324,400.6602,-174.57417,771.0116,430.86337
UncalGyro,1676593537638,30594460699578,0.028405234,-0.57940567,-1.6355917,0.00065224327,-0.0016893186,-0.0003236903
UncalAccel,1676593537638,30594460699578,-2.3856442,0.9379865,10.085149,0.037048545,-0.031444572,0.0098014325
OrientationDeg,1676593537638,30594460699578,212.0,6.0,-15.0
UncalMag,1676593537642,30594464586542,-159.8932,740.4424,400.1844,-174.57417,771.0116,430.86337
UncalGyro,1676593537647,30594469176914,0.07819075,-0.5487097,-1.7348573,0.00065224327,-0.0016893186,-0.0003236903
UncalAccel,1676593537647,30594469176914,-2.5423741,0.9128618,9.960124,0.037048545,-0.031444572,0.0098014325
OrientationDeg,1676593537647,30594469176914,212.0,6.0,-15.0
UncalMag,1676593537652,30594474584793,-159.5638,740.7962,400.2698,-174.57417,771.0116,430.86337
UncalGyro,1676593537655,30594477664199,0.09896017,-0.54733527,-1.8329011,0.00064689375,-0.0016901107,-0.00032360427
UncalAccel,1676593537655,30594477664199,-2.7463622,0.8644072,9.763314,0.037048545,-0.031444572,0.0098014325
OrientationDeg,1676593537655,30594477664199,213.0,6.0,-15.0
UncalMag,1676593537662,30594484579869,-159.027,741.0646,399.9526,-174.57417,771.0116,430.86337
UncalGyro,1676593537664,30594486153325,0.08979719,-0.57558775,-1.9466748,0.0006440035,-0.0016905386,-0.00032355776
UncalAccel,1676593537664,30594486153325,-2.8977082,0.77706915,9.600603,0.037048545,-0.031444572,0.0098014325
OrientationDeg,1676593537664,30594486153325,214.0,6.0,-15.0
UncalMag,1676593537672,30594494581579,-158.46579,741.57697,399.3426,-174.57417,771.0116,430.86337
UncalGyro,1676593537672,30594494620885,0.05589417,-0.624457,-2.059685,0.00064356613,-0.0016906033,-0.00032355072
UncalAccel,1676593537672,30594494620885,-2.9006991,0.63828546,9.520443,0.037048545,-0.031444572,0.0098014325
OrientationDeg,1676593537672,30594494620885,215.0,6.0,-14.0
UncalGyro,1676593537681,30594503112208,0.0018325958,-0.70386946,-2.1523838,0.0006435,-0.0016906131,-0.00032354967
UncalAccel,1676593537681,30594503112208,-2.8522446,0.5192425,9.473185,0.037048545,-0.031444572,0.0098014325
OrientationDeg,1676593537681,30594503112208,217.0,6.0,-14.0
UncalMag,1676593537682,30594504580724,-158.234,741.9674,400.5138,-174.57417,771.0116,430.86337
UncalGyro,1676593537689,30594511595799,-0.072540246,-0.8187121,-2.2295055,0.00064349,-0.0016906145,-0.0003235495
UncalAccel,1676593537689,30594511595799,-2.812763,0.35174492,9.416953,0.037048545,-0.031444572,0.0098014325
OrientationDeg,1676593537689,30594511595799,218.0,6.0,-14.0
UncalMag,1676593537692,30594514595007,-158.0144,742.21136,399.5988,-174.57417,771.0116,430.86337
UncalGyro,1676593537698,30594520074478,-0.17440203,-0.9601275,-2.3070853,0.0006434885,-0.0016906147,-0.0003235495
UncalAccel,1676593537698,30594520074478,-2.7828526,0.22253251,9.379865,0.037048545,-0.031444572,0.0098014325
OrientationDeg,1676593537698,30594520074478,219.0,6.0,-14.0
UncalMag,1676593537702,30594524581946,-157.563,742.62616,398.7204,-174.57417,771.0116,430.86337
UncalGyro,1676593537706,30594528544561,-0.3005457,-1.1213958,-2.3942864,0.00064348825,-0.0016906147,-0.0003235495
UncalAccel,1676593537706,30594528544561,-2.7589245,0.20877378,9.403793,0.037048545,-0.031444572,0.0098014325
OrientationDeg,1676593537706,30594528544561,220.0,6.0,-14.0
UncalMag,1676593537712,30594534594885,-156.9286,742.9068,399.1352,-174.57417,771.0116,430.86337
UncalGyro,1676593537715,30594537035843,-0.4466952,-1.287093,-2.4904976,0.00064348825,-0.0016906147,-0.0003235495
UncalAccel,1676593537715,30594537035843,-2.7355945,0.16031912,9.476176,0.037048545,-0.031444572,0.0098014325
OrientationDeg,1676593537715,30594537035843,221.0,5.0,-13.0
UncalMag,1676593537722,30594544595008,-156.953,744.11456,398.574,-174.57417,771.0116,430.86337
UncalGyro,1676593537724,30594545517086,-0.61621034,-1.4439328,-2.607173,0.00064348825,-0.0016906147,-0.0003235495
UncalAccel,1676593537723,30594545517086,-2.71705,0.1268196,9.552746,0.037048545,-0.031444572,0.0098014325
OrientationDeg,1676593537723,30594545517086,222.0,5.0,-13.0
UncalGyro,1676593537731,30594553994930,-0.79611015,-1.5676329,-2.7482827,0.00064348825,-0.0016906147,-0.0003235495
UncalAccel,1676593537731,30594553994930,-2.6267211,0.07477571,9.7298155,0.037048545,-0.031444572,0.0098014325
UncalMag,1676593537732,30594554595008,-156.9408,744.3464,397.781,-174.57417,771.0116,430.86337
OrientationDeg,1676593537731,30594553994930,224.0,5.0,-12.0
UncalGyro,1676593537740,30594562472306,-0.9665415,-1.647809,-2.8959594,0.00064348825,-0.0016906147,-0.0003235495
UncalAccel,1676593537740,30594562472306,-2.5316064,0.022731815,9.806984,0.037048545,-0.031444572,0.0098014325
OrientationDeg,1676593537740,30594562472306,225.0,4.0,-12.0
UncalMag,1676593537742,30594564595049,-156.9652,745.5664,397.7078,-174.57417,771.0116,430.86337
UncalGyro,1676593537748,30594570959673,-1.1215485,-1.7424932,-3.042109,0.00064348825,-0.0016906147,-0.0003235495
UncalAccel,1676593537748,30594570959673,-2.312663,-0.22971097,9.52822,0.037048545,-0.031444572,0.0098014325
OrientationDeg,1676593537748,30594570959673,227.0,4.0,-11.0
UncalMag,1676593537752,30594574595130,-156.8188,746.34717,397.41498,-174.57417,771.0116,430.86337
UncalGyro,1676593537757,30594579438554,-1.2663237,-1.8796324,-3.1885638,0.00064348825,-0.0016906147,-0.0003235495
UncalAccel,1676593537757,30594579438554,-2.0757737,-0.54376894,9.349955,0.037048545,-0.031444572,0.0098014325
OrientationDeg,1676593537757,30594579438554,228.0,3.0,-10.0
UncalMag,1676593537762,30594584587196,-156.343,747.2622,395.8046,-174.57417,771.0116,430.86337
UncalGyro,1676593537765,30594587922004,-1.3713925,-2.0117319,-3.3377676,0.00064348825,-0.0016906147,-0.0003235495
UncalAccel,1676593537765,30594587922004,-1.8245273,-0.7579266,9.2285185,0.037048545,-0.031444572,0.0098014325
OrientationDeg,1676593537765,30594587922004,230.0,2.0,-9.0
UncalMag,1676593537772,30594594571327,-156.90419,748.3114,396.0608,-174.57417,771.0116,430.86337
UncalGyro,1676593537774,30594596404651,-1.4188873,-2.1248949,-3.4715471,0.00064348825,-0.0016906147,-0.0003235495
UncalAccel,1676593537774,30594596404651,-1.5840486,-0.89491564,9.120842,0.037048545,-0.031444572,0.0098014325
OrientationDeg,1676593537774,30594596404651,232.0,1.0,-9.0
UncalMag,1676593537782,30594604595172,-156.831,749.39716,394.6334,-174.57417,771.0116,430.86337
UncalGyro,1676593537782,30594604872343,-1.3993396,-2.1803308,-3.5717292,0.00064348825,-0.0016906147,-0.0003235495
UncalAccel,1676593537782,30594604872343,-1.3435699,-0.9942178,9.022736,0.037048545,-0.031444572,0.0098014325
OrientationDeg,1676593537782,30594604872343,233.0,1.0,-8.0
UncalGyro,1676593537791,30594613364601,-1.3208433,-2.1717787,-3.6328156,0.00064348825,-0.0016906147,-0.0003235495
UncalAccel,1676593537791,30594613364601,-1.0025927,-1.0683953,8.896515,0.037048545,-0.031444572,0.0098014325
UncalMag,1676593537792,30594614587238,-156.9408,750.9466,394.03558,-174.57417,771.0116,430.86337
OrientationDeg,1676593537791,30594613364601,235.0,0.0,-7.0
UncalGyro,1676593537799,30594621841581,-1.2093605,-2.0955732,-3.6529741,0.00064348825,-0.0016906147,-0.0003235495
UncalAccel,1676593537799,30594621841581,-0.66759753,-1.1425728,8.903693,0.037048545,-0.031444572,0.0098014325
OrientationDeg,1676593537799,30594621841581,237.0,0.0,-7.0
UncalMag,1676593537802,30594624593423,-156.7822,751.9958,393.9136,-174.57417,771.0116,430.86337
UncalGyro,1676593537808,30594630326546,-1.0914634,-1.9787452,-3.6334264,0.00064348825,-0.0016906147,-0.0003235495
UncalAccel,1676593537808,30594630326546,-0.47736812,-1.0893325,8.971889,0.037048545,-0.031444572,0.0098014325
OrientationDeg,1676593537808,30594630326546,239.0,-1.0,-6.0
UncalMag,1676593537812,30594634592975,-157.0506,752.6668,393.4866,-174.57417,771.0116,430.86337
UncalGyro,1676593537816,30594638805448,-0.9773844,-1.8234328,-3.5807393,0.00064348825,-0.0016906147,-0.0003235495
UncalAccel,1676593537816,30594638805448,-0.4031906,-0.92602235,9.205189,0.037048545,-0.031444572,0.0098014325
OrientationDeg,1676593537816,30594638805448,240.0,-1.0,-6.0
UncalMag,1676593537822,30594644595132,-156.6724,753.6062,392.6082,-174.57417,771.0116,430.86337
UncalGyro,1676593537825,30594647287718,-0.8585711,-1.6349808,-3.4999523,0.00064348825,-0.0016906147,-0.0003235495
UncalAccel,1676593537825,30594647287718,-0.46779683,-0.6873383,9.375079,0.037048545,-0.031444572,0.0098014325
OrientationDeg,1676593537825,30594647287718,242.0,-2.0,-5.0
UncalMag,1676593537832,30594654595051,-157.136,754.631,391.8884,-174.57417,771.0116,430.86337
UncalGyro,1676593537833,30594655769184,-0.7495316,-1.4049901,-3.3896914,0.00064348825,-0.0016906147,-0.0003235495
UncalAccel,1676593537833,30594655769184,-0.7537391,-0.41635114,9.701699,0.037048545,-0.031444572,0.0098014325
OrientationDeg,1676593537833,30594655769184,244.0,-2.0,-5.0
UncalGyro,1676593537842,30594664249785,-0.64843345,-1.1808025,-3.2637002,0.00064348825,-0.0016906147,-0.0003235495
UncalAccel,1676593537842,30594664249785,-1.2053844,-0.0071784677,9.644272,0.037048545,-0.031444572,0.0098014325
UncalMag,1676593537842,30594664584757,-157.0506,755.9364,391.96158,-174.57417,771.0116,430.86337
OrientationDeg,1676593537842,30594664249785,245.0,-3.0,-5.0
UncalGyro,1676593537850,30594672720326,-0.5479461,-1.0112875,-3.1181617,0.00064348825,-0.0016906147,-0.0003235495
UncalAccel,1676593537850,30594672720326,-1.5924234,0.36430725,9.348758,0.037048545,-0.031444572,0.0098014325
UncalMag,1676593537852,30594674595052,-156.9286,756.2658,391.193,-174.57417,771.0116,430.86337
OrientationDeg,1676593537850,30594672720326,247.0,-3.0,-5.0
UncalGyro,1676593537859,30594681210896,-0.4605924,-0.9025534,-2.9362764,0.00064348825,-0.0016906147,-0.0003235495
UncalAccel,1676593537859,30594681210896,-1.811965,0.57906306,9.09811,0.037048545,-0.031444572,0.0098014325
OrientationDeg,1676593537859,30594681210896,248.0,-3.0,-4.0
UncalMag,1676593537862,30594684595296,-156.9896,756.9612,391.11978,-174.57417,771.0116,430.86337
UncalGyro,1676593537867,30594689691639,-0.4063781,-0.8378017,-2.718503,0.00064348825,-0.0016906147,-0.0003235495
UncalAccel,1676593537867,30594689691639,-1.902294,0.74177504,8.934201,0.037048545,-0.031444572,0.0098014325
OrientationDeg,1676593537867,30594689691639,250.0,-4.0,-4.0
UncalMag,1676593537872,30594694595052,-156.526,757.742,390.9246,-174.57417,771.0116,430.86337
UncalGyro,1676593537876,30594698174793,-0.39614612,-0.79259765,-2.4669793,0.00064348825,-0.0016906147,-0.0003235495
UncalAccel,1676593537876,30594698174793,-1.9310079,0.89013004,8.799605,0.037048545,-0.031444572,0.0098014325
OrientationDeg,1676593537876,30594698174793,251.0,-4.0,-4.0
UncalMag,1676593537882,30594704594971,-157.1482,757.8152,390.8392,-174.57417,771.0116,430.86337
UncalGyro,1676593537884,30594706655803,-0.4259258,-0.7461719,-2.200642,0.00064348825,-0.0016906147,-0.0003235495
UncalAccel,1676593537884,30594706655803,-1.9405792,1.0671989,8.722437,0.037048545,-0.031444572,0.0098014325
OrientationDeg,1676593537884,30594706655803,252.0,-4.0,-4.0
UncalMag,1676593537892,30594714594971,-157.1848,758.94977,390.75378,-174.57417,771.0116,430.86337
UncalGyro,1676593537893,30594715132762,-0.4830417,-0.6623306,-1.9381227,0.00064348825,-0.0016906147,-0.0003235495
UncalAccel,1676593537893,30594715132762,-1.9322042,1.3022938,8.740383,0.037048545,-0.031444572,0.0098014325
OrientationDeg,1676593537893,30594715132762,253.0,-4.0,-4.0
UncalGyro,1676593537901,30594723614166,-0.54473907,-0.5154176,-1.6975945,0.00064348825,-0.0016906147,-0.0003235495
UncalAccel,1676593537901,30594723614166,-1.9585253,1.6372889,8.772088,0.037048545,-0.031444572,0.0098014325
UncalMag,1676593537902,30594724584351,-156.6724,758.657,389.58258,-174.57417,771.0116,430.86337
OrientationDeg,1676593537901,30594723614166,254.0,-5.0,-4.0
UncalGyro,1676593537910,30594732100037,-0.6065892,-0.30283645,-1.4877623,0.00064348825,-0.0016906147,-0.0003235495
UncalAccel,1676593537910,30594732100037,-2.0901306,1.9764715,8.917452,0.037048545,-0.031444572,0.0098014325
OrientationDeg,1676593537910,30594732100037,254.0,-5.0,-4.0
UncalMag,1676593537912,30594734594850,-157.0018,760.0356,389.1922,-174.57417,771.0116,430.86337
UncalGyro,1676593537918,30594740580679,-0.674548,-0.024587326,-1.3061826,0.00064348825,-0.0016906147,-0.0003235495
UncalAccel,1676593537918,30594740580679,-2.3186452,2.2618155,9.143574,0.037048545,-0.031444572,0.0098014325
OrientationDeg,1676593537918,30594740580679,255.0,-4.0,-3.0
UncalMag,1676593537922,30594744595135,-156.87979,760.41376,389.9974,-174.57417,771.0116,430.86337
UncalGyro,1676593537927,30594749065857,-0.7454083,0.28970283,-1.156826,0.00064348825,-0.0016906147,-0.0003235495
UncalAccel,1676593537927,30594749065857,-2.6081767,2.6141586,9.230313,0.037048545,-0.031444572,0.0098014325
OrientationDeg,1676593537927,30594749065857,256.0,-4.0,-3.0
UncalMag,1676593537932,30594754595013,-156.8554,760.914,389.3996,-174.57417,771.0116,430.86337
UncalGyro,1676593537935,30594757537354,-0.79641557,0.5891795,-1.0334313,0.00064348825,-0.0016906147,-0.0003235495
UncalAccel,1676593537935,30594757537354,-2.8809586,2.9246275,9.055039,0.037048545,-0.031444572,0.0098014325
OrientationDeg,1676593537935,30594757537354,256.0,-4.0,-3.0
UncalMag,1676593537942,30594764595013,-156.8188,761.3532,389.4972,-174.57417,771.0116,430.86337
UncalGyro,1676593537944,30594766022188,-0.8384125,0.8680395,-0.9062186,0.00064348825,-0.0016906147,-0.0003235495
UncalAccel,1676593537944,30594766022188,-3.1932218,3.190829,9.037691,0.037048545,-0.031444572,0.0098014325
OrientationDeg,1676593537944,30594766022188,257.0,-3.0,-2.0
UncalGyro,1676593537952,30594774501578,-0.9068295,1.1168144,-0.7440339,0.00064348825,-0.0016906147,-0.0003235495
UncalAccel,1676593537952,30594774501578,-3.505485,3.5336008,8.976674,0.037048545,-0.031444572,0.0098014325
UncalMag,1676593537952,30594774593427,-156.56259,762.2438,389.7046,-174.57417,771.0116,430.86337
OrientationDeg,1676593537952,30594774501578,257.0,-3.0,-2.0
UncalGyro,1676593537960,30594782968568,-1.0267117,1.2857187,-0.54534996,0.00064348825,-0.0016906147,-0.0003235495
UncalAccel,1676593537960,30594782968568,-3.8398821,3.8434713,8.720044,0.037048545,-0.031444572,0.0098014325
UncalMag,1676593537962,30594784584556,-155.47679,762.8782,389.7046,-174.57417,771.0116,430.86337
OrientationDeg,1676593537960,30594782968568,257.0,-2.0,-1.0
UncalGyro,1676593537969,30594791464225,-1.2325734,1.2501358,-0.31581733,0.00064348825,-0.0016906147,-0.0003235495
UncalAccel,1676593537969,30594791464225,-5.0362935,3.9852462,8.072187,0.037048545,-0.031444572,0.0098014325
OrientationDeg,1676593537969,30594791464225,257.0,-1.0,-1.0
UncalMag,1676593537973,30594794584434,-154.9278,763.232,389.7778,-174.57417,771.0116,430.86337
UncalGyro,1676593537977,30594799944551,-1.5050193,0.50671273,0.00030543262,0.00064348825,-0.0016906147,-0.0003235495
UncalAccel,1676593537977,30594799944551,-8.299505,3.69392,7.155736,0.037048545,-0.031444572,0.0098014325
OrientationDeg,1676593537977,30594799944551,257.0,-1.0,0.0
UncalMag,1676593537982,30594804591189,-154.3544,764.13477,390.2292,-174.57417,771.0116,430.86337
UncalGyro,1676593537986,30594808425539,-1.1438452,-0.2275473,0.6197228,0.00064348825,-0.0016906147,-0.0003235495
UncalAccel,1676593537986,30594808425539,-11.851052,3.3008988,19.907686,0.037048545,-0.031444572,0.0098014325
OrientationDeg,1676593537986,30594808425539,257.0,-1.0,0.0
UncalMag,1676593537992,30594814595055,-154.3544,764.12256,390.10718,-174.57417,771.0116,430.86337
UncalGyro,1676593537994,30594816896181,0.21517728,-0.56184334,1.3796391,0.00064348825,-0.0016906147,-0.0003235495
UncalAccel,1676593537994,30594816896181,-8.717651,4.128217,18.018553,0.037048545,-0.031444572,0.0098014325
OrientationDeg,1676593537994,30594816896181,256.0,-1.0,0.0
UncalMag,1676593538002,30594824604373,-154.6716,764.02496,389.8388,-174.57417,771.0116,430.86337
UncalGyro,1676593538003,30594825385085,0.6916522,-1.2680036,1.6502525,0.00064348825,-0.0016906147,-0.0003235495
UncalAccel,1676593538003,30594825385085,-3.377469,4.70728,12.178869,0.037048545,-0.031444572,0.0098014325
OrientationDeg,1676593538003,30594825385085,256.0,-2.0,0.0
UncalGyro,1676593538011,30594833871290,0.43463063,-1.5308284,1.0639745,0.00064348825,-0.0016906147,-0.0003235495
UncalAccel,1676593538011,30594833871290,1.0067801,7.1473613,7.469196,0.037048545,-0.031444572,0.0098014325
UncalMag,1676593538012,30594834584720,-155.7818,762.927,388.8872,-174.57417,771.0116,430.86337
OrientationDeg,1676593538011,30594833871290,255.0,-3.0,0.0
UncalGyro,1676593538020,30594842351850,-0.1020145,-1.5822937,0.3109304,0.00064348825,-0.0016906147,-0.0003235495
UncalAccel,1676593538020,30594842351850,0.66759753,6.1597238,6.8135624,0.037048545,-0.031444572,0.0098014325
OrientationDeg,1676593538020,30594842351850,255.0,-4.0,0.0
UncalMag,1676593538022,30594844602055,-156.709,763.2686,389.3508,-174.57417,771.0116,430.86337
UncalGyro,1676593538028,30594850827579,-0.6768387,-1.3127494,-0.24251351,0.00064348825,-0.0016906147,-0.0003235495
UncalAccel,1676593538028,30594850827579,0.17527425,4.508078,7.338787,0.037048545,-0.031444572,0.0098014325
OrientationDeg,1676593538028,30594850827579,255.0,-4.0,0.0
UncalMag,1676593538032,30594854595137,-157.3434,763.0978,389.8144,-174.57417,771.0116,430.86337
UncalGyro,1676593538037,30594859301120,-1.2124147,-0.96745783,-0.5664248,0.00064348825,-0.0016906147,-0.0003235495
UncalAccel,1676593538037,30594859301120,0.19980069,2.477768,6.7292156,0.037048545,-0.031444572,0.0098014325
OrientationDeg,1676593538037,30594859301120,255.0,-5.0,0.0
UncalMag,1676593538042,30594864591760,-157.624,763.5858,388.7286,-174.57417,771.0116,430.86337
UncalGyro,1676593538045,30594867795099,-1.5645787,-0.58001655,-0.7136433,0.00064348825,-0.0016906147,-0.0003235495
UncalAccel,1676593538045,30594867795099,0.64606214,-1.5684953,7.4494553,0.037048545,-0.031444572,0.0098014325
OrientationDeg,1676593538045,30594867795099,256.0,-5.0,0.0
UncalMag,1676593538052,30594874595097,-157.96559,764.9522,388.2162,-174.57417,771.0116,430.86337
UncalGyro,1676593538054,30594876269556,-1.7153096,-0.3294091,-0.8868236,0.00064348825,-0.0016906147,-0.0003235495
UncalAccel,1676593538054,30594876269556,1.8574286,-3.5808592,6.81775,0.037048545,-0.031444572,0.0098014325
OrientationDeg,1676593538054,30594876269556,256.0,-5.0,1.0
UncalMag,1676593538062,30594884595098,-157.929,765.51337,389.0702,-174.57417,771.0116,430.86337
UncalGyro,1676593538062,30594884740605,-1.7162259,-0.35048392,-0.8009971,0.00064348825,-0.0016906147,-0.0003235495
UncalAccel,1676593538062,30594884740605,1.7054844,-4.4931226,7.346564,0.037048545,-0.031444572,0.0098014325
OrientationDeg,1676593538062,30594884740605,257.0,-5.0,2.0
UncalGyro,1676593538071,30594893238164,-1.5370897,-0.2875648,-0.76144356,0.00064348825,-0.0016906147,-0.0003235495
UncalAccel,1676593538071,30594893238164,1.9842482,-3.3481572,8.2253275,0.037048545,-0.031444572,0.0098014325
UncalMag,1676593538072,30594894584640,-158.28279,766.526,388.3504,-174.57417,771.0116,430.86337
OrientationDeg,1676593538071,30594893238164,257.0,-5.0,3.0
UncalGyro,1676593538079,30594901716425,-1.2757921,-0.10720685,-0.68584895,0.00064348825,-0.0016906147,-0.0003235495
UncalAccel,1676593538079,30594901716425,2.114657,-2.7637103,8.930014,0.037048545,-0.031444572,0.0098014325
OrientationDeg,1676593538079,30594901716425,258.0,-6.0,3.0
UncalMag,1676593538082,30594904595179,-158.0266,767.40436,388.4358,-174.57417,771.0116,430.86337
Status,0,30,0,6,2,1575420030,38.20,77.0,79.0,1,1,1,34.595673
Status,0,30,1,6,2,1176450050,37.49,77.0,79.0,1,1,1,33.890266
Status,0,30,2,3,17,1604249980,43.97,282.0,74.0,1,1,1,40.369385
Status,0,30,3,1,11,1575420030,43.61,149.0,70.0,1,1,1,40.01363
Status,0,30,4,1,11,1176450050,40.51,149.0,70.0,1,1,1,36.912502
Status,0,30,5,6,36,1575420030,38.13,62.0,68.0,1,1,1,34.52994
Status,0,30,6,6,36,1176450050,33.84,62.0,68.0,1,1,1,30.241894
Status,0,30,7,3,15,1602000000,44.25,329.0,67.0,1,1,1,40.649292
Status,0,30,8,1,12,1575420030,43.92,322.0,57.0,1,1,1,40.3194
Status,0,30,9,3,14,1598062460,44.39,145.0,55.0,1,1,1,40.794598
Status,0,30,10,6,34,1176450050,36.83,202.0,52.0,1,1,1,33.228207
Status,0,30,11,6,34,1575420030,45.02,202.0,52.0,1,1,1,41.42192
Status,0,30,12,1,6,1176450050,38.39,53.0,51.0,1,1,1,34.794983
Status,0,30,13,1,6,1575420030,41.79,53.0,51.0,1,1,1,38.18569
Status,0,30,14,1,24,1575420030,46.80,226.0,45.0,1,1,1,43.19763
Status,0,30,15,1,24,1176450050,38.54,226.0,45.0,1,1,1,34.941425
Status,0,30,16,6,30,1575420030,42.58,314.0,40.0,1,1,1,38.9845
Status,0,30,17,6,30,1176450050,35.99,314.0,40.0,1,1,1,32.392723
Status,0,30,18,3,24,1603124990,41.12,31.0,39.0,1,1,1,37.52113
Status,0,30,19,6,25,1176450050,38.21,121.0,31.0,1,1,1,34.609356
Status,0,30,20,6,25,1575420030,31.50,121.0,31.0,0,1,1,27.89942
Status,0,30,21,1,19,1575420030,39.93,55.0,31.0,0,1,1,36.326317
Status,0,30,22,3,18,1600312450,44.87,231.0,29.0,1,1,1,41.265812
Status,0,30,23,1,25,1176450050,39.48,310.0,28.0,1,1,1,35.88428
Status,0,30,24,1,25,1575420030,42.66,310.0,28.0,1,1,1,39.06291
Status,0,30,25,1,20,1575420030,40.42,147.0,20.0,1,1,1,36.824917
Status,0,30,26,6,11,1575420030,34.06,41.0,19.0,1,1,1,30.461468
Status,0,30,27,6,11,1176450050,29.79,41.0,19.0,1,1,1,26.18706
Status,0,30,28,3,16,1601437440,40.97,327.0,13.0,1,1,1,37.37272
Status,0,30,29,1,29,1575420030,41.54,258.0,10.0,1,1,1,37.93936
UncalGyro,1676593538088,30594910196507,-0.9068295,0.25289822,-0.5112942,0.00064348825,-0.0016906147,-0.0003235495
UncalAccel,1676593538088,30594910196507,2.3001008,-2.8205397,9.160323,0.037048545,-0.031444572,0.0098014325
OrientationDeg,1676593538088,30594910196507,258.0,-5.0,4.0
Fix,GPS,37.4312936200,-122.1550236103,-8.370558540241431,0.8044885,3.2648811,312.06384,1676593537999,0.129786,180.0,30594813381000,3.0
UncalMag,1676593538092,30594914592291,-158.295,768.0144,388.58218,-174.57417,771.0116,430.86337
UncalGyro,1676593538096,30594918676671,-0.40011674,0.6058256,-0.2967278,0.00064348825,-0.0016906147,-0.0003235495
UncalAccel,1676593538096,30594918676671,2.4975085,-3.2015967,8.590832,0.037048545,-0.031444572,0.0098014325
OrientationDeg,1676593538096,30594918676671,258.0,-5.0,4.0
Fix,FLP,37.4312911000,-122.1550536000,-16.200000762939453,0.8454498,4.565,273.6516,1676593537689,,,30594511595799,2.9306374
Raw,1676593537999,294043000000,,,-1360628461956766161,0.0,8.184682304707183,171.0,1.0,56,6,0.0,16431,433555929197528,35,30.497217178344727,413.2249051458143,0.740767947121534,16,116867.44226220313,340282346638528860000000000000000000000,1575420030,,,,0,,1,,26.897216796875,0.320142130558394,1.0,0.320142130558394,1.0,C,30594813381000
Raw,1676593537999,294043000000,,,-1360628461956766161,0.0,8.184682304707183,171.0,1.0,56,11,0.0,16431,433555931315368,12,43.61362838745117,-140.8164065854478,0.15,16,-46602.00236159096,340282346638528860000000000000000000000,1575420030,,,,0,,1,,40.01362991333008,-0.20372681261465636,1.0,-0.20372681261465636,1.0,C,30594813381000
Raw,1676593537999,294043000000,,,-1360628461956766161,0.0,8.184682304707183,171.0,1.0,56,12,0.0,16431,433555930130370,15,40.54145812988281,-289.21264925419905,0.15,16,-87992.17815056334,340282346638528860000000000000000000000,1575420030,,,,0,,1,,36.94145965576172,-0.6984919076624261,1.0,-0.6984919076624261,1.0,C,30594813381000
Raw,1676593537999,294043000000,,,-1360628461956766161,0.0,8.184682304707183,171.0,1.0,56,19,0.0,16430,433555925112667,1000000000,32.66831970214844,539.5960078533733,299792458,16,157114.84782428876,340282346638528860000000000000000000000,1575420030,,,,0,,1,,29.068321228027344,0.0,1.0,0.0,1.0,C,30594813381000
Raw,1676593537999,294043000000,,,-1360628461956766161,0.0,8.184682304707183,171.0,1.0,56,20,0.0,16431,433555920840185,27,33.72334671020508,-519.1058735690553,0.5977866500572149,16,-152942.3247812836,340282346638528860000000000000000000000,1575420030,,,,1,,1,,30.123348236083984,0.0,1.0,0.0,1.0,C,30594813381000
Raw,1676593537999,294043000000,,,-1360628461956766161,0.0,8.184682304707183,171.0,1.0,56,24,0.0,16431,433555926794730,13,44.85833740234375,482.4873073739261,0.15,16,137744.6683109675,340282346638528860000000000000000000000,1575420030,,,,0,,1,,41.258338928222656,-0.20372681261465636,1.0,-0.20372681261465636,1.0,C,30594813381000
Raw,1676593537999,294043000000,,,-1360628461956766161,0.0,8.184682304707183,171.0,1.0,56,25,0.0,16431,433555924412789,14,41.68937683105469,-519.0456839508361,0.15,16,-153953.26964919042,340282346638528860000000000000000000000,1575420030,,,,0,,1,,38.089378356933594,-2.0372682255564105,1.0,-2.0372682255564105,1.0,C,30594813381000
Raw,1676593537999,294043000000,,,-1360628461956766161,0.0,8.184682304707183,171.0,1.0,56,29,0.0,16385,433555916497058,76,37.13296890258789,-469.38519310760125,0.15,16,-1876.5214065253858,340282346638528860000000000000000000000,1575420030,,,,0,,1,,33.5329704284668,-0.6984919076624261,1.0,-0.6984919076624261,1.0,C,30594813381000
Raw,1676593537999,294043000000,,,-1360628461956766161,0.0,8.184682304707183,171.0,1.0,56,6,0.0,81921,433555929198084,8,35.43437576293945,413.1010154163539,0.5187494999481155,16,118047.18819757763,340282346638528860000000000000000000000,1176450050,,,,0,,1,,31.83437728881836,1.9208527336454408,1.5559117937205702,1.9208527336454408,1.0,Q,30594813381000
Raw,1676593537999,294043000000,,,-1360628461956766161,0.0,8.184682304707183,171.0,1.0,56,11,0.0,81921,433555931315880,9,38.11200714111328,-140.76419226205485,0.15,16,-47155.46461165738,340282346638528860000000000000000000000,1176450050,,,,0,,1,,34.51200866699219,0.0,1.5559117937205702,0.0,1.0,Q,30594813381000
Raw,1676593537999,294043000000,,,-1360628461956766161,0.0,8.184682304707183,171.0,1.0,56,24,0.0,81921,433555926795246,36,33.6364631652832,482.1405183788065,0.5991673889501761,16,137727.16510705484,340282346638528860000000000000000000000,1176450050,,,,0,,1,,30.03646469116211,3.5215636101095664,1.5559117937205702,3.5215636101095664,1.0,Q,30594813381000
Raw,1676593537999,294043000000,,,-1360628461956766161,0.0,8.184682304707183,171.0,1.0,56,25,0.0,81921,433555924413288,22,31.523208618164062,-518.5730625262343,0.6937697040571322,16,-155520.76260111484,340282346638528860000000000000000000000,1176450050,,,,0,,1,,27.923208236694336,1.0186341127782053,1.5559117937205702,1.0186341127782053,1.0,Q,30594813381000
Raw,1676593537999,294043000000,,,-1360628461956766161,0.0,8.184682304707183,171.0,1.0,56,14,0.0,32995,12337933016571,33,44.394596099853516,495.08660315916995,0.15,16,139824.39762402303,340282346638528860000000000000000000000,1598062460,,,,0,,3,,40.79459762573242,52.1540641784668,2.0000000474974513,52.1540641784668,2.0000000474974513,C,30594813381000
Raw,1676593537999,294043000000,,,-1360628461956766161,0.0,8.184682304707183,171.0,1.0,56,18,0.0,32995,12337927148758,33,44.829315185546875,-537.0851532813379,0.15,16,-160964.92752882052,340282346638528860000000000000000000000,1600312450,,,,0,,3,,41.22931671142578,52.1540641784668,2.0000000474974513,52.1540641784668,2.0000000474974513,C,30594813381000
Raw,1676593537999,294043000000,,,-1360628461956766161,0.0,8.184682304707183,171.0,1.0,56,16,0.0,32867,12337922092942,62,32.05883026123047,-717.125354956062,0.6692659488650832,16,-211003.64850252046,340282346638528860000000000000000000000,1601437440,,,,0,,3,,28.458831787109375,52.1540641784668,2.0000000474974513,52.1540641784668,2.0000000474974513,C,30594813381000
Raw,1676593537999,294043000000,,,-1360628461956766161,0.0,8.184682304707183,171.0,1.0,56,15,0.0,32995,12337934667462,35,39.09459686279297,-264.81047948650814,0.15,16,-83184.07980607964,340282346638528860000000000000000000000,1602000000,,,,0,,3,,35.494598388671875,52.1540641784668,2.0000000474974513,52.1540641784668,2.0000000474974513,C,30594813381000
Raw,1676593537999,294043000000,,,-1360628461956766161,0.0,8.184682304707183,171.0,1.0,56,24,0.0,32995,12337929644403,40,37.48719787597656,648.4430020555119,0.15,16,188678.15207730528,340282346638528860000000000000000000000,1603124990,,,,0,,3,,33.88719940185547,52.1540641784668,2.0000000474974513,52.1540641784668,2.0000000474974513,C,30594813381000
Raw,1676593537999,294043000000,,,-1360628461956766161,0.0,8.184682304707183,171.0,1.0,56,17,0.0,32995,12337935857117,33,43.969383239746094,18.64732142197198,0.15,16,-217.06541520575882,340282346638528860000000000000000000000,1604249980,,,,0,,3,,40.369384765625,52.1540641784668,2.0000000474974513,52.1540641784668,2.0000000474974513,C,30594813381000
Raw,1676593537999,294043000000,,,-1360628461956766161,0.0,8.184682304707183,171.0,1.0,56,2,0.0,85026,433555921991297,19,38.12413787841797,78.6933417313104,0.15,16,20581.276755133607,340282346638528860000000000000000000000,1575420030,,,,0,,6,,34.524139404296875,-5.878973752260207,1.5000000237487257,-5.878973752260207,1.5000000237487257,C,30594813381000
Raw,1676593537999,294043000000,,,-1360628461956766161,0.0,8.184682304707183,171.0,1.0,56,11,0.0,85026,433555911043756,49,26.25701141357422,562.0053934294037,0.9310577574257488,16,163992.81645713878,340282346638528860000000000000000000000,1575420030,,,,0,,6,,22.657011032104492,-5.878973752260207,1.5000000237487257,-5.878973752260207,1.5000000237487257,C,30594813381000
Raw,1676593537999,294043000000,,,-1360628461956766161,0.0,8.184682304707183,171.0,1.0,56,25,0.0,85026,433555912940432,60,24.983154296875,456.50263802619634,299.7933433869664,16,130459.32075942315,340282346638528860000000000000000000000,1575420030,,,,0,,6,,21.383153915405273,-5.878973752260207,1.5000000237487257,-5.878973752260207,1.5000000237487257,C,30594813381000
Raw,1676593537999,294043000000,,,-1360628461956766161,0.0,8.184682304707183,171.0,1.0,56,30,0.0,85026,433555914798518,19,37.65404510498047,-340.9783111894783,0.15,16,-101612.10469042828,340282346638528860000000000000000000000,1575420030,,,,0,,6,,34.054046630859375,-5.878973752260207,1.5000000237487257,-5.878973752260207,1.5000000237487257,C,30594813381000
Raw,1676593537999,294043000000,,,-1360628461956766161,0.0,8.184682304707183,171.0,1.0,56,34,0.0,85026,433555918630501,16,42.731414794921875,-331.5067965217893,0.15,16,-100337.10912905341,340282346638528860000000000000000000000,1575420030,,,,0,,6,,39.13141632080078,-5.878973752260207,1.5000000237487257,-5.878973752260207,1.5000000237487257,C,30594813381000
Raw,1676593537999,294043000000,,,-1360628461956766161,0.0,8.184682304707183,171.0,1.0,56,36,0.0,85026,433555921007169,20,37.20570755004883,195.6019616221589,0.15,16,53922.700702761824,340282346638528860000000000000000000000,1575420030,,,,0,,6,,33.605709075927734,-5.878973752260207,1.5000000237487257,-5.878973752260207,1.5000000237487257,C,30594813381000
Raw,1676593537999,294043000000,,,-1360628461956766161,0.0,8.184682304707183,171.0,1.0,56,2,0.0,84003,433555921991768,8,37.490264892578125,78.60905581632949,0.15,16,20591.52033036377,340282346638528860000000000000000000000,1176450050,,,,0,,6,,33.89026641845703,-4.216632805764675,2.055911817469296,-4.216632805764675,1.5000000237487257,Q,30594813381000
Raw,1676593537999,294043000000,,,-1360628461956766161,0.0,8.184682304707183,171.0,1.0,56,11,0.0,84003,433555911044290,37,26.870159149169922,561.0893251629836,0.9042048422909459,16,166905.4072841696,340282346638528860000000000000000000000,1176450050,,,,0,,6,,23.270158767700195,4.279776476323602,2.055911817469296,4.279776476323602,1.5000000237487257,Q,30594813381000
Raw,1676593537999,294043000000,,,-1360628461956766161,0.0,8.184682304707183,171.0,1.0,56,25,0.0,84003,433555912940954,9,38.209354400634766,449.3833581778856,0.15,16,131135.7184258764,340282346638528860000000000000000000000,1176450050,,,,0,,6,,34.60935592651367,-8.649541996419428,2.055911817469296,-8.649541996419428,1.5000000237487257,Q,30594813381000
Raw,1676593537999,294043000000,,,-1360628461956766161,0.0,8.184682304707183,171.0,1.0,56,30,0.0,84003,433555914799028,7,33.58003234863281,-341.213173397377,0.603144718432171,16,-102079.7456146912,340282346638528860000000000000000000000,1176450050,,,,0,,6,,29.98003387451172,-8.2801328971982,2.055911817469296,-8.2801328971982,1.5000000237487257,Q,30594813381000
Raw,1676593537999,294043000000,,,-1360628461956766161,0.0,8.184682304707183,171.0,1.0,56,34,0.0,84003,433555918630969,36,28.669614791870117,-330.15017842235534,0.8246499983061084,16,-101160.53402157483,340282346638528860000000000000000000000,1176450050,,,,0,,6,,25.06961441040039,-9.942473843693731,2.055911817469296,-9.942473843693731,1.5000000237487257,Q,30594813381000
Raw,1676593537999,294043000000,,,-1360628461956766161,0.0,8.184682304707183,171.0,1.0,56,36,0.0,84003,433555921007679,16,31.2506046295166,195.34371884908558,0.7090133490061508,16,54136.75083594028,340282346638528860000000000000000000000,1176450050,,,,0,,6,,27.650604248046875,-10.865996591746804,2.055911817469296,-10.865996591746804,1.5000000237487257,Q,30594813381000
UncalMag,1676593538102,30594924595424,-157.7704,768.0144,388.3382,-174.57417,771.0116,430.86337
UncalGyro,1676593538105,30594927148188,0.13164146,0.9014844,0.00015271631,0.00064348825,-0.0016906147,-0.0003235495
UncalAccel,1676593538105,30594927148188,3.531208,-3.5826538,8.155337,0.037048545,-0.031444572,0.0098014325
OrientationDeg,1676593538105,30594927148188,258.0,-5.0,4.0
UncalMag,1676593538112,30594934584764,-157.3922,767.502,388.448,-174.57417,771.0116,430.86337
UncalGyro,1676593538113,30594935640306,0.6079636,1.1157454,0.41416663,0.00064348825,-0.0016906147,-0.0003235495
UncalAccel,1676593538113,30594935640306,4.62413,-3.64726,7.838289,0.037048545,-0.031444572,0.0098014325
OrientationDeg,1676593538113,30594935640306,258.0,-4.0,4.0
UncalGyro,1676593538122,30594944117112,1.0050261,1.1018482,0.86727595,0.00064348825,-0.0016906147,-0.0003235495
UncalAccel,1676593538122,30594944117112,4.784449,-2.9210382,7.004988,0.037048545,-0.031444572,0.0098014325
OrientationDeg,1676593538122,30594944117112,257.0,-4.0,3.0
UncalMag,1676593538122,30594944583421,-156.4894,766.9286,389.0092,-174.57417,771.0116,430.86337
UncalGyro,1676593538130,30594952601446,1.322676,0.9611965,1.1624765,0.00064348825,-0.0016906147,-0.0003235495
UncalAccel,1676593538130,30594952601446,3.559922,-0.8249256,6.218348,0.037048545,-0.031444572,0.0098014325
OrientationDeg,1676593538130,30594952601446,257.0,-3.0,2.0
UncalMag,1676593538132,30594954594123,-156.6358,766.1234,388.58218,-174.57417,771.0116,430.86337
UncalGyro,1676593538139,30594961077490,1.6178766,0.9472993,1.206917,0.00064348825,-0.0016906147,-0.0003235495
UncalAccel,1676593538139,30594961077490,2.0368903,1.5696917,6.6927247,0.037048545,-0.031444572,0.0098014325
OrientationDeg,1676593538139,30594961077490,256.0,-3.0,2.0
UncalMag,1676593538142,30594964595059,-156.6358,766.1234,388.58218,-174.57417,771.0116,430.86337
UncalGyro,1676593538147,30594969563523,1.8863518,1.0328205,1.0494665,0.00064348825,-0.0016906147,-0.0003235495
UncalAccel,1676593538147,30594969563523,0.92243314,3.0801609,7.5750785,0.037048545,-0.031444572,0.0098014325
OrientationDeg,1676593538147,30594969563523,256.0,-2.0,1.0
UncalMag,1676593538152,30594974584887,-155.31819,763.81757,389.0824,-174.57417,771.0116,430.86337
UncalGyro,1676593538156,30594978046464,1.9969184,1.3501649,0.8593347,0.00064348825,-0.0016906147,-0.0003235495
UncalAccel,1676593538156,30594978046464,1.0899308,2.8983064,10.870593,0.037048545,-0.031444572,0.0098014325
OrientationDeg,1676593538157,30594978046464,255.0,-2.0,0.0
UncalMag,1676593538162,30594984595141,-155.02539,763.48816,389.485,-174.57417,771.0116,430.86337
UncalGyro,1676593538164,30594986524838,1.7847955,0.9392053,0.6076582,0.00064348825,-0.0016906147,-0.0003235495
UncalAccel,1676593538164,30594986524838,-0.6687939,3.4648073,6.474978,0.037048545,-0.031444572,0.0098014325
OrientationDeg,1676593538164,30594986524838,255.0,-1.0,0.0
UncalMag,1676593538172,30594994584765,-154.84239,763.0856,390.4732,-174.57417,771.0116,430.86337
UncalGyro,1676593538173,30594995005104,1.289842,0.029626964,0.22449298,0.00064348825,-0.0016906147,-0.0003235495
UncalAccel,1676593538173,30594995005104,-1.2197413,4.1228333,6.1387863,0.037048545,-0.031444572,0.0098014325
OrientationDeg,1676593538173,30594995005104,255.0,-1.0,-1.0
UncalGyro,1676593538181,30595003482999,0.6783658,-0.5902485,-0.19486602,0.00064348825,-0.0016906147,-0.0003235495
UncalAccel,1676593538181,30595003482999,-0.76271224,4.9674997,9.645468,0.037048545,-0.031444572,0.0098014325
UncalMag,1676593538182,30595004584684,-155.15959,762.8904,390.1926,-174.57417,771.0116,430.86337
OrientationDeg,1676593538181,30595003482999,255.0,-1.0,-1.0
UncalGyro,1676593538189,30595011966987,0.049632803,-0.77640975,-0.5326745,0.00064348825,-0.0016906147,-0.0003235495
UncalAccel,1676593538189,30595011966987,0.5204389,4.082155,11.318649,0.037048545,-0.031444572,0.0098014325
OrientationDeg,1676593538189,30595011966987,255.0,-2.0,-1.0
UncalMag,1676593538192,30595014595141,-155.1718,762.7928,389.6802,-174.57417,771.0116,430.86337
UncalGyro,1676593538198,30595020449501,-0.5308419,-0.93767816,-0.75411314,0.00064348825,-0.0016906147,-0.0003235495
UncalAccel,1676593538198,30595020449501,2.41376,2.1361923,10.219148,0.037048545,-0.031444572,0.0098014325
OrientationDeg,1676593538198,30595020449501,255.0,-2.0,-1.0
UncalMag,1676593538202,30595024595223,-155.9038,762.7684,389.5704,-174.57417,771.0116,430.86337
UncalGyro,1676593538206,30595028928495,-0.9601275,-1.1890492,-0.79366666,0.00064348825,-0.0016906147,-0.0003235495
UncalAccel,1676593538206,30595028928495,4.278367,1.1377872,9.744172,0.037048545,-0.031444572,0.0098014325
OrientationDeg,1676593538206,30595028928495,256.0,-3.0,-1.0
UncalMag,1676593538212,30595034587411,-156.0746,763.37836,389.607,-174.57417,771.0116,430.86337
UncalGyro,1676593538215,30595037424721,-1.2023355,-1.2899947,-0.659429,0.00064348825,-0.0016906147,-0.0003235495
UncalAccel,1676593538215,30595037424721,5.480162,0.22492532,10.243673,0.037048545,-0.031444572,0.0098014325
OrientationDeg,1676593538215,30595037424721,256.0,-4.0,0.0
UncalMag,1676593538222,30595044594898,-156.24539,763.9762,389.1434,-174.57417,771.0116,430.86337
UncalGyro,1676593538223,30595045888426,-1.2907583,-1.1678216,-0.42394048,0.00064348825,-0.0016906147,-0.0003235495
UncalAccel,1676593538223,30595045888426,6.16092,-0.6197411,10.629517,0.037048545,-0.031444572,0.0098014325
OrientationDeg,1676593538223,30595045888426,256.0,-4.0,0.0
UncalGyro,1676593538232,30595054372007,-1.258077,-0.8901834,-0.15271631,0.00064348825,-0.0016906147,-0.0003235495
UncalAccel,1676593538232,30595054372007,6.337989,-0.83389866,10.741381,0.037048545,-0.031444572,0.0098014325
UncalMag,1676593538232,30595054579070,-157.33119,764.97656,388.57,-174.57417,771.0116,430.86337
OrientationDeg,1676593538232,30595054372007,257.0,-5.0,0.0
UncalGyro,1676593538240,30595062856109,-1.1496484,-0.57894754,0.11927144,0.00064348825,-0.0016906147,-0.0003235495
UncalAccel,1676593538240,30595062856109,6.0376897,-0.7543373,10.562517,0.037048545,-0.031444572,0.0098014325
OrientationDeg,1676593538240,30595062856109,257.0,-5.0,1.0
UncalMag,1676593538242,30595064584360,-157.4288,765.1718,389.21658,-174.57417,771.0116,430.86337
UncalGyro,1676593538249,30595071333312,-1.0059423,-0.29626966,0.33368513,0.00064348825,-0.0016906147,-0.0003235495
UncalAccel,1676593538249,30595071333312,5.252246,-0.49052864,10.47518,0.037048545,-0.031444572,0.0098014325
OrientationDeg,1676593538249,30595071333312,256.0,-5.0,1.0
UncalMag,1676593538252,30595074595306,-157.48979,765.94037,388.8018,-174.57417,771.0116,430.86337
UncalGyro,1676593538257,30595079814961,-0.84971356,-0.08353582,0.45753807,0.00064348825,-0.0016906147,-0.0003235495
UncalAccel,1676593538257,30595079814961,4.313661,-0.14177474,10.419546,0.037048545,-0.031444572,0.0098014325
OrientationDeg,1676593538257,30595079814961,256.0,-5.0,2.0
UncalMag,1676593538262,30595084584360,-157.48979,765.9526,389.1678,-174.57417,771.0116,430.86337
UncalGyro,1676593538266,30595088296884,-0.70906186,0.03268129,0.49693888,0.00064348825,-0.0016906147,-0.0003235495
UncalAccel,1676593538266,30595088296884,3.5377884,0.23150559,10.29811,0.037048545,-0.031444572,0.0098014325
OrientationDeg,1676593538266,30595088296884,256.0,-5.0,2.0
UncalMag,1676593538272,30595094584320,-157.6606,766.46497,388.8018,-174.57417,771.0116,430.86337
UncalGyro,1676593538274,30595096777404,-0.6088799,0.0693332,0.47250426,0.00064348825,-0.0016906147,-0.0003235495
UncalAccel,1676593538274,30595096777404,2.9485557,0.5204389,10.22154,0.037048545,-0.031444572,0.0098014325
OrientationDeg,1676593538274,30595096777404,256.0,-5.0,2.0
UncalMag,1676593538282,30595104595022,-157.4776,765.916,387.7038,-174.57417,771.0116,430.86337
UncalGyro,1676593538283,30595105248383,-0.5535966,0.06612616,0.40775254,0.00064348825,-0.0016906147,-0.0003235495
UncalAccel,1676593538283,30595105248383,2.5501506,0.7860422,10.217353,0.037048545,-0.031444572,0.0098014325
OrientationDeg,1676593538283,30595105248383,256.0,-5.0,3.0
UncalGyro,1676593538291,30595113738617,-0.54412824,0.061086524,0.3061962,0.00064348825,-0.0016906147,-0.0003235495
UncalAccel,1676593538291,30595113738617,2.2660031,0.99003035,10.3340025,0.037048545,-0.031444572,0.0098014325
OrientationDeg,1676593538291,30595113738617,256.0,-5.0,3.0
UncalMag,1676593538292,30595114584524,-157.96559,766.5138,387.8624,-174.57417,771.0116,430.86337
UncalGyro,1676593538300,30595122219604,-0.56428677,0.04337143,0.18096884,0.00064348825,-0.0016906147,-0.0003235495
UncalAccel,1676593538300,30595122219604,2.0751755,0.89312106,10.390234,0.037048545,-0.031444572,0.0098014325
OrientationDeg,1676593538300,30595122219604,255.0,-5.0,3.0
UncalMag,1676593538302,30595124595144,-158.25839,766.9652,388.3382,-174.57417,771.0116,430.86337
UncalGyro,1676593538308,30595130700277,-0.5925393,-0.011301007,0.056046885,0.00064348825,-0.0016906147,-0.0003235495
UncalAccel,1676593538308,30595130700277,2.0338993,0.61016977,10.3441725,0.037048545,-0.031444572,0.0098014325
OrientationDeg,1676593538308,30595130700277,255.0,-5.0,4.0
UncalMag,1676593538312,30595134595144,-157.7826,767.8192,387.8014,-174.57417,771.0116,430.86337
UncalGyro,1676593538317,30595139171092,-0.6073528,-0.087201014,-0.043676864,0.00064348825,-0.0016906147,-0.0003235495
UncalAccel,1676593538317,30595139171092,2.0165513,0.25124636,10.312468,0.037048545,-0.031444572,0.0098014325
OrientationDeg,1676593538317,30595139171092,256.0,-5.0,4.0
UncalMag,1676593538322,30595144584240,-157.9778,768.1852,388.2528,-174.57417,771.0116,430.86337
UncalGyro,1676593538325,30595147663249,-0.59666264,-0.15088372,-0.11255192,0.00064348825,-0.0016906147,-0.0003235495
UncalAccel,1676593538325,30595147663249,1.9657038,-0.16630118,10.409377,0.037048545,-0.031444572,0.0098014325
OrientationDeg,1676593538325,30595147663249,256.0,-5.0,4.0
UncalMag,1676593538332,30595154594982,-158.2218,767.563,388.1186,-174.57417,771.0116,430.86337
UncalGyro,1676593538334,30595156140565,-0.54733527,-0.16768251,-0.13897185,0.00064348825,-0.0016906147,-0.0003235495
UncalAccel,1676593538334,30595156140565,1.9776679,-0.85124665,10.584651,0.037048545,-0.031444572,0.0098014325
OrientationDeg,1676593538334,30595156140565,256.0,-5.0,4.0
UncalMag,1676593538342,30595164595145,-157.33119,768.417,387.09378,-174.57417,771.0116,430.86337
UncalGyro,1676593538342,30595164615988,-0.441961,-0.12675454,-0.09621128,0.00064348825,-0.0016906147,-0.0003235495
UncalAccel,1676593538342,30595164615988,2.1678972,-1.625923,10.575678,0.037048545,-0.031444572,0.0098014325
OrientationDeg,1676593538342,30595164615988,256.0,-5.0,5.0
UncalGyro,1676593538351,30595173107179,-0.34315357,-0.101098195,-0.022602014,0.00064348825,-0.0016906147,-0.0003235495
UncalAccel,1676593538351,30595173107179,2.3234308,-1.811965,10.405787,0.037048545,-0.031444572,0.0098014325
UncalMag,1676593538352,30595174584688,-158.295,768.0876,388.2406,-174.57417,771.0116,430.86337
OrientationDeg,1676593538351,30595173107179,256.0,-5.0,5.0
UncalGyro,1676593538359,30595181586315,-0.25060746,-0.115453534,0.07192938,0.00064348825,-0.0016906147,-0.0003235495
UncalAccel,1676593538359,30595181586315,2.315654,-1.9453648,10.2682,0.037048545,-0.031444572,0.0098014325
OrientationDeg,1676593538359,30595181586315,256.0,-6.0,5.0
UncalMag,1676593538362,30595184595105,-157.96559,768.35596,388.1796,-174.57417,771.0116,430.86337
UncalGyro,1676593538368,30595190066001,-0.14095716,-0.13729197,0.16982053,0.00064348825,-0.0016906147,-0.0003235495
UncalAccel,1676593538368,30595190066001,2.076372,-2.0859432,10.362717,0.037048545,-0.031444572,0.0098014325
OrientationDeg,1676593538368,30595190066001,256.0,-6.0,5.0
UncalMag,1676593538372,30595194584689,-157.7704,768.0876,387.9844,-174.57417,771.0116,430.86337
UncalGyro,1676593538376,30595198548820,-0.01985312,-0.13271047,0.25045475,0.00064348825,-0.0016906147,-0.0003235495
UncalAccel,1676593538376,30595198548820,1.8029919,-1.9776679,10.398609,0.037048545,-0.031444572,0.0098014325
OrientationDeg,1676593538376,30595198548820,256.0,-6.0,5.0
UncalMag,1676593538382,30595204595187,-158.3804,768.3316,387.5818,-174.57417,771.0116,430.86337
UncalGyro,1676593538385,30595207029899,0.10125092,-0.12034045,0.30833423,0.00064348825,-0.0016906147,-0.0003235495
UncalAccel,1676593538385,30595207029899,1.5678971,-1.6630118,10.295119,0.037048545,-0.031444572,0.0098014325
OrientationDeg,1676593538385,30595207029899,255.0,-6.0,5.0
UncalMag,1676593538392,30595214595187,-157.67279,767.99,387.594,-174.57417,771.0116,430.86337
UncalGyro,1676593538393,30595215509432,0.21975878,-0.08506299,0.32818735,0.00064348825,-0.0016906147,-0.0003235495
UncalAccel,1676593538393,30595215509432,1.2831511,-1.3052847,10.353744,0.037048545,-0.031444572,0.0098014325
OrientationDeg,1676593538393,30595215509432,255.0,-6.0,5.0
UncalGyro,1676593538401,30595223991040,0.31795537,-0.03191771,0.31245756,0.00064348825,-0.0016906147,-0.0003235495
UncalAccel,1676593538401,30595223991040,1.1102697,-1.0815558,10.289138,0.037048545,-0.031444572,0.0098014325
UncalMag,1676593538402,30595224588596,-157.8924,767.83136,387.9234,-174.57417,771.0116,430.86337
OrientationDeg,1676593538401,30595223991040,255.0,-6.0,5.0
UncalGyro,1676593538410,30595232472109,0.3846924,0.02687807,0.27916542,0.00064348825,-0.0016906147,-0.0003235495
UncalAccel,1676593538410,30595232472109,0.99601245,-0.94755775,10.177871,0.037048545,-0.031444572,0.0098014325
UncalMag,1676593538412,30595234584445,-157.868,768.27057,388.0332,-174.57417,771.0116,430.86337
OrientationDeg,1676593538410,30595232472109,255.0,-6.0,5.0
UncalGyro,1676593538418,30595240953118,0.42256603,0.063224554,0.23014349,0.00064348825,-0.0016906147,-0.0003235495
UncalAccel,1676593538418,30595240953118,0.8817552,-0.948156,10.067801,0.037048545,-0.031444572,0.0098014325
OrientationDeg,1676593538418,30595240953118,255.0,-6.0,4.0
UncalMag,1676593538422,30595244602878,-158.0266,767.3922,388.1918,-174.57417,771.0116,430.86337
UncalGyro,1676593538427,30595249420800,0.45097128,0.06582073,0.17638734,0.00064348825,-0.0016906147,-0.0003235495
UncalAccel,1676593538427,30595249420800,0.7106683,-1.0019945,9.966704,0.037048545,-0.031444572,0.0098014325
OrientationDeg,1676593538427,30595249420800,255.0,-6.0,4.0
UncalMag,1676593538433,30595254585219,-157.80699,767.563,387.7404,-174.57417,771.0116,430.86337
UncalGyro,1676593538435,30595257914381,0.4841107,0.04627304,0.11575896,0.00064348825,-0.0016906147,-0.0003235495
UncalAccel,1676593538435,30595257914381,0.6299106,-1.1653047,9.962517,0.037048545,-0.031444572,0.0098014325
OrientationDeg,1676593538435,30595257914381,255.0,-6.0,4.0
UncalMag,1676593538442,30595264595107,-158.5634,767.0262,387.99658,-174.57417,771.0116,430.86337
UncalGyro,1676593538444,30595266389967,0.5326745,0.031612277,0.07238753,0.00064348825,-0.0016906147,-0.0003235495
UncalAccel,1676593538444,30595266389967,0.6945168,-1.4811572,9.892527,0.037048545,-0.031444572,0.0098014325
OrientationDeg,1676593538444,30595266389967,255.0,-6.0,4.0
UncalMag,1676593538452,30595274595026,-158.25839,766.8554,387.7038,-174.57417,771.0116,430.86337
UncalGyro,1676593538452,30595274872858,0.5870415,0.026419923,0.055436023,0.00064348825,-0.0016906147,-0.0003235495
UncalAccel,1676593538452,30595274872858,0.9553344,-1.6851454,9.714262,0.037048545,-0.031444572,0.0098014325
OrientationDeg,1676593538452,30595274872858,255.0,-6.0,3.0
UncalGyro,1676593538461,30595283359725,0.6453791,0.0290161,0.060170226,0.00064348825,-0.0016906147,-0.0003235495
UncalAccel,1676593538461,30595283359725,1.1772687,-1.8604196,9.601799,0.037048545,-0.031444572,0.0098014325
UncalMag,1676593538462,30595284584691,-158.5634,767.1238,388.021,-174.57417,771.0116,430.86337
OrientationDeg,1676593538461,30595283359725,254.0,-6.0,3.0
UncalGyro,1676593538469,30595291841882,0.7151705,0.03863723,0.08399397,0.00064348825,-0.0016906147,-0.0003235495
UncalAccel,1676593538469,30595291841882,1.3597214,-2.012962,9.5557375,0.037048545,-0.031444572,0.0098014325
UncalMag,1676593538472,30595294591649,-157.9778,766.4284,387.716,-174.57417,771.0116,430.86337
OrientationDeg,1676593538469,30595291841882,254.0,-6.0,3.0
UncalGyro,1676593538478,30595300322250,0.77182823,0.04642576,0.12797627,0.00064348825,-0.0016906147,-0.0003235495
UncalAccel,1676593538478,30595300322250,1.4991034,-2.0500507,9.556933,0.037048545,-0.031444572,0.0098014325
OrientationDeg,1676593538478,30595300322250,254.0,-5.0,2.0
UncalMag,1676593538482,30595304590673,-158.4048,766.34296,388.1918,-174.57417,771.0116,430.86337
UncalGyro,1676593538486,30595308800165,0.79519385,0.05757405,0.1928807,0.00064348825,-0.0016906147,-0.0003235495
UncalAccel,1676593538486,30595308800165,1.5559329,-2.1218355,9.634102,0.037048545,-0.031444572,0.0098014325
OrientationDeg,1676593538486,30595308800165,254.0,-5.0,2.0
UncalMag,1676593538492,30595314595068,-158.4536,765.4768,388.3504,-174.57417,771.0116,430.86337
UncalGyro,1676593538495,30595317278273,0.7800749,0.07467828,0.26648995,0.00064348825,-0.0016906147,-0.0003235495
UncalAccel,1676593538495,30595317278273,1.5972091,-2.0644078,9.796216,0.037048545,-0.031444572,0.0098014325
OrientationDeg,1676593538495,30595317278273,254.0,-5.0,2.0
UncalMag,1676593538502,30595324595231,-157.9412,765.2084,387.78918,-174.57417,771.0116,430.86337
UncalGyro,1676593538503,30595325757431,0.7263188,0.08246681,0.32895094,0.00064348825,-0.0016906147,-0.0003235495
UncalAccel,1676593538503,30595325757431,1.5332011,-1.9884356,10.01516,0.037048545,-0.031444572,0.0098014325
OrientationDeg,1676593538503,30595325757431,254.0,-5.0,1.0
UncalGyro,1676593538512,30595334243118,0.65133506,0.09285152,0.38255435,0.00064348825,-0.0016906147,-0.0003235495
UncalAccel,1676593538512,30595334243118,1.4404793,-1.975275,10.238888,0.037048545,-0.031444572,0.0098014325
UncalMag,1676593538512,30595334605851,-158.0632,764.9888,389.31418,-174.57417,771.0116,430.86337
OrientationDeg,1676593538512,30595334243118,254.0,-5.0,1.0
UncalGyro,1676593538520,30595342726517,0.5626069,0.079870634,0.40943244,0.00064348825,-0.0016906147,-0.0003235495
UncalAccel,1676593538520,30595342726517,1.4733806,-1.8646071,10.286146,0.037048545,-0.031444572,0.0098014325
OrientationDeg,1676593538520,30595342726517,253.0,-5.0,1.0
UncalMag,1676593538522,30595344584692,-158.1852,764.6716,387.5452,-174.57417,771.0116,430.86337
UncalGyro,1676593538529,30595351205511,0.48181996,0.06627888,0.42210788,0.00064348825,-0.0016906147,-0.0003235495
UncalAccel,1676593538529,30595351205511,1.5391831,-1.8981066,10.472787,0.037048545,-0.031444572,0.0098014325
UncalMag,1676593538532,30595354602108,-158.12419,764.1104,388.9848,-174.57417,771.0116,430.86337
OrientationDeg,1676593538529,30595351205511,253.0,-5.0,1.0
UncalGyro,1676593538537,30595359685461,0.42103887,0.068264194,0.4334089,0.00064348825,-0.0016906147,-0.0003235495
