# 
# Header Description:
# 
# Version: v3.0.5.6 Platform: 13 Manufacturer: Google Model: Pixel 6
# 
# Raw,utcTimeMillis,TimeNanos,LeapSecond,TimeUncertaintyNanos,FullBiasNanos,BiasNanos,BiasUncertaintyNanos,DriftNanosPerSecond,DriftUncertaintyNanosPerSecond,HardwareClockDiscontinuityCount,Svid,TimeOffsetNanos,State,ReceivedSvTimeNanos,ReceivedSvTimeUncertaintyNanos,Cn0DbHz,PseudorangeRateMetersPerSecond,PseudorangeRateUncertaintyMetersPerSecond,AccumulatedDeltaRangeState,AccumulatedDeltaRangeMeters,AccumulatedDeltaRangeUncertaintyMeters,CarrierFrequencyHz,CarrierCycles,CarrierPhase,CarrierPhaseUncertainty,MultipathIndicator,SnrInDb,ConstellationType,AgcDb,BasebandCn0DbHz,FullInterSignalBiasNanos,FullInterSignalBiasUncertaintyNanos,SatelliteInterSignalBiasNanos,SatelliteInterSignalBiasUncertaintyNanos,CodeType,ChipsetElapsedRealtimeNanos
# 
# UncalAccel,utcTimeMillis,elapsedRealtimeNanos,UncalAccelXMps2,UncalAccelYMps2,UncalAccelZMps2,BiasXMps2,BiasYMps2,BiasZMps2
# 
# Accel,utcTimeMillis,elapsedRealtimeNanos,AccelXMps2,AccelYMps2,AccelZMps2
# 
# UncalGyro,utcTimeMillis,elapsedRealtimeNanos,UncalGyroXRadPerSec,UncalGyroYRadPerSec,UncalGyroZRadPerSec,DriftXRadPerSec,DriftYRadPerSec,DriftZRadPerSec
# 
# Gyro,utcTimeMillis,elapsedRealtimeNanos,GyroXRadPerSec,GyroYRadPerSec,GyroZRadPerSec
# 
# UncalMag,utcTimeMillis,elapsedRealtimeNanos,UncalMagXMicroT,UncalMagYMicroT,UncalMagZMicroT,BiasXMicroT,BiasYMicroT,BiasZMicroT
# 
# Mag,utcTimeMillis,elapsedRealtimeNanos,MagXMicroT,MagYMicroT,MagZMicroT
# 
# OrientationDeg,utcTimeMillis,elapsedRealtimeNanos,yawDeg,rollDeg,pitchDeg
# 
# Fix,Provider,LatitudeDegrees,LongitudeDegrees,AltitudeMeters,SpeedMps,AccuracyMeters,BearingDegrees,UnixTimeMillis,SpeedAccuracyMps,BearingAccuracyDegrees,elapsedRealtimeNanos,VerticalAccuracyMeters
# 
# Nav,Svid,Type,Status,MessageId,Sub-messageId,Data(Bytes)
# 
# Status,UnixTimeMillis,SignalCount,SignalIndex,ConstellationType,Svid,CarrierFrequencyHz,Cn0DbHz,AzimuthDegrees,ElevationDegrees,UsedInFix,HasAlmanacData,HasEphemerisData,BasebandCn0DbHz
# 
UncalGyro,1676594081817,121585447309276,-1.1029172,0.30970868,0.25411993,0.00047011633,-0.0010120582,-0.0032427395
UncalAccel,1676594081821,121585451795787,-1.1617154,1.2496517,8.868998,0.006110925,-0.043260336,-0.038735468
UncalMag,1676594081820,121585451925304,-51.874397,-24.5952,-113.5088,-47.771046,2.9698257,-64.15999
UncalGyro,1676594081825,121585456289378,-1.135904,0.29123,0.5019785,0.00047011633,-0.0010120582,-0.0032427395
Fix,FLP,37.4313000000,-122.1550128000,-16.5,0.10346234,8.667,179.86469,1676594080963,,,121584594275112,2.2891269
UncalAccel,1676594081829,121585460790416,-0.59700924,0.85842514,9.798609,0.006110925,-0.043260336,-0.038735468
OrientationDeg,1676594081829,121585460790416,177.0,0.0,-5.0
UncalMag,1676594081831,121585461927257,-51.874397,-24.5952,-113.5088,-47.771046,2.9698257,-64.15999
UncalGyro,1676594081834,121585465283825,-1.163851,0.43172902,0.7162395,0.00047011633,-0.0010120582,-0.0032427395
UncalAccel,1676594081839,121585469771251,0.0047856453,0.116650105,10.326824,0.006110925,-0.043260336,-0.038735468
OrientationDeg,1676594081839,121585469771251,176.0,0.0,-4.0
UncalMag,1676594081841,121585471927746,-49.153797,-23.0336,-108.2018,-47.771046,2.9698257,-64.15999
UncalGyro,1676594081843,121585474259105,-1.2038627,0.6301075,0.91736686,0.00047011633,-0.0010120582,-0.0032427395
UncalAccel,1676594081848,121585478747631,-0.0059820567,-0.28594232,10.987244,0.006110925,-0.043260336,-0.038735468
OrientationDeg,1676594081848,121585478747631,176.0,0.0,-3.0
UncalMag,1676594081851,121585481927501,-46.652798,-21.1426,-106.811,-47.771046,2.9698257,-64.15999
UncalGyro,1676594081852,121585483239147,-1.2652546,0.9204212,1.0926852,0.00047011633,-0.0010120582,-0.0032427395
UncalAccel,1676594081857,121585487727977,-0.07537391,-0.46301118,11.233705,0.006110925,-0.043260336,-0.038735468
OrientationDeg,1676594081856,121585487727977,175.0,0.0,-3.0
UncalMag,1676594081861,121585491927501,-48.1168,-21.167,-108.6898,-47.771046,2.9698257,-64.15999
UncalGyro,1676594081862,121585492218883,-1.3278683,1.2348641,1.2315043,0.00047011633,-0.0010120582,-0.0032427395
UncalAccel,1676594081865,121585496707957,-0.083748795,-0.36670008,11.13859,0.006110925,-0.043260336,-0.038735468
OrientationDeg,1676594081866,121585496707957,174.0,0.0,-2.0
UncalGyro,1676594081870,121585501200756,-1.3782647,1.4891367,1.3281738,0.00047011633,-0.0010120582,-0.0032427395
UncalMag,1676594081871,121585501927501,-48.251,-21.2402,-107.4088,-47.771046,2.9698257,-64.15999
UncalAccel,1676594081875,121585505687145,-0.05802595,0.15553348,10.593624,0.006110925,-0.043260336,-0.038735468
OrientationDeg,1676594081874,121585505687145,174.0,1.0,-1.0
UncalGyro,1676594081879,121585510178417,-1.3839152,1.5609134,1.3614659,0.00047011633,-0.0010120582,-0.0032427395
UncalMag,1676594081881,121585511918712,-47.3726,-20.496,-108.214,-47.771046,2.9698257,-64.15999
UncalAccel,1676594081883,121585514666575,0.20997019,0.9924232,9.726824,0.006110925,-0.043260336,-0.038735468
OrientationDeg,1676594081884,121585514666575,173.0,2.0,-1.0
UncalGyro,1676594081888,121585519158092,-1.2962561,1.3180945,1.3347405,0.00047011633,-0.0010120582,-0.0032427395
UncalMag,1676594081891,121585521927746,-47.592197,-19.6542,-108.9948,-47.771046,2.9698257,-64.15999
UncalAccel,1676594081892,121585523646556,-0.20219351,0.11724831,8.810373,0.006110925,-0.043260336,-0.038735468
OrientationDeg,1676594081892,121585523646556,172.0,2.0,0.0
UncalGyro,1676594081897,121585528137523,-1.0893254,0.8219192,1.3603969,0.00047011633,-0.0010120582,-0.0032427395
UncalMag,1676594081900,121585531927501,-46.0916,-19.093,-108.641,-47.771046,2.9698257,-64.15999
UncalAccel,1676594081902,121585532626537,-0.13519448,0.05922236,9.71127,0.006110925,-0.043260336,-0.038735468
OrientationDeg,1676594081901,121585532626537,171.0,3.0,0.0
UncalGyro,1676594081906,121585537118297,-0.79290307,0.48915035,1.3927728,0.00047011633,-0.0010120582,-0.0032427395
UncalAccel,1676594081911,121585541606029,0.05922236,-0.06580263,10.650454,0.006110925,-0.043260336,-0.038735468
UncalMag,1676594081910,121585541921886,-49.763798,-20.2764,-111.02,-47.771046,2.9698257,-64.15999
OrientationDeg,1676594081911,121585541606029,171.0,3.0,0.0
UncalGyro,1676594081915,121585546096874,-0.40683624,0.376293,1.4095715,0.00047011633,-0.0010120582,-0.0032427395
UncalAccel,1676594081920,121585550585827,0.1788635,-0.32063824,11.178669,0.006110925,-0.043260336,-0.038735468
UncalMag,1676594081921,121585551927501,-48.007,-19.2638,-108.6532,-47.771046,2.9698257,-64.15999
OrientationDeg,1676594081920,121585550585827,170.0,3.0,0.0
UncalGyro,1676594081924,121585555076793,0.062308256,0.41462478,1.421178,0.00047011633,-0.0010120582,-0.0032427395
UncalAccel,1676594081929,121585559565624,-0.011365907,-0.47258246,11.791232,0.006110925,-0.043260336,-0.038735468
OrientationDeg,1676594081928,121585559565624,169.0,3.0,0.0
UncalMag,1676594081931,121585561927501,-48.9708,-19.824999,-111.4714,-47.771046,2.9698257,-64.15999
UncalGyro,1676594081934,121585564053478,0.6041457,0.5390886,1.4526376,0.00047011633,-0.0010120582,-0.0032427395
UncalAccel,1676594081937,121585568533885,-0.552742,-0.44985065,12.356536,0.006110925,-0.043260336,-0.038735468
OrientationDeg,1676594081937,121585568533885,169.0,4.0,0.0
UncalMag,1676594081940,121585571927257,-51.874397,-22.472399,-116.046394,-47.771046,2.9698257,-64.15999
UncalGyro,1676594081942,121585573038463,1.2053899,0.6693556,1.5163202,0.00047011633,-0.0010120582,-0.0032427395
UncalAccel,1676594081947,121585577525035,-1.3495519,0.13998012,12.403196,0.006110925,-0.043260336,-0.038735468
OrientationDeg,1676594081946,121585577525035,168.0,4.0,-1.0
UncalMag,1676594081951,121585581927746,-49.898,-20.642399,-111.081,-47.771046,2.9698257,-64.15999
UncalGyro,1676594081951,121585582018321,1.8044959,0.6235407,1.5528195,0.00047011633,-0.0010120582,-0.0032427395
UncalAccel,1676594081956,121585586501475,-2.1104696,1.3232309,11.02852,0.006110925,-0.043260336,-0.038735468
OrientationDeg,1676594081955,121585586501475,167.0,4.0,-2.0
UncalGyro,1676594081960,121585590995494,2.2678373,0.11911872,1.4191927,0.00047011633,-0.0010120582,-0.0032427395
UncalMag,1676594081960,121585591927501,-51.911,-22.814,-108.079796,-47.771046,2.9698257,-64.15999
UncalAccel,1676594081964,121585595484447,-1.8711873,2.778067,8.178069,0.006110925,-0.043260336,-0.038735468
OrientationDeg,1676594081964,121585595484447,167.0,4.0,-3.0
UncalGyro,1676594081969,121585599975902,2.3761132,-0.9960158,0.99204516,0.00047011633,-0.0010120582,-0.0032427395
UncalMag,1676594081970,121585601927746,-50.264,-22.4968,-108.1652,-47.771046,2.9698257,-64.15999
UncalAccel,1676594081974,121585604464610,-0.19142582,3.6059837,5.3018966,0.006110925,-0.043260336,-0.038735468
OrientationDeg,1676594081973,121585604464610,166.0,3.0,-5.0
UncalGyro,1676594081977,121585608956310,2.2212586,-2.3649647,0.5354234,0.00047011633,-0.0010120582,-0.0032427395
UncalMag,1676594081980,121585611927746,-51.2034,-24.3268,-107.6772,-47.771046,2.9698257,-64.15999
UncalAccel,1676594081982,121585613443553,1.494916,3.0885358,6.6460648,0.006110925,-0.043260336,-0.038735468
OrientationDeg,1676594081983,121585613443553,166.0,2.0,-6.0
UncalGyro,1676594081986,121585617934887,2.1302397,-3.2374332,0.22220223,0.00047011633,-0.0010120582,-0.0032427395
UncalMag,1676594081990,121585621927501,-52.216,-24.4732,-109.189995,-47.771046,2.9698257,-64.15999
UncalAccel,1676594081992,121585622420238,2.6853452,2.3575284,7.7437725,0.006110925,-0.043260336,-0.038735468
OrientationDeg,1676594081991,121585622420238,166.0,0.0,-7.0
UncalGyro,1676594081995,121585626903026,2.1160371,-3.7534616,0.0021380284,0.00047011633,-0.0010120582,-0.0032427395
UncalAccel,1676594082001,121585631400584,2.8115666,2.4430718,7.4446692,0.006110925,-0.043260336,-0.038735468
UncalMag,1676594082000,121585631916027,-52.5454,-24.5586,-108.824,-47.771046,2.9698257,-64.15999
OrientationDeg,1676594082000,121585631400584,166.0,-1.0,-8.0
UncalGyro,1676594082004,121585635883983,2.104736,-4.17053,-0.20219639,0.00047011633,-0.0010120582,-0.0032427395
UncalAccel,1676594082009,121585640386669,2.477768,2.7086751,7.773084,0.006110925,-0.043260336,-0.038735468
UncalMag,1676594082011,121585641915539,-54.1802,-25.937199,-107.2014,-47.771046,2.9698257,-64.15999
OrientationDeg,1676594082009,121585640386669,166.0,-4.0,-9.0
UncalGyro,1676594082014,121585644876415,2.0341814,-4.457331,-0.4147775,0.00047011633,-0.0010120582,-0.0032427395
UncalAccel,1676594082019,121585649365489,1.9884356,2.7361927,8.538189,0.006110925,-0.043260336,-0.038735468
OrientationDeg,1676594082018,121585649365489,166.0,-6.0,-10.0
UncalMag,1676594082021,121585651927746,-55.4124,-26.901,-105.347,-47.771046,2.9698257,-64.15999
UncalGyro,1676594082022,121585653850719,1.8658879,-4.5152106,-0.59437186,0.00047011633,-0.0010120582,-0.0032427395
UncalAccel,1676594082027,121585658330394,1.5332011,2.6488547,11.700305,0.006110925,-0.043260336,-0.038735468
OrientationDeg,1676594082028,121585658330394,167.0,-8.0,-11.0
UncalMag,1676594082030,121585661927501,-56.3274,-26.791199,-104.9444,-47.771046,2.9698257,-64.15999
UncalGyro,1676594082032,121585662833629,1.2539536,-3.3689218,-0.7640397,0.00047011633,-0.0010120582,-0.0032427395
UncalAccel,1676594082037,121585667322460,1.0857433,2.265405,16.757536,0.006110925,-0.043260336,-0.038735468
OrientationDeg,1676594082036,121585667322460,167.0,-9.0,-11.0
UncalGyro,1676594082041,121585671816295,0.5717699,-1.3926201,-0.9240864,0.00047011633,-0.0010120582,-0.0032427395
UncalMag,1676594082040,121585671913830,-58.5478,-27.9502,-105.5666,-47.771046,2.9698257,-64.15999
UncalAccel,1676594082045,121585676302379,0.96729857,-0.032901313,11.240883,0.006110925,-0.043260336,-0.038735468
OrientationDeg,1676594082046,121585676302379,168.0,-9.0,-12.0
UncalGyro,1676594082049,121585680794017,0.24770586,-0.24220806,-0.85062987,0.00047011633,-0.0010120582,-0.0032427395
UncalMag,1676594082051,121585681927257,-56.425,-27.4622,-103.5292,-47.771046,2.9698257,-64.15999
UncalAccel,1676594082054,121585685281627,1.2490535,-0.7112665,9.093923,0.006110925,-0.043260336,-0.038735468
OrientationDeg,1676594082054,121585685281627,168.0,-9.0,-12.0
UncalGyro,1676594082059,121585689772838,-0.0047342055,0.55741453,-0.6606508,0.00047011633,-0.0010120582,-0.0032427395
UncalMag,1676594082061,121585691917248,-56.364,-27.4378,-104.2734,-47.771046,2.9698257,-64.15999
UncalAccel,1676594082063,121585694261303,0.24705894,0.33499518,8.999406,0.006110925,-0.043260336,-0.038735468
OrientationDeg,1676594082063,121585694261303,168.0,-9.0,-12.0
UncalGyro,1676594082068,121585698752330,-0.22922719,1.161713,-0.36545014,0.00047011633,-0.0010120582,-0.0032427395
UncalMag,1676594082071,121585701927257,-57.315598,-28.5724,-103.9318,-47.771046,2.9698257,-64.15999
UncalAccel,1676594082072,121585703241100,-1.791626,1.5738791,7.6809607,0.006110925,-0.043260336,-0.038735468
OrientationDeg,1676594082073,121585703241100,168.0,-8.0,-11.0
UncalGyro,1676594082076,121585707732250,-0.42455134,1.3590225,0.11988231,0.00047011633,-0.0010120582,-0.0032427395
UncalMag,1676594082080,121585711927746,-56.6446,-27.7794,-106.213196,-47.771046,2.9698257,-64.15999
UncalAccel,1676594082081,121585712221385,-2.6075785,2.5040889,7.305886,0.006110925,-0.043260336,-0.038735468
OrientationDeg,1676594082082,121585712221385,168.0,-7.0,-11.0
UncalGyro,1676594082086,121585716714061,-0.5899431,1.353372,0.6461427,0.00047011633,-0.0010120582,-0.0032427395
UncalAccel,1676594082090,121585721200756,-1.8520447,2.9599216,7.4733834,0.006110925,-0.043260336,-0.038735468
UncalMag,1676594082091,121585721916271,-58.877197,-28.694399,-107.4332,-47.771046,2.9698257,-64.15999
OrientationDeg,1676594082090,121585721200756,168.0,-6.0,-11.0
UncalGyro,1676594082095,121585725691600,-0.7182248,1.3122913,1.0442741,0.00047011633,-0.0010120582,-0.0032427395
UncalAccel,1676594082099,121585730180004,-0.5072784,2.7218359,7.092326,0.006110925,-0.043260336,-0.038735468
OrientationDeg,1676594082100,121585730180004,167.0,-6.0,-10.0
UncalMag,1676594082101,121585731926769,-56.693398,-27.5598,-105.298195,-47.771046,2.9698257,-64.15999
UncalGyro,1676594082104,121585734671276,-0.75411314,1.1404854,1.238682,0.00047011633,-0.0010120582,-0.0032427395
UncalAccel,1676594082108,121585739157359,0.3894319,2.6542385,6.8865438,0.006110925,-0.043260336,-0.038735468
UncalMag,1676594082111,121585741916027,-54.582798,-26.5472,-105.8594,-47.771046,2.9698257,-64.15999
OrientationDeg,1676594082109,121585739157359,167.0,-6.0,-10.0
UncalGyro,1676594082113,121585743636302,-0.6759224,0.82451534,1.2550226,0.00047011633,-0.0010120582,-0.0032427395
UncalAccel,1676594082117,121585748128307,1.3286148,2.7152555,6.8865438,0.006110925,-0.043260336,-0.038735468
OrientationDeg,1676594082118,121585748128307,166.0,-5.0,-10.0
UncalMag,1676594082120,121585751927501,-57.010597,-26.8888,-105.103,-47.771046,2.9698257,-64.15999
UncalGyro,1676594082122,121585752631603,-0.54305923,0.44608435,1.1424707,0.00047011633,-0.0010120582,-0.0032427395
UncalAccel,1676594082127,121585757122143,2.1445673,2.2935205,7.126424,0.006110925,-0.043260336,-0.038735468
OrientationDeg,1676594082126,121585757122143,165.0,-5.0,-9.0
UncalGyro,1676594082130,121585761613231,-0.40026945,0.041996986,0.9616546,0.00047011633,-0.0010120582,-0.0032427395
UncalMag,1676594082130,121585761915783,-57.5718,-27.291399,-107.311195,-47.771046,2.9698257,-64.15999
UncalAccel,1676594082136,121585766099315,2.3904297,1.7407784,7.6343007,0.006110925,-0.043260336,-0.038735468
OrientationDeg,1676594082136,121585766099315,165.0,-5.0,-9.0
UncalGyro,1676594082140,121585770590587,-0.23991732,-0.38545597,0.7707592,0.00047011633,-0.0010120582,-0.0032427395
UncalMag,1676594082140,121585771927746,-59.267597,-27.0474,-109.4218,-47.771046,2.9698257,-64.15999
UncalAccel,1676594082145,121585775076305,2.5992036,1.3704891,8.186444,0.006110925,-0.043260336,-0.038735468
OrientationDeg,1676594082145,121585775076305,165.0,-6.0,-9.0
UncalGyro,1676594082148,121585779557994,-0.074067414,-0.70509124,0.59880066,0.00047011633,-0.0010120582,-0.0032427395
UncalMag,1676594082151,121585781917003,-60.731598,-27.328,-111.02,-47.771046,2.9698257,-64.15999
UncalAccel,1676594082153,121585784059520,2.6865416,0.99720883,10.167104,0.006110925,-0.043260336,-0.038735468
OrientationDeg,1676594082154,121585784059520,164.0,-6.0,-9.0
UncalGyro,1676594082157,121585788552135,0.093004234,-0.61346143,0.4831944,0.00047011633,-0.0010120582,-0.0032427395
UncalMag,1676594082161,121585791927501,-61.183,-27.6574,-109.434,-47.771046,2.9698257,-64.15999
UncalAccel,1676594082162,121585793041698,2.656033,1.0073783,11.577672,0.006110925,-0.043260336,-0.038735468
OrientationDeg,1676594082163,121585793041698,164.0,-7.0,-9.0
UncalGyro,1676594082167,121585797529308,0.30726522,-0.32467487,0.43172902,0.00047011633,-0.0010120582,-0.0032427395
UncalMag,1676594082171,121585801927257,-62.0126,-28.072199,-108.3604,-47.771046,2.9698257,-64.15999
UncalAccel,1676594082172,121585802015452,2.629712,0.93978107,10.076176,0.006110925,-0.043260336,-0.038735468
OrientationDeg,1676594082172,121585802015452,164.0,-7.0,-9.0
UncalGyro,1676594082176,121585806501598,0.54733527,-0.15683965,0.4277584,0.00047011633,-0.0010120582,-0.0032427395
UncalAccel,1676594082179,121585810998241,2.4346972,1.0941181,10.223933,0.006110925,-0.043260336,-0.038735468
UncalMag,1676594082180,121585811915783,-60.8658,-27.6574,-107.4088,-47.771046,2.9698257,-64.15999
OrientationDeg,1676594082179,121585810998241,164.0,-7.0,-9.0
UncalGyro,1676594082185,121585815489269,0.7959574,0.06414085,0.47250426,0.00047011633,-0.0010120582,-0.0032427395
UncalAccel,1676594082189,121585819978648,1.9244276,1.7497516,10.277173,0.006110925,-0.043260336,-0.038735468
OrientationDeg,1676594082188,121585819978648,163.0,-7.0,-10.0
UncalMag,1676594082190,121585821927746,-59.6702,-27.2304,-107.7504,-47.771046,2.9698257,-64.15999
UncalGyro,1676594082194,121585824464000,1.0230466,0.2846632,0.5879578,0.00047011633,-0.0010120582,-0.0032427395
UncalAccel,1676594082197,121585828957592,1.6474584,2.024328,9.777073,0.006110925,-0.043260336,-0.038735468
OrientationDeg,1676594082197,121585828957592,163.0,-7.0,-10.0
UncalMag,1676594082201,121585831927746,-62.0492,-28.4382,-109.9098,-47.771046,2.9698257,-64.15999
UncalGyro,1676594082202,121585833448314,1.1737776,0.4286747,0.79045963,0.00047011633,-0.0010120582,-0.0032427395
UncalAccel,1676594082206,121585837938305,1.7084754,1.9615164,9.004789,0.006110925,-0.043260336,-0.038735468
OrientationDeg,1676594082206,121585837938305,162.0,-7.0,-11.0
UncalMag,1676594082211,121585841927257,-61.524597,-28.0478,-108.3482,-47.771046,2.9698257,-64.15999
UncalGyro,1676594082212,121585842425182,1.2140946,0.43890667,1.0074695,0.00047011633,-0.0010120582,-0.0032427395
UncalAccel,1676594082216,121585846905407,1.8376877,1.945963,7.861619,0.006110925,-0.043260336,-0.038735468
OrientationDeg,1676594082215,121585846905407,162.0,-6.0,-12.0
UncalGyro,1676594082221,121585851407909,1.1090258,0.33628133,1.1386528,0.00047011633,-0.0010120582,-0.0032427395
UncalMag,1676594082221,121585851916027,-62.403,-29.0238,-109.5438,-47.771046,2.9698257,-64.15999
UncalAccel,1676594082224,121585855897472,2.2217357,2.32702,6.9170523,0.006110925,-0.043260336,-0.038735468
OrientationDeg,1676594082224,121585855897472,161.0,-6.0,-12.0
UncalGyro,1676594082229,121585860392894,0.86758137,0.27779096,1.0833695,0.00047011633,-0.0010120582,-0.0032427395
UncalMag,1676594082231,121585861927501,-57.9256,-26.9376,-107.152596,-47.771046,2.9698257,-64.15999
UncalAccel,1676594082233,121585864877452,2.495714,2.603391,6.905088,0.006110925,-0.043260336,-0.038735468
OrientationDeg,1676594082233,121585864877452,160.0,-6.0,-12.0
UncalGyro,1676594082238,121585869371715,0.5907067,0.3387248,0.8793405,0.00047011633,-0.0010120582,-0.0032427395
UncalMag,1676594082240,121585871927746,-57.3644,-26.522799,-106.8964,-47.771046,2.9698257,-64.15999
UncalAccel,1676594082243,121585873855723,2.676372,2.516053,6.910472,0.006110925,-0.043260336,-0.038735468
OrientationDeg,1676594082242,121585873855723,160.0,-6.0,-13.0
UncalGyro,1676594082247,121585878347118,0.3491095,0.41905355,0.7113526,0.00047011633,-0.0010120582,-0.0032427395
UncalMag,1676594082251,121585881927501,-62.293198,-29.206799,-105.3714,-47.771046,2.9698257,-64.15999
UncalAccel,1676594082251,121585882835033,2.6069803,2.0464616,6.7411795,0.006110925,-0.043260336,-0.038735468
OrientationDeg,1676594082252,121585882835033,160.0,-6.0,-13.0
UncalGyro,1676594082257,121585887326976,0.12782355,0.44119743,0.6979135,0.00047011633,-0.0010120582,-0.0032427395
UncalAccel,1676594082260,121585891815868,2.7834508,1.9298115,6.521638,0.006110925,-0.043260336,-0.038735468
UncalMag,1676594082261,121585891916027,-59.048,-27.816,-103.456,-47.771046,2.9698257,-64.15999
OrientationDeg,1676594082261,121585891815868,159.0,-6.0,-13.0
UncalGyro,1676594082265,121585896307689,-0.09621128,0.33490688,0.7499898,0.00047011633,-0.0010120582,-0.0032427395
UncalAccel,1676594082269,121585900795238,3.3684962,2.0321047,6.901499,0.006110925,-0.043260336,-0.038735468
UncalMag,1676594082271,121585901916027,-59.048,-27.816,-103.456,-47.771046,2.9698257,-64.15999
OrientationDeg,1676594082269,121585900795238,159.0,-6.0,-12.0
UncalGyro,1676594082275,121585905286327,-0.29138273,0.13881913,0.7673995,0.00047011633,-0.0010120582,-0.0032427395
UncalAccel,1676594082278,121585909774975,3.557529,1.8490537,7.978269,0.006110925,-0.043260336,-0.038735468
OrientationDeg,1676594082279,121585909774975,158.0,-6.0,-12.0
UncalMag,1676594082280,121585911927501,-58.3648,-27.5354,-103.029,-47.771046,2.9698257,-64.15999
UncalGyro,1676594082283,121585914266002,-0.4072944,-0.047647487,0.75533485,0.00047011633,-0.0010120582,-0.0032427395
UncalAccel,1676594082288,121585918754772,3.6047873,1.902294,9.103494,0.006110925,-0.043260336,-0.038735468
OrientationDeg,1676594082288,121585918754772,158.0,-6.0,-12.0
UncalMag,1676594082290,121585921927746,-61.9516,-27.9014,-104.3832,-47.771046,2.9698257,-64.15999
UncalGyro,1676594082292,121585923245678,-0.43569964,-0.19333886,0.7199047,0.00047011633,-0.0010120582,-0.0032427395
UncalAccel,1676594082297,121585927735118,3.9038901,1.7330018,10.033704,0.006110925,-0.043260336,-0.038735468
OrientationDeg,1676594082296,121585927735118,158.0,-7.0,-12.0
UncalMag,1676594082300,121585931927746,-61.744198,-27.4744,-106.7988,-47.771046,2.9698257,-64.15999
UncalGyro,1676594082301,121585932227916,-0.40653083,-0.24663684,0.64721173,0.00047011633,-0.0010120582,-0.0032427395
UncalAccel,1676594082305,121585936714244,4.5726843,1.4219348,10.263414,0.006110925,-0.043260336,-0.038735468
OrientationDeg,1676594082305,121585936714244,157.0,-7.0,-11.0
UncalGyro,1676594082310,121585941205272,-0.36361754,-0.23075435,0.5494733,0.00047011633,-0.0010120582,-0.0032427395
UncalMag,1676594082311,121585941915783,-62.6592,-27.1938,-106.1278,-47.771046,2.9698257,-64.15999
UncalAccel,1676594082315,121585945693676,3.900301,0.8554341,10.429117,0.006110925,-0.043260336,-0.038735468
OrientationDeg,1676594082314,121585945693676,157.0,-7.0,-11.0
UncalGyro,1676594082319,121585950185192,-0.27397305,-0.30909783,0.48456886,0.00047011633,-0.0010120582,-0.0032427395
UncalMag,1676594082321,121585951927501,-59.182198,-26.2544,-104.3832,-47.771046,2.9698257,-64.15999
UncalAccel,1676594082324,121585954673778,3.542574,0.4881358,9.835099,0.006110925,-0.043260336,-0.038735468
OrientationDeg,1676594082323,121585954673778,157.0,-7.0,-11.0
UncalGyro,1676594082328,121585959164928,-0.15347989,-0.47708577,0.47036624,0.00047011633,-0.0010120582,-0.0032427395
UncalMag,1676594082331,121585961927746,-61.9638,-27.767199,-105.8228,-47.771046,2.9698257,-64.15999
UncalAccel,1676594082332,121585963653881,3.656233,0.6646065,9.335598,0.006110925,-0.043260336,-0.038735468
OrientationDeg,1676594082333,121585963653881,157.0,-8.0,-11.0
UncalGyro,1676594082338,121585968145397,-0.06582073,-0.66416323,0.47952923,0.00047011633,-0.0010120582,-0.0032427395
UncalMag,1676594082341,121585971927257,-61.8784,-27.3646,-105.2372,-47.771046,2.9698257,-64.15999
UncalAccel,1676594082342,121585972633129,3.8955152,1.0755738,8.738588,0.006110925,-0.043260336,-0.038735468
OrientationDeg,1676594082341,121585972633129,156.0,-8.0,-11.0
UncalGyro,1676594082347,121585977124096,-0.024281893,-0.8793405,0.4503604,0.00047011633,-0.0010120582,-0.0032427395
UncalAccel,1676594082350,121585981612682,4.725825,1.0031909,8.475378,0.006110925,-0.043260336,-0.038735468
UncalMag,1676594082350,121585981910656,-63.3546,-28.035599,-105.895996,-47.771046,2.9698257,-64.15999
OrientationDeg,1676594082350,121585981612682,156.0,-9.0,-11.0
UncalGyro,1676594082356,121585986100902,-0.019547688,-1.1042917,0.38973203,0.00047011633,-0.0010120582,-0.0032427395
UncalAccel,1676594082360,121585990580699,4.3722854,0.8757731,8.487342,0.006110925,-0.043260336,-0.038735468
OrientationDeg,1676594082360,121585990580699,156.0,-9.0,-11.0
UncalMag,1676594082360,121585991916027,-64.7698,-27.803799,-106.7378,-47.771046,2.9698257,-64.15999
UncalGyro,1676594082365,121585995083629,-0.034055736,-1.32909,0.3943135,0.00047011633,-0.0010120582,-0.0032427395
UncalAccel,1676594082369,121585999573009,4.0414777,1.0217353,9.086744,0.006110925,-0.043260336,-0.038735468
UncalMag,1676594082371,121586001927746,-63.927998,-27.3402,-106.1888,-47.771046,2.9698257,-64.15999
OrientationDeg,1676594082369,121585999573009,156.0,-10.0,-11.0
UncalGyro,1676594082374,121586004068798,-0.03863723,-1.444849,0.45173484,0.00047011633,-0.0010120582,-0.0032427395
UncalAccel,1676594082378,121586008552074,4.4081774,0.67477596,9.620343,0.006110925,-0.043260336,-0.038735468
OrientationDeg,1676594082377,121586008552074,156.0,-11.0,-11.0
UncalMag,1676594082381,121586011927990,-66.124,-27.3646,-108.031,-47.771046,2.9698257,-64.15999
UncalGyro,1676594082383,121586013042858,-0.04046982,-1.4362969,0.48487428,0.00047011633,-0.0010120582,-0.0032427395
UncalAccel,1676594082387,121586017531321,4.6462636,0.06460621,9.642477,0.006110925,-0.043260336,-0.038735468
OrientationDeg,1676594082386,121586017531321,155.0,-12.0,-11.0
UncalMag,1676594082390,121586021927746,-66.2582,-27.1206,-107.6894,-47.771046,2.9698257,-64.15999
UncalGyro,1676594082392,121586022020701,-0.049785517,-1.3550519,0.48716503,0.00047011633,-0.0010120582,-0.0032427395
UncalAccel,1676594082395,121586026500560,5.0542397,-0.04366901,8.938389,0.006110925,-0.043260336,-0.038735468
OrientationDeg,1676594082395,121586026500560,155.0,-12.0,-10.0
UncalGyro,1676594082399,121586030992809,-0.07147124,-1.3773484,0.4558582,0.00047011633,-0.0010120582,-0.0032427395
UncalMag,1676594082400,121586031916027,-63.867,-25.583399,-105.8106,-47.771046,2.9698257,-64.15999
UncalAccel,1676594082405,121586035477977,5.2576294,0.25663024,7.763513,0.006110925,-0.043260336,-0.038735468
OrientationDeg,1676594082405,121586035477977,155.0,-13.0,-10.0
UncalGyro,1676594082409,121586039986156,-0.1133155,-1.5581645,0.40973786,0.00047011633,-0.0010120582,-0.0032427395
UncalMag,1676594082410,121586041919201,-66.8316,-26.3398,-104.663795,-47.771046,2.9698257,-64.15999
UncalAccel,1676594082414,121586044472728,5.3096733,0.13579269,6.7148585,0.006110925,-0.043260336,-0.038735468
OrientationDeg,1676594082413,121586044472728,155.0,-14.0,-10.0
UncalGyro,1676594082418,121586048965770,-0.17577648,-1.8576412,0.3839288,0.00047011633,-0.0010120582,-0.0032427395
UncalMag,1676594082420,121586051927257,-67.039,-27.1694,-104.7492,-47.771046,2.9698257,-64.15999
UncalAccel,1676594082423,121586053449413,5.622535,0.21535404,6.2733827,0.006110925,-0.043260336,-0.038735468
OrientationDeg,1676594082422,121586053449413,155.0,-15.0,-10.0
UncalGyro,1676594082427,121586057936718,-0.21181752,-2.2747095,0.3417791,0.00047011633,-0.0010120582,-0.0032427395
UncalMag,1676594082431,121586061927501,-67.2708,-26.6448,-105.0298,-47.771046,2.9698257,-64.15999
UncalAccel,1676594082431,121586062427928,6.4851475,-0.14416756,6.6568327,0.006110925,-0.043260336,-0.038735468
OrientationDeg,1676594082431,121586062427928,154.0,-17.0,-10.0
UncalGyro,1676594082436,121586066909617,-0.19883664,-2.721252,0.28680122,0.00047011633,-0.0010120582,-0.0032427395
UncalAccel,1676594082441,121586071409801,7.4273214,-1.0366904,7.6139617,0.006110925,-0.043260336,-0.038735468
UncalMag,1676594082441,121586071915539,-69.954796,-27.4988,-105.7252,-47.771046,2.9698257,-64.15999
OrientationDeg,1676594082440,121586071409801,154.0,-18.0,-10.0
UncalGyro,1676594082444,121586075901012,-0.2078469,-3.0013337,0.23884831,0.00047011633,-0.0010120582,-0.0032427395
UncalAccel,1676594082450,121586080381420,7.637292,-1.7617157,8.368897,0.006110925,-0.043260336,-0.038735468
OrientationDeg,1676594082450,121586080381420,154.0,-20.0,-10.0
UncalMag,1676594082451,121586081927746,-71.065,-27.4744,-105.469,-47.771046,2.9698257,-64.15999
UncalGyro,1676594082453,121586084881908,-0.30375275,-3.0870075,0.2591596,0.00047011633,-0.0010120582,-0.0032427395
UncalAccel,1676594082458,121586089369334,6.8111696,-2.5764718,8.389834,0.006110925,-0.043260336,-0.038735468
OrientationDeg,1676594082458,121586089369334,154.0,-21.0,-9.0
UncalMag,1676594082461,121586091927746,-71.7238,-27.1328,-104.737,-47.771046,2.9698257,-64.15999
UncalGyro,1676594082463,121586093863658,-0.474795,-2.9894218,0.39690968,0.00047011633,-0.0010120582,-0.0032427395
UncalAccel,1676594082468,121586098349742,4.862814,-1.9842482,10.023534,0.006110925,-0.043260336,-0.038735468
OrientationDeg,1676594082467,121586098349742,154.0,-23.0,-9.0
UncalMag,1676594082471,121586101927746,-71.4554,-26.108,-103.1632,-47.771046,2.9698257,-64.15999
UncalGyro,1676594082472,121586102840709,-0.6246097,-2.42147,0.5893322,0.00047011633,-0.0010120582,-0.0032427395
UncalAccel,1676594082476,121586107329784,3.6113675,-0.9499506,11.095519,0.006110925,-0.043260336,-0.038735468
OrientationDeg,1676594082476,121586107329784,154.0,-24.0,-8.0
UncalGyro,1676594082480,121586111821361,-0.7673995,-1.5893186,0.7689266,0.00047011633,-0.0010120582,-0.0032427395
UncalMag,1676594082480,121586111915783,-73.0536,-26.2178,-103.8708,-47.771046,2.9698257,-64.15999
UncalAccel,1676594082486,121586116308910,3.6275191,-0.76331043,11.053644,0.006110925,-0.043260336,-0.038735468
OrientationDeg,1676594082486,121586116308910,154.0,-25.0,-8.0
UncalGyro,1676594082490,121586120796093,-0.8266534,-0.8668178,0.8969029,0.00047011633,-0.0010120582,-0.0032427395
UncalMag,1676594082491,121586121927746,-72.6998,-25.5346,-100.9062,-47.771046,2.9698257,-64.15999
Raw,1676594081418,2105000000,,,-1360629297313999383,0.0,200000216.815,,,19,6,0.0,17,132129,13,42.770362854003906,501.98843693486515,0.15,16,965.5197840762978,340282346638528860000000000000000000000,1575420030,,,,0,,1,,38.57036209106445,0.320142130558394,1.0,0.320142130558394,1.0,C,121586069614404
Raw,1676594081418,2105000000,,,-1360629297313999383,0.0,200000216.815,,,19,11,0.0,17,242659,17,39.83175277709961,-38.29322899791285,0.15,16,-78.31404909589016,340282346638528860000000000000000000000,1575420030,,,,0,,1,,35.631752014160156,-0.20372681261465636,1.0,-0.20372681261465636,1.0,C,121586069614404
Raw,1676594081418,2105000000,,,-1360629297313999383,0.0,200000216.815,,,19,12,0.0,17,354455,28,33.89369201660156,-217.460591742009,0.6170204719767223,16,-386.63978485991794,340282346638528860000000000000000000000,1575420030,,,,1,,1,,29.69369125366211,-0.6984919076624261,1.0,-0.6984919076624261,1.0,C,121586069614404
Raw,1676594081418,2105000000,,,-1360629297313999383,0.0,200000216.815,,,19,20,0.0,17,499232,20,37.794342041015625,-468.7019421016885,0.15,16,-904.3617498706906,340282346638528860000000000000000000000,1575420030,,,,0,,1,,33.59434127807617,0.0,1.0,0.0,1.0,C,121586069614404
Raw,1676594081418,2105000000,,,-1360629297313999383,0.0,200000216.815,,,19,24,0.0,17,610592,20,37.71822738647461,563.9306432334643,0.15,16,1101.5607935907901,340282346638528860000000000000000000000,1575420030,,,,0,,1,,33.518226623535156,-0.20372681261465636,1.0,-0.20372681261465636,1.0,C,121586069614404
Raw,1676594081418,2105000000,,,-1360629297313999383,0.0,200000216.815,,,19,25,0.0,17,69533,17,40.15416717529297,-464.6081278364511,0.15,16,-897.4313230665746,340282346638528860000000000000000000000,1575420030,,,,0,,1,,35.954166412353516,-2.0372682255564105,1.0,-2.0372682255564105,1.0,C,121586069614404
Raw,1676594081418,2105000000,,,-1360629297313999383,0.0,200000216.815,,,19,29,0.0,17,68031,140,32.862640380859375,-420.70804929996257,0.6633341369495604,16,-767.7148953120102,340282346638528860000000000000000000000,1575420030,,,,0,,1,,28.662641525268555,-0.6984919076624261,1.0,-0.6984919076624261,1.0,C,121586069614404
Raw,1676594081418,2105000000,,,-1360629297313999383,0.0,200000216.815,,,19,14,0.0,17,789990,33,42.10502243041992,598.7403512135584,0.15,16,1648.6936112982341,340282346638528860000000000000000000000,1598062460,,,,0,,3,,37.90502166748047,50.29141902923584,2.0000000474974513,50.29141902923584,2.0000000474974513,C,121586069614404
Raw,1676594081418,2105000000,,,-1360629297313999383,0.0,200000216.815,,,19,18,0.0,17,812414,40,38.13770294189453,-453.71022828082596,0.15,16,-767.0370366116068,340282346638528860000000000000000000000,1600312450,,,,0,,3,,33.93770217895508,50.29141902923584,2.0000000474974513,50.29141902923584,2.0000000474974513,C,121586069614404
Raw,1676594081418,2105000000,,,-1360629297313999383,0.0,200000216.815,,,19,16,0.0,16,372113178,1000000000,35.026859283447266,-666.4259967555554,299792458,16,-495.7664681362098,340282346638528860000000000000000000000,1601437440,,,,0,,3,,30.826860427856445,50.29141902923584,2.0000000474974513,50.29141902923584,2.0000000474974513,C,121586069614404
Raw,1676594081418,2105000000,,,-1360629297313999383,0.0,200000216.815,,,19,15,0.0,17,814175,44,36.81970977783203,-155.86885534383396,0.15,16,-282.4569910142333,340282346638528860000000000000000000000,1602000000,,,,0,,3,,32.61970901489258,50.29141902923584,2.0000000474974513,50.29141902923584,2.0000000474974513,C,121586069614404
Raw,1676594081418,2105000000,,,-1360629297313999383,0.0,200000216.815,,,19,24,0.0,17,177905,33,41.517730712890625,709.0915064694182,0.15,16,1780.317989650216,340282346638528860000000000000000000000,1603124990,,,,0,,3,,37.31772994995117,50.29141902923584,2.0000000474974513,50.29141902923584,2.0000000474974513,C,121586069614404
Raw,1676594081418,2105000000,,,-1360629297313999383,0.0,200000216.815,,,19,17,0.0,17,494790,40,37.95079803466797,121.28882051763293,0.15,16,218.8823119122371,340282346638528860000000000000000000000,1604249980,,,,0,,3,,33.750797271728516,50.29141902923584,2.0000000474974513,50.29141902923584,2.0000000474974513,C,121586069614404
Raw,1676594081418,2105000000,,,-1360629297313999383,0.0,200000216.815,,,19,2,0.0,68642,40551508,84,37.442230224609375,147.2280323889754,0.15,16,398.1740414695248,340282346638528860000000000000000000000,1575420030,,,,0,,6,,33.24222946166992,-6.024492904543876,1.5000000237487257,-6.024492904543876,1.5000000237487257,C,121586069614404
Raw,1676594081418,2105000000,,,-1360629297313999383,0.0,200000216.815,,,19,36,0.0,68642,39346523,72,41.06717300415039,273.677729241276,0.15,16,684.754256043069,340282346638528860000000000000000000000,1575420030,,,,0,,6,,36.86717224121094,-6.024492904543876,1.5000000237487257,-6.024492904543876,1.5000000237487257,C,121586069614404
Raw,1676594081418,2105000000,,,-1360629297313999383,0.0,200000216.815,,,19,2,0.0,16,99976395,1000000000,11.100000381469727,146.9946357267072,299792458,16,441.0219725138238,340282346638528860000000000000000000000,1176450050,,,,0,,6,,7.0,-4.362151958048344,8.171281927711767,-4.362151958048344,1.5000000237487257,Q,121586069614404
Raw,1676594081418,2105000000,,,-1360629297313999383,0.0,200000216.815,,,19,34,0.0,16,99979098,1000000000,11.67093276977539,-257.6221826637387,299792458,16,-1032.670306167713,340282346638528860000000000000000000000,1176450050,,,,0,,6,,7.570932388305664,-10.0879929959774,8.171281927711767,-10.0879929959774,1.5000000237487257,Q,121586069614404
Raw,1676594081418,2105000000,,,-1360629297313999383,0.0,200000216.815,,,19,36,0.0,16,99975556,1000000000,16.317689895629883,273.4762337583131,299792458,16,1095.347874821943,340282346638528860000000000000000000000,1176450050,,,,0,,6,,12.217689514160156,-11.011515744030472,8.171281927711767,-11.011515744030472,1.5000000237487257,Q,121586069614404
UncalAccel,1676594082495,121586125273327,4.132405,-1.0737791,9.710074,0.006110925,-0.043260336,-0.038735468
UncalGyro,1676594082499,121586129779979,-0.7715228,-0.59803706,0.9773844,0.00047011633,-0.0010120582,-0.0032427395
UncalMag,1676594082501,121586131927746,-74.151596,-25.9494,-101.2844,-47.771046,2.9698257,-64.15999
OrientationDeg,1676594082495,121586125273327,153.0,-25.0,-7.0
Status,0,15,0,6,2,1575420030,37.06,94.0,78.0,0,1,1,32.856686
Status,0,15,1,3,17,1604249980,39.59,302.0,74.0,1,1,1,35.38764
Status,0,15,2,1,11,1575420030,39.25,138.0,74.0,1,1,1,35.053864
Status,0,15,3,3,15,1602000000,36.81,325.0,72.0,1,1,1,32.609657
Status,0,15,4,6,36,1575420030,41.07,56.0,65.0,0,1,1,36.867172
Status,0,15,5,1,12,1575420030,33.44,325.0,61.0,1,1,1,29.235832
Status,0,15,6,3,14,1598062460,42.11,149.0,50.0,1,1,1,37.90502
Status,0,15,7,1,6,1575420030,40.33,50.0,48.0,1,1,1,36.131664
Status,0,15,8,1,24,1575420030,35.00,222.0,41.0,1,1,1,30.796812
Status,0,15,9,3,24,1603124990,41.52,32.0,34.0,1,1,1,37.31773
Status,0,15,10,3,18,1600312450,38.14,235.0,32.0,0,1,1,33.937702
Status,0,15,11,1,25,1575420030,38.55,311.0,31.0,1,1,1,34.35109
Status,0,15,12,1,20,1575420030,37.16,144.0,23.0,1,1,1,32.963123
Status,0,15,13,3,16,1601437440,35.03,328.0,18.0,0,1,1,30.82686
Status,0,15,14,1,29,1575420030,32.34,262.0,12.0,0,1,1,28.14314
UncalAccel,1676594082504,121586134268749,4.5224347,-1.2011969,8.6345005,0.006110925,-0.043260336,-0.038735468
OrientationDeg,1676594082504,121586134268749,153.0,-25.0,-7.0
Fix,GPS,37.4312648573,-122.1550251252,-5.75977058940017,0.0,7.6702027,,1676594081418,0.33710954,,121586020144189,12.333935
Fix,FLP,37.4312922000,-122.1550138000,-16.5,0.12414384,8.554,190.62395,1676594082490,,,121586120625148,2.1747897
UncalGyro,1676594082508,121586138763500,-0.65011334,-0.60918534,1.0433578,0.00047011633,-0.0010120582,-0.0032427395
UncalMag,1676594082510,121586141933605,-77.6164,-26.2666,-102.0774,-47.771046,2.9698257,-64.15999
UncalAccel,1676594082512,121586143248973,4.400999,-1.2819548,8.090134,0.006110925,-0.043260336,-0.038735468
OrientationDeg,1676594082513,121586143248973,153.0,-26.0,-6.0
UncalGyro,1676594082517,121586147741588,-0.56306505,-0.6719518,1.1082623,0.00047011633,-0.0010120582,-0.0032427395
UncalMag,1676594082521,121586151927501,-76.9332,-25.9494,-100.2596,-47.771046,2.9698257,-64.15999
UncalAccel,1676594082521,121586152228160,4.1808596,-1.625923,7.7682986,0.006110925,-0.043260336,-0.038735468
OrientationDeg,1676594082521,121586152228160,152.0,-26.0,-6.0
UncalGyro,1676594082526,121586156719188,-0.5635232,-0.6976081,1.1960741,0.00047011633,-0.0010120582,-0.0032427395
UncalAccel,1676594082531,121586161207592,4.5266223,-1.9058832,7.7347994,0.006110925,-0.043260336,-0.038735468
UncalMag,1676594082531,121586161916027,-77.104,-24.5952,-100.2718,-47.771046,2.9698257,-64.15999
OrientationDeg,1676594082530,121586161207592,152.0,-26.0,-5.0
UncalGyro,1676594082535,121586165698864,-0.6180429,-0.7136433,1.2722796,0.00047011633,-0.0010120582,-0.0032427395
UncalAccel,1676594082540,121586170187572,5.1062837,-1.410569,7.8592257,0.006110925,-0.043260336,-0.038735468
OrientationDeg,1676594082540,121586170187572,151.0,-27.0,-4.0
UncalMag,1676594082540,121586171927257,-77.958,-24.705,-100.3572,-47.771046,2.9698257,-64.15999
UncalGyro,1676594082543,121586174678234,-0.636827,-0.7976373,1.2883148,0.00047011633,-0.0010120582,-0.0032427395
UncalAccel,1676594082549,121586179167430,5.128417,-1.2239288,7.5553374,0.006110925,-0.043260336,-0.038735468
OrientationDeg,1676594082549,121586179167430,151.0,-27.0,-4.0
UncalMag,1676594082551,121586181927501,-77.409,-23.716799,-101.3088,-47.771046,2.9698257,-64.15999
UncalGyro,1676594082553,121586183659618,-0.62125,-0.94791013,1.2696834,0.00047011633,-0.0010120582,-0.0032427395
UncalAccel,1676594082558,121586188147411,4.8436713,-1.2610176,7.2346992,0.006110925,-0.043260336,-0.038735468
OrientationDeg,1676594082557,121586188147411,151.0,-28.0,-3.0
UncalMag,1676594082560,121586191927746,-78.067795,-23.0214,-99.8936,-47.771046,2.9698257,-64.15999
UncalGyro,1676594082561,121586192638134,-0.602924,-1.1345295,1.271516,0.00047011633,-0.0010120582,-0.0032427395
UncalAccel,1676594082566,121586197126353,4.5038905,-2.184049,7.133004,0.006110925,-0.043260336,-0.038735468
OrientationDeg,1676594082566,121586197126353,150.0,-29.0,-3.0
UncalGyro,1676594082570,121586201617015,-0.59391373,-1.3054191,1.3295482,0.00047011633,-0.0010120582,-0.0032427395
UncalMag,1676594082571,121586201915783,-78.214195,-22.8384,-98.893196,-47.771046,2.9698257,-64.15999
UncalAccel,1676594082575,121586206106578,4.121637,-3.1070802,7.7886376,0.006110925,-0.043260336,-0.038735468
OrientationDeg,1676594082575,121586206106578,150.0,-29.0,-2.0
UncalGyro,1676594082579,121586210597606,-0.57925296,-1.3631458,1.4419475,0.00047011633,-0.0010120582,-0.0032427395
UncalMag,1676594082581,121586211927746,-77.2138,-21.8014,-99.308,-47.771046,2.9698257,-64.15999
UncalAccel,1676594082585,121586215087291,4.3525443,-3.6981075,8.349156,0.006110925,-0.043260336,-0.038735468
OrientationDeg,1676594082585,121586215087291,149.0,-30.0,-1.0
UncalGyro,1676594082589,121586219579357,-0.5392413,-1.3666582,1.5775595,0.00047011633,-0.0010120582,-0.0032427395
UncalMag,1676594082591,121586221927257,-78.665596,-21.1548,-100.6744,-47.771046,2.9698257,-64.15999
UncalAccel,1676594082593,121586224065624,4.8622155,-3.475575,8.800801,0.006110925,-0.043260336,-0.038735468
OrientationDeg,1676594082594,121586224065624,149.0,-31.0,-1.0
UncalGyro,1676594082598,121586228557201,-0.44944412,-1.3574953,1.6728544,0.00047011633,-0.0010120582,-0.0032427395
UncalMag,1676594082601,121586231916271,-79.0926,-20.5448,-98.6492,-47.771046,2.9698257,-64.15999
UncalAccel,1676594082603,121586233045237,5.3856454,-3.3206396,8.279764,0.006110925,-0.043260336,-0.038735468
OrientationDeg,1676594082602,121586233045237,148.0,-31.0,0.0
UncalGyro,1676594082607,121586237535594,-0.39522982,-1.3561208,1.7090483,0.00047011633,-0.0010120582,-0.0032427395
UncalMag,1676594082610,121586241927501,-79.2146,-19.666399,-99.527596,-47.771046,2.9698257,-64.15999
UncalAccel,1676594082612,121586242016796,5.627321,-3.4666018,7.350751,0.006110925,-0.043260336,-0.038735468
OrientationDeg,1676594082611,121586242016796,148.0,-32.0,0.0
UncalGyro,1676594082616,121586246502391,-0.44043383,-1.3822353,1.7484491,0.00047011633,-0.0010120582,-0.0032427395
UncalAccel,1676594082620,121586251005870,5.662615,-3.7740796,6.5294147,0.006110925,-0.043260336,-0.038735468
UncalMag,1676594082621,121586251915783,-82.423195,-20.2764,-97.3804,-47.771046,2.9698257,-64.15999
OrientationDeg,1676594082621,121586251005870,147.0,-33.0,0.0
UncalGyro,1676594082624,121586255498973,-0.5713117,-1.4225525,1.8026633,0.00047011633,-0.0010120582,-0.0032427395
UncalAccel,1676594082628,121586259988536,5.710471,-4.0570307,6.0370917,0.006110925,-0.043260336,-0.038735468
OrientationDeg,1676594082629,121586259988536,146.0,-34.0,1.0
UncalMag,1676594082631,121586261927746,-84.6436,-20.3008,-100.101,-47.771046,2.9698257,-64.15999
UncalGyro,1676594082634,121586264474193,-0.731053,-1.4886786,1.866346,0.00047011633,-0.0010120582,-0.0032427395
UncalAccel,1676594082637,121586268957530,5.7230334,-4.45065,5.730212,0.006110925,-0.043260336,-0.038735468
OrientationDeg,1676594082638,121586268957530,146.0,-34.0,2.0
UncalMag,1676594082641,121586271927501,-81.7644,-17.8486,-96.3556,-47.771046,2.9698257,-64.15999
UncalGyro,1676594082642,121586273455699,-0.8707884,-1.5964963,1.9378172,0.00047011633,-0.0010120582,-0.0032427395
UncalAccel,1676594082646,121586277944530,6.087939,-4.913063,5.5722857,0.006110925,-0.043260336,-0.038735468
OrientationDeg,1676594082647,121586277944530,145.0,-35.0,3.0
UncalMag,1676594082650,121586281927746,-80.4712,-16.2138,-94.7696,-47.771046,2.9698257,-64.15999
UncalGyro,1676594082652,121586282434459,-0.97081757,-1.7609718,2.0260873,0.00047011633,-0.0010120582,-0.0032427395
UncalAccel,1676594082656,121586286910107,6.929016,-6.385247,5.73081,0.006110925,-0.043260336,-0.038735468
OrientationDeg,1676594082655,121586286910107,145.0,-36.0,4.0
UncalGyro,1676594082661,121586291405712,-1.0557278,-1.914299,2.1864395,0.00047011633,-0.0010120582,-0.0032427395
UncalMag,1676594082661,121586291916027,-81.2154,-15.591599,-94.549995,-47.771046,2.9698257,-64.15999
UncalAccel,1676594082664,121586295904125,6.073582,-8.09133,7.466803,0.006110925,-0.043260336,-0.038735468
OrientationDeg,1676594082665,121586295904125,144.0,-37.0,6.0
UncalGyro,1676594082669,121586300397898,-1.0984885,-1.9016235,2.4723244,0.00047011633,-0.0010120582,-0.0032427395
UncalMag,1676594082671,121586301927746,-85.2658,-15.677,-94.0376,-47.771046,2.9698257,-64.15999
UncalAccel,1676594082673,121586304886363,6.1531434,-7.6546397,9.356535,0.006110925,-0.043260336,-0.038735468
OrientationDeg,1676594082674,121586304886363,144.0,-38.0,7.0
UncalGyro,1676594082678,121586309374889,-0.98792183,-1.7962493,2.702926,0.00047011633,-0.0010120582,-0.0032427395
UncalMag,1676594082681,121586311927501,-85.2536,-14.1764,-94.8062,-47.771046,2.9698257,-64.15999
UncalAccel,1676594082683,121586313863719,7.2789664,-6.285347,9.378669,0.006110925,-0.043260336,-0.038735468
OrientationDeg,1676594082682,121586313863719,143.0,-39.0,8.0
UncalGyro,1676594082687,121586318354625,-0.7519751,-1.8312213,2.763249,0.00047011633,-0.0010120582,-0.0032427395
UncalMag,1676594082691,121586321916271,-88.2182,-14.274,-97.2584,-47.771046,2.9698257,-64.15999
UncalAccel,1676594082692,121586322843639,7.9310107,-5.3976097,8.042277,0.006110925,-0.043260336,-0.038735468
OrientationDeg,1676594082692,121586322843639,142.0,-40.0,9.0
UncalGyro,1676594082696,121586327335277,-0.45891252,-2.1444426,2.7186558,0.00047011633,-0.0010120582,-0.0032427395
UncalAccel,1676594082700,121586331822887,7.8520474,-4.698307,5.8480587,0.006110925,-0.043260336,-0.038735468
UncalMag,1676594082700,121586331915783,-87.852196,-12.5538,-93.33,-47.771046,2.9698257,-64.15999
OrientationDeg,1676594082701,121586331822887,141.0,-41.0,10.0
UncalGyro,1676594082705,121586336314098,-0.23777929,-2.7136161,2.6823094,0.00047011633,-0.0010120582,-0.0032427395
UncalAccel,1676594082710,121586340802623,7.8113694,-5.130212,4.7401814,0.006110925,-0.043260336,-0.038735468
OrientationDeg,1676594082710,121586340802623,140.0,-42.0,11.0
UncalMag,1676594082711,121586341915783,-89.6334,-12.1146,-93.012794,-47.771046,2.9698257,-64.15999
UncalGyro,1676594082714,121586345293895,-0.17928895,-3.254232,2.7177396,0.00047011633,-0.0010120582,-0.0032427395
UncalAccel,1676594082718,121586349782604,8.343174,-5.9671016,5.77747,0.006110925,-0.043260336,-0.038735468
OrientationDeg,1676594082719,121586349782604,140.0,-44.0,12.0
UncalMag,1676594082721,121586351927746,-90.048195,-10.516399,-91.4146,-47.771046,2.9698257,-64.15999
UncalGyro,1676594082723,121586354273510,-0.2657264,-3.4691038,2.8243356,0.00047011633,-0.0010120582,-0.0032427395
UncalAccel,1676594082727,121586358762645,9.448658,-7.003792,8.069196,0.006110925,-0.043260336,-0.038735468
OrientationDeg,1676594082728,121586358762645,139.0,-45.0,14.0
UncalMag,1676594082730,121586361927257,-91.8538,-8.1984,-88.2792,-47.771046,2.9698257,-64.15999
UncalGyro,1676594082733,121586363255443,-0.47143525,-3.1838295,2.964529,0.0004696097,-0.0010045788,-0.0032416903
UncalAccel,1676594082736,121586367741893,9.608379,-7.2670026,11.123634,0.006110925,-0.043260336,-0.038735468
OrientationDeg,1676594082736,121586367741893,138.0,-47.0,15.0
UncalMag,1676594082740,121586371927501,-91.8538,-8.1984,-88.2792,-47.771046,2.9698257,-64.15999
UncalGyro,1676594082741,121586372233348,-0.68951416,-2.4738514,3.1140382,0.00046933594,-0.0010005377,-0.0032411232
UncalAccel,1676594082745,121586376721264,9.489336,-6.939784,12.573087,0.006110925,-0.043260336,-0.038735468
OrientationDeg,1676594082745,121586376721264,137.0,-47.0,16.0
UncalGyro,1676594082750,121586381212841,-0.79534656,-1.7400496,3.2534683,0.0004692945,-0.0009999262,-0.0032410375
UncalMag,1676594082751,121586381927501,-92.8908,-5.3192,-85.1804,-47.771046,2.9698257,-64.15999
UncalAccel,1676594082754,121586385701427,9.524033,-6.5228343,11.9515505,0.006110925,-0.043260336,-0.038735468
OrientationDeg,1676594082754,121586385701427,136.0,-48.0,18.0
UncalGyro,1676594082759,121586390192272,-0.7593055,-1.3078625,3.3695326,0.00046928824,-0.0009998337,-0.0032410244
UncalMag,1676594082760,121586391927746,-93.0616,-3.7942,-84.8022,-47.771046,2.9698257,-64.15999
UncalAccel,1676594082763,121586394681529,9.735199,-6.3571315,9.984651,0.006110925,-0.043260336,-0.038735468
OrientationDeg,1676594082763,121586394681529,135.0,-48.0,20.0
UncalGyro,1676594082768,121586399173229,-0.65286225,-1.259146,3.4353535,0.00046928728,-0.0009998197,-0.0032410226
UncalMag,1676594082771,121586401927501,-93.7204,-2.5254,-84.0702,-47.771046,2.9698257,-64.15999
UncalAccel,1676594082772,121586403661083,9.946365,-6.008976,8.262417,0.006110925,-0.043260336,-0.038735468
OrientationDeg,1676594082772,121586403661083,134.0,-48.0,21.0
UncalGyro,1676594082778,121586408148998,-0.5465717,-1.4414892,3.4434474,0.00046928713,-0.0009998175,-0.0032410221
UncalMag,1676594082781,121586411927746,-95.0868,-1.586,-86.0222,-47.771046,2.9698257,-64.15999
UncalAccel,1676594082781,121586412628551,10.427323,-5.168497,7.740183,0.006110925,-0.043260336,-0.038735468
OrientationDeg,1676594082782,121586412628551,133.0,-49.0,23.0
UncalGyro,1676594082787,121586417131786,-0.48487428,-1.6074919,3.3597589,0.0004692871,-0.0009998172,-0.0032410221
UncalAccel,1676594082791,121586421620800,11.596217,-4.62413,7.400402,0.006110925,-0.043260336,-0.038735468
UncalMag,1676594082791,121586421922374,-96.5386,-0.3172,-86.8884,-47.771046,2.9698257,-64.15999
OrientationDeg,1676594082791,121586421620800,132.0,-49.0,24.0
UncalGyro,1676594082796,121586426114757,-0.5343544,-1.6502525,3.2004757,0.0004692871,-0.0009998172,-0.0032410221
UncalAccel,1676594082800,121586430600963,11.402398,-4.6325045,7.9950185,0.006110925,-0.043260336,-0.038735468
OrientationDeg,1676594082799,121586430600963,132.0,-50.0,25.0
UncalMag,1676594082801,121586431927501,-95.2332,2.135,-85.8026,-47.771046,2.9698257,-64.15999
UncalGyro,1676594082805,121586435093151,-0.689056,-1.4726434,3.0784554,0.0004692871,-0.0009998172,-0.0032410221
UncalAccel,1676594082809,121586439580211,11.029118,-4.922036,8.825927,0.006110925,-0.043260336,-0.038735468
OrientationDeg,1676594082808,121586439580211,131.0,-50.0,27.0
UncalMag,1676594082810,121586441927013,-94.4646,3.2208,-82.5086,-47.771046,2.9698257,-64.15999
UncalGyro,1676594082813,121586444071178,-0.9117164,-1.0856602,3.0250046,0.0004692871,-0.0009998172,-0.0032410221
UncalAccel,1676594082818,121586448559459,10.677373,-4.4548373,9.369696,0.006110925,-0.043260336,-0.038735468
OrientationDeg,1676594082817,121586448559459,131.0,-50.0,28.0
UncalMag,1676594082821,121586451927501,-92.1344,6.1731997,-82.581795,-47.771046,2.9698257,-64.15999
UncalGyro,1676594082822,121586453050548,-1.0937542,-0.6797403,2.9668198,0.0004692871,-0.0009998172,-0.0032410221
UncalAccel,1676594082827,121586457539135,10.543375,-4.339384,8.635697,0.006110925,-0.043260336,-0.038735468
OrientationDeg,1676594082826,121586457539135,130.0,-50.0,30.0
UncalMag,1676594082830,121586461927746,-95.5382,5.9048,-80.6664,-47.771046,2.9698257,-64.15999
UncalGyro,1676594082831,121586462027477,-1.1911873,-0.46181414,2.8845057,0.0004692871,-0.0009998172,-0.0032410221
UncalAccel,1676594082836,121586466508067,10.147363,-4.462016,7.5613194,0.006110925,-0.043260336,-0.038735468
OrientationDeg,1676594082835,121586466508067,130.0,-50.0,31.0
UncalGyro,1676594082841,121586471011730,-1.202641,-0.48395798,2.8037188,0.0004692871,-0.0009998172,-0.0032410221
UncalMag,1676594082841,121586471927501,-93.3788,7.7836,-79.5806,-47.771046,2.9698257,-64.15999
UncalAccel,1676594082844,121586475496471,9.716056,-4.685147,6.7148585,0.006110925,-0.043260336,-0.038735468
OrientationDeg,1676594082845,121586475496471,129.0,-50.0,33.0
UncalGyro,1676594082849,121586479982006,-1.1417072,-0.7151705,2.7536278,0.0004692871,-0.0009998172,-0.0032410221
UncalMag,1676594082851,121586481927746,-95.709,9.15,-82.838,-47.771046,2.9698257,-64.15999
UncalAccel,1676594082854,121586484478344,9.329616,-5.224728,6.0526447,0.006110925,-0.043260336,-0.038735468
OrientationDeg,1676594082854,121586484478344,129.0,-50.0,34.0
UncalGyro,1676594082858,121586488966991,-1.044885,-1.063211,2.7614164,0.0004692871,-0.0009998172,-0.0032410221
UncalMag,1676594082860,121586491927746,-95.6724,9.991799,-79.5562,-47.771046,2.9698257,-64.15999
UncalAccel,1676594082862,121586493449901,8.932407,-5.9748783,6.108876,0.006110925,-0.043260336,-0.038735468
OrientationDeg,1676594082863,121586493449901,128.0,-51.0,36.0
UncalGyro,1676594082867,121586497946666,-0.94974273,-1.3787229,2.8281534,0.0004692871,-0.0009998172,-0.0032410221
UncalMag,1676594082870,121586501927501,-94.1474,11.528999,-77.1406,-47.771046,2.9698257,-64.15999
UncalAccel,1676594082871,121586502424022,8.42812,-6.734599,6.702894,0.006110925,-0.043260336,-0.038735468
OrientationDeg,1676594082872,121586502424022,127.0,-51.0,37.0
UncalGyro,1676594082875,121586506922679,-0.85062987,-1.5914567,2.9610167,0.0004692871,-0.0009998172,-0.0032410221
UncalAccel,1676594082881,121586511418102,8.233703,-7.500303,7.2083783,0.006110925,-0.043260336,-0.038735468
UncalMag,1676594082881,121586511915783,-97.0022,12.2,-77.7872,-47.771046,2.9698257,-64.15999
OrientationDeg,1676594082880,121586511418102,127.0,-51.0,39.0
UncalGyro,1676594082885,121586515912059,-0.70264775,-1.7745636,3.1665728,0.0004692871,-0.0009998172,-0.0032410221
UncalAccel,1676594082890,121586520400218,8.196015,-8.223534,7.9860454,0.006110925,-0.043260336,-0.038735468
OrientationDeg,1676594082889,121586520400218,126.0,-52.0,40.0
UncalMag,1676594082890,121586521927746,-93.610596,14.1032,-76.2866,-47.771046,2.9698257,-64.15999
UncalGyro,1676594082894,121586524888805,-0.49938235,-1.9039142,3.431841,0.0004692871,-0.0009998172,-0.0032410221
UncalAccel,1676594082899,121586529377574,7.780263,-8.886943,9.134003,0.006110925,-0.043260336,-0.038735468
OrientationDeg,1676594082898,121586529377574,124.0,-52.0,42.0
UncalMag,1676594082901,121586531927746,-94.4402,15.677,-76.5184,-47.771046,2.9698257,-64.15999
UncalGyro,1676594082903,121586533868541,-0.23823744,-1.918575,3.762319,0.0004692871,-0.0009998172,-0.0032410221
UncalAccel,1676594082907,121586538357616,7.725228,-10.01815,9.809377,0.006110925,-0.043260336,-0.038735468
OrientationDeg,1676594082908,121586538357616,123.0,-51.0,43.0
UncalMag,1676594082911,121586541924083,-93.012794,17.7144,-73.1512,-47.771046,2.9698257,-64.15999
UncalGyro,1676594082912,121586542846629,0.07452556,-1.8611537,4.125784,0.0004692871,-0.0009998172,-0.0032410221
UncalAccel,1676594082916,121586547325573,7.2861447,-11.103893,10.216156,0.006110925,-0.043260336,-0.038735468
OrientationDeg,1676594082917,121586547325573,121.0,-51.0,45.0
UncalGyro,1676594082921,121586551828075,0.4036292,-1.7615826,4.527275,0.0004692871,-0.0009998172,-0.0032410221
UncalMag,1676594082920,121586551915783,-93.0982,19.1052,-73.382996,-47.771046,2.9698257,-64.15999
UncalAccel,1676594082925,121586556316723,6.916454,-11.801999,9.634102,0.006110925,-0.043260336,-0.038735468
OrientationDeg,1676594082926,121586556316723,118.0,-50.0,47.0
UncalGyro,1676594082930,121586560810618,0.69027776,-1.7238617,4.968778,0.0004692871,-0.0009998172,-0.0032410221
UncalMag,1676594082931,121586561927257,-93.8912,20.7644,-73.5172,-47.771046,2.9698257,-64.15999
UncalAccel,1676594082935,121586565296581,6.8249283,-12.214163,8.282756,0.006110925,-0.043260336,-0.038735468
OrientationDeg,1676594082934,121586565296581,115.0,-48.0,49.0
UncalGyro,1676594082939,121586569787731,0.90224797,-1.8380935,5.4286065,0.0004692871,-0.0009998172,-0.0032410221
UncalMag,1676594082940,121586571927746,-93.1714,23.0824,-71.797,-47.771046,2.9698257,-64.15999
UncalAccel,1676594082944,121586574277049,7.304091,-12.481561,7.3022966,0.006110925,-0.043260336,-0.038735468
OrientationDeg,1676594082943,121586574277049,111.0,-47.0,50.0
UncalGyro,1676594082947,121586578769359,1.0494665,-2.05266,5.86507,0.0004692871,-0.0009998172,-0.0032410221
UncalMag,1676594082950,121586581927501,-96.3312,23.484999,-75.274,-47.771046,2.9698257,-64.15999
UncalAccel,1676594082952,121586583255748,8.35454,-12.525828,6.934998,0.006110925,-0.043260336,-0.038735468
OrientationDeg,1676594082952,121586583255748,108.0,-44.0,52.0
UncalGyro,1676594082957,121586587747203,1.1472049,-2.2973115,6.2134156,0.0004692871,-0.0009998172,-0.0032410221
UncalMag,1676594082960,121586591927746,-94.403595,26.4984,-73.9442,-47.771046,2.9698257,-64.15999
UncalAccel,1676594082961,121586592235485,9.457631,-12.600006,6.4008007,0.006110925,-0.043260336,-0.038735468
OrientationDeg,1676594082962,121586592235485,103.0,-42.0,54.0
UncalGyro,1676594082966,121586596727489,1.2169963,-2.677575,6.500981,0.0004692871,-0.0009998172,-0.0032410221
UncalAccel,1676594082970,121586601217418,10.613365,-12.5449705,6.0921264,0.006110925,-0.043260336,-0.038735468
UncalMag,1676594082971,121586601916027,-89.3772,30.0364,-70.7722,-47.771046,2.9698257,-64.15999
OrientationDeg,1676594082970,121586601217418,97.0,-39.0,56.0
UncalGyro,1676594082974,121586605706676,1.3376422,-3.1726813,6.7135615,0.0004692871,-0.0009998172,-0.0032410221
UncalAccel,1676594082979,121586610195690,11.49153,-12.766307,5.4849477,0.006110925,-0.043260336,-0.038735468
OrientationDeg,1676594082980,121586610195690,92.0,-36.0,57.0
UncalMag,1676594082981,121586611909435,-88.474396,32.256798,-69.8572,-47.771046,2.9698257,-64.15999
UncalGyro,1676594082984,121586614686901,1.5013541,-3.8148534,6.9915056,0.0004692871,-0.0009998172,-0.0032410221
UncalAccel,1676594082988,121586619171947,11.982657,-12.759129,6.5114684,0.006110925,-0.043260336,-0.038735468
OrientationDeg,1676594082989,121586619171947,85.0,-32.0,59.0
UncalMag,1676594082991,121586621927746,-86.3516,33.8794,-69.4668,-47.771046,2.9698257,-64.15999
UncalGyro,1676594082993,121586623654186,1.8000672,-4.3256893,7.124216,0.0004692871,-0.0009998172,-0.0032410221
UncalAccel,1676594082997,121586628154674,12.72204,-12.019747,7.55773,0.006110925,-0.043260336,-0.038735468
OrientationDeg,1676594082998,121586628154674,78.0,-28.0,60.0
UncalMag,1676594083001,121586631927746,-80.4834,37.7346,-67.770996,-47.771046,2.9698257,-64.15999
UncalGyro,1676594083001,121586632645946,2.221106,-4.619821,7.079317,0.0004692871,-0.0009998172,-0.0032410221
UncalAccel,1676594083006,121586637137645,13.383057,-11.965908,7.980662,0.006110925,-0.043260336,-0.038735468
OrientationDeg,1676594083007,121586637137645,70.0,-24.0,60.0
UncalGyro,1676594083011,121586641625560,2.6723828,-4.7610836,6.9941015,0.0004692871,-0.0009998172,-0.0032410221
UncalMag,1676594083011,121586641917736,-81.5082,38.6618,-67.148796,-47.771046,2.9698257,-64.15999
UncalAccel,1676594083015,121586646114757,13.794024,-11.95873,7.7437725,0.006110925,-0.043260336,-0.038735468
OrientationDeg,1676594083016,121586646114757,63.0,-20.0,60.0
UncalGyro,1676594083019,121586650607799,3.1571043,-4.932737,6.832986,0.0004692871,-0.0009998172,-0.0032410221
UncalMag,1676594083021,121586651927501,-77.7628,40.8456,-67.4538,-47.771046,2.9698257,-64.15999
UncalAccel,1676594083025,121586655094127,13.974084,-11.730215,7.34118,0.006110925,-0.043260336,-0.038735468
OrientationDeg,1676594083025,121586655094127,55.0,-16.0,60.0
UncalGyro,1676594083028,121586659585216,3.5952475,-4.884937,6.6620965,0.0004692871,-0.0009998172,-0.0032410221
UncalMag,1676594083031,121586661917003,-75.3472,42.9074,-67.7344,-47.771046,2.9698257,-64.15999
UncalAccel,1676594083033,121586664073436,13.753944,-11.081759,6.5760746,0.006110925,-0.043260336,-0.038735468
OrientationDeg,1676594083034,121586664073436,48.0,-12.0,59.0
UncalGyro,1676594083037,121586668564586,3.9431353,-4.7175593,6.529233,0.0004692871,-0.0009998172,-0.0032410221
UncalMag,1676594083041,121586671927501,-72.7486,44.5422,-67.6734,-47.771046,2.9698257,-64.15999
