# 
# Header Description:
# 
# Version: v3.0.5.6 Platform: 13 Manufacturer: Google Model: Pixel 6
# 
# Raw,utcTimeMillis,TimeNanos,LeapSecond,TimeUncertaintyNanos,FullBiasNanos,BiasNanos,BiasUncertaintyNanos,DriftNanosPerSecond,DriftUncertaintyNanosPerSecond,HardwareClockDiscontinuityCount,Svid,TimeOffsetNanos,State,ReceivedSvTimeNanos,ReceivedSvTimeUncertaintyNanos,Cn0DbHz,PseudorangeRateMetersPerSecond,PseudorangeRateUncertaintyMetersPerSecond,AccumulatedDeltaRangeState,AccumulatedDeltaRangeMeters,AccumulatedDeltaRangeUncertaintyMeters,CarrierFrequencyHz,CarrierCycles,CarrierPhase,CarrierPhaseUncertainty,MultipathIndicator,SnrInDb,ConstellationType,AgcDb,BasebandCn0DbHz,FullInterSignalBiasNanos,FullInterSignalBiasUncertaintyNanos,SatelliteInterSignalBiasNanos,SatelliteInterSignalBiasUncertaintyNanos,CodeType,ChipsetElapsedRealtimeNanos
# 
# UncalAccel,utcTimeMillis,elapsedRealtimeNanos,UncalAccelXMps2,UncalAccelYMps2,UncalAccelZMps2,BiasXMps2,BiasYMps2,BiasZMps2
# 
# Accel,utcTimeMillis,elapsedRealtimeNanos,AccelXMps2,AccelYMps2,AccelZMps2
# 
# UncalGyro,utcTimeMillis,elapsedRealtimeNanos,UncalGyroXRadPerSec,UncalGyroYRadPerSec,UncalGyroZRadPerSec,DriftXRadPerSec,DriftYRadPerSec,DriftZRadPerSec
# 
# Gyro,utcTimeMillis,elapsedRealtimeNanos,GyroXRadPerSec,GyroYRadPerSec,GyroZRadPerSec
# 
# UncalMag,utcTimeMillis,elapsedRealtimeNanos,UncalMagXMicroT,UncalMagYMicroT,UncalMagZMicroT,BiasXMicroT,BiasYMicroT,BiasZMicroT
# 
# Mag,utcTimeMillis,elapsedRealtimeNanos,MagXMicroT,MagYMicroT,MagZMicroT
# 
# OrientationDeg,utcTimeMillis,elapsedRealtimeNanos,yawDeg,rollDeg,pitchDeg
# 
# Fix,Provider,LatitudeDegrees,LongitudeDegrees,AltitudeMeters,SpeedMps,AccuracyMeters,BearingDegrees,UnixTimeMillis,SpeedAccuracyMps,BearingAccuracyDegrees,elapsedRealtimeNanos,VerticalAccuracyMeters
# 
# Nav,Svid,Type,Status,MessageId,Sub-messageId,Data(Bytes)
# 
# Status,UnixTimeMillis,SignalCount,SignalIndex,ConstellationType,Svid,CarrierFrequencyHz,Cn0DbHz,AzimuthDegrees,ElevationDegrees,UsedInFix,HasAlmanacData,HasEphemerisData,BasebandCn0DbHz
# 
UncalAccel,1676593677203,121180833549266,-0.799801,0.70648086,9.24467,0.006110925,-0.043260336,-0.038735468
UncalGyro,1676593677207,121180838028636,0.045814894,-0.34406984,-0.22800545,0.00046895302,-0.0009937166,-0.0032401173
UncalGyro,1676593677216,121180847008983,0.02687807,-0.43799037,-0.13607024,0.00046895302,-0.0009937166,-0.0032401173
UncalAccel,1676593677211,121180842518932,-0.8105687,0.70648086,9.492328,0.006110925,-0.043260336,-0.038735468
UncalMag,1676593677209,121180840000744,-70.2354,-14.396,-108.714195,-47.771046,2.9698257,-64.15999
UncalMag,1676593677218,121180849999523,-68.3688,-13.3224,-108.0554,-47.771046,2.9698257,-64.15999
UncalAccel,1676593677220,121180851492931,-0.78424764,0.5772685,9.777672,0.006110925,-0.043260336,-0.038735468
UncalGyro,1676593677224,121180855990917,-0.08093964,-0.36147952,0.008246681,0.00046895302,-0.0009937166,-0.0032401173
UncalMag,1676593677229,121180860000255,-71.2602,-14.945,-109.3974,-47.771046,2.9698257,-64.15999
UncalAccel,1676593677230,121180860477244,-0.94755775,1.1150553,9.780065,0.006110925,-0.043260336,-0.038735468
UncalGyro,1676593677234,121180864968882,-0.14370605,-0.2782491,0.1301143,0.00046895302,-0.0009937166,-0.0032401173
OrientationDeg,1676593677221,121180851492931,116.0,3.0,-10.0
OrientationDeg,1676593677230,121180860477244,116.0,2.0,-10.0
UncalAccel,1676593677239,121180869456370,-1.0109676,1.7581264,10.092328,0.006110925,-0.043260336,-0.038735468
UncalMag,1676593677238,121180869999279,-68.100395,-13.0296,-107.8358,-47.771046,2.9698257,-64.15999
UncalGyro,1676593677242,121180873947765,-0.13026701,-0.17745635,0.17256944,0.00046895302,-0.0009937166,-0.0032401173
OrientationDeg,1676593677238,121180869456370,116.0,2.0,-10.0
Fix,FLP,37.4313150000,-122.1550432000,-16.5,0.91094655,4.281,35.30495,1676593676946,,,121180577626659,3.9211855
UncalAccel,1676593677247,121180878437877,-0.85483587,2.0787647,10.876575,0.006110925,-0.043260336,-0.038735468
OrientationDeg,1676593677247,121180878437877,116.0,2.0,-10.0
UncalMag,1676593677250,121180880000011,-69.784,-13.847,-108.519,-47.771046,2.9698257,-64.15999
UncalGyro,1676593677251,121180882930980,-0.064751714,0.047494773,0.12690726,0.00046895302,-0.0009937166,-0.0032401173
UncalAccel,1676593677257,121180887416698,-0.6658029,1.7330018,11.618949,0.006110925,-0.043260336,-0.038735468
OrientationDeg,1676593677257,121180887416698,116.0,2.0,-10.0
UncalMag,1676593677260,121180890000499,-69.2472,-12.8832,-107.3966,-47.771046,2.9698257,-64.15999
UncalGyro,1676593677261,121180891910289,0.040775254,0.37491855,0.063224554,0.00046895302,-0.0009937166,-0.0032401173
UncalAccel,1676593677266,121180896398693,-0.75194454,1.1629118,11.796616,0.006110925,-0.043260336,-0.038735468
OrientationDeg,1676593677265,121180896398693,116.0,3.0,-10.0
UncalMag,1676593677270,121180900002453,-71.0772,-14.0788,-108.458,-47.771046,2.9698257,-64.15999
UncalGyro,1676593677270,121180900888317,0.19303341,0.6017023,0.056199603,0.00046895302,-0.0009937166,-0.0032401173
UncalAccel,1676593677274,121180905376903,-1.0683953,0.8003992,11.626725,0.006110925,-0.043260336,-0.038735468
OrientationDeg,1676593677274,121180905376903,116.0,3.0,-10.0
UncalGyro,1676593677279,121180909870738,0.441961,0.6469063,0.11881329,0.00046895302,-0.0009937166,-0.0032401173
UncalMag,1676593677279,121180909999035,-68.1126,-12.773399,-108.4458,-47.771046,2.9698257,-64.15999
UncalAccel,1676593677284,121180914360729,-1.4763715,0.4528417,11.608779,0.006110925,-0.043260336,-0.038735468
OrientationDeg,1676593677283,121180914360729,116.0,3.0,-11.0
UncalGyro,1676593677288,121180918848949,0.8136725,0.5731443,0.24480425,0.00046895302,-0.0009937166,-0.0032401173
UncalMag,1676593677288,121180919999767,-66.4534,-12.773399,-107.2624,-47.771046,2.9698257,-64.15999
UncalAccel,1676593677293,121180923344005,-1.5726827,0.48215377,11.866008,0.006110925,-0.043260336,-0.038735468
OrientationDeg,1676593677293,121180923344005,115.0,3.0,-11.0
UncalGyro,1676593677296,121180927837779,1.2880094,0.5290093,0.3820962,0.00046895302,-0.0009937166,-0.0032401173
UncalMag,1676593677300,121180930004406,-67.344,-13.7128,-107.3966,-47.771046,2.9698257,-64.15999
UncalAccel,1676593677301,121180932315746,-1.2819548,0.77766734,12.354741,0.006110925,-0.043260336,-0.038735468
OrientationDeg,1676593677301,121180932315746,115.0,4.0,-12.0
UncalGyro,1676593677306,121180936807323,1.8548924,0.57558775,0.48579058,0.00046895302,-0.0009937166,-0.0032401173
UncalMag,1676593677308,121180939999523,-66.673,-13.6152,-107.6772,-47.771046,2.9698257,-64.15999
UncalAccel,1676593677310,121180941292430,-1.079163,1.4141582,11.849257,0.006110925,-0.043260336,-0.038735468
OrientationDeg,1676593677311,121180941292430,115.0,4.0,-13.0
UncalGyro,1676593677315,121180945786327,2.4239132,0.4980079,0.52732944,0.00046895302,-0.0009937166,-0.0032401173
UncalMag,1676593677318,121180949999767,-67.039,-14.518,-106.811,-47.771046,2.9698257,-64.15999
UncalAccel,1676593677320,121180950277904,-1.1988041,1.5284154,8.20798,0.006110925,-0.043260336,-0.038735468
OrientationDeg,1676593677319,121180950277904,115.0,4.0,-15.0
UncalGyro,1676593677324,121180954777172,2.638938,-0.2857322,0.46700647,0.00046895302,-0.0009937166,-0.0032401173
UncalAccel,1676593677328,121180959261851,-0.33080772,3.0693932,2.7726831,0.006110925,-0.043260336,-0.038735468
UncalMag,1676593677329,121180959998790,-66.3558,-15.9088,-105.6764,-47.771046,2.9698257,-64.15999
OrientationDeg,1676593677329,121180959261851,115.0,3.0,-16.0
UncalGyro,1676593677333,121180963750621,2.3593142,-1.8854356,0.15867224,0.00046895302,-0.0009937166,-0.0032401173
UncalAccel,1676593677338,121180968235057,2.3192434,3.32722,3.2530425,0.006110925,-0.043260336,-0.038735468
OrientationDeg,1676593677337,121180968235057,115.0,2.0,-17.0
UncalMag,1676593677338,121180969999523,-71.1138,-18.0682,-106.713394,-47.771046,2.9698257,-64.15999
UncalGyro,1676593677342,121180972728160,2.1496348,-3.3415856,-0.3391829,0.00046895302,-0.0009937166,-0.0032401173
UncalAccel,1676593677347,121180977213939,3.8709888,3.0646076,5.227121,0.006110925,-0.043260336,-0.038735468
OrientationDeg,1676593677346,121180977213939,115.0,0.0,-18.0
UncalMag,1676593677349,121180980000499,-74.7616,-20.557,-109.129,-47.771046,2.9698257,-64.15999
UncalGyro,1676593677350,121180981708507,2.1815524,-4.3565383,-0.8498663,0.00046895302,-0.0009937166,-0.0032401173
UncalAccel,1676593677356,121180986194591,4.4135613,3.0903304,6.4259253,0.006110925,-0.043260336,-0.038735468
OrientationDeg,1676593677355,121180986194591,116.0,-1.0,-19.0
UncalMag,1676593677359,121180990004650,-73.017,-19.629799,-104.1392,-47.771046,2.9698257,-64.15999
UncalGyro,1676593677359,121180990685741,2.3361015,-5.011386,-1.3174837,0.00046895302,-0.0009937166,-0.0032401173
UncalAccel,1676593677365,121180995173534,4.3208394,3.4079776,7.413563,0.006110925,-0.043260336,-0.038735468
OrientationDeg,1676593677365,121180995173534,116.0,-4.0,-21.0
UncalGyro,1676593677369,121180999666515,2.490803,-5.328883,-1.752267,0.00046895302,-0.0009937166,-0.0032401173
UncalMag,1676593677369,121180999999279,-73.871,-21.1914,-101.8456,-47.771046,2.9698257,-64.15999
UncalAccel,1676593677373,121181004155651,3.8835511,3.6173496,8.346764,0.006110925,-0.043260336,-0.038735468
OrientationDeg,1676593677374,121181004155651,117.0,-6.0,-22.0
UncalGyro,1676593677378,121181008649120,2.5773933,-5.357899,-2.1398609,0.00046895302,-0.0009937166,-0.0032401173
UncalMag,1676593677380,121181010010753,-74.8104,-22.7164,-99.796,-47.771046,2.9698257,-64.15999
UncalAccel,1676593677382,121181013147960,3.3846476,3.4863427,8.8014,0.006110925,-0.043260336,-0.038735468
OrientationDeg,1676593677383,121181013147960,118.0,-9.0,-24.0
UncalGyro,1676593677387,121181017638682,2.5857925,-5.122716,-2.4423919,0.00046895302,-0.0009937166,-0.0032401173
UncalMag,1676593677390,121181020010753,-75.274,-23.729,-98.4906,-47.771046,2.9698257,-64.15999
UncalAccel,1676593677392,121181022127696,2.5028925,3.5066817,10.694122,0.006110925,-0.043260336,-0.038735468
OrientationDeg,1676593677392,121181022127696,119.0,-11.0,-25.0
UncalGyro,1676593677396,121181026615856,2.340683,-4.2024474,-2.6795604,0.00046895302,-0.0009937166,-0.0032401173
UncalMag,1676593677400,121181030010998,-75.1886,-25.0222,-95.3674,-47.771046,2.9698257,-64.15999
UncalAccel,1676593677400,121181031105174,1.6827525,3.4211383,12.553346,0.006110925,-0.043260336,-0.038735468
OrientationDeg,1676593677400,121181031105174,120.0,-12.0,-26.0
UncalGyro,1676593677405,121181035596813,1.9352211,-2.8567114,-2.8215866,0.00046895302,-0.0009937166,-0.0032401173
UncalMag,1676593677410,121181040010998,-73.858795,-25.6078,-93.391,-47.771046,2.9698257,-64.15999
UncalAccel,1676593677409,121181040081798,1.0911272,2.076372,9.646067,0.006110925,-0.043260336,-0.038735468
OrientationDeg,1676593677410,121181040081798,122.0,-12.0,-28.0
UncalGyro,1676593677414,121181044564098,1.6426166,-1.8284724,-2.7322476,0.00046895302,-0.0009937166,-0.0032401173
UncalAccel,1676593677418,121181049064342,0.47856453,1.6863418,8.640483,0.006110925,-0.043260336,-0.038735468
UncalMag,1676593677418,121181049999035,-73.7246,-27.4622,-93.8058,-47.771046,2.9698257,-64.15999
OrientationDeg,1676593677418,121181049064342,123.0,-12.0,-29.0
UncalGyro,1676593677422,121181053556285,1.2507466,-0.88132584,-2.4613287,0.00046895302,-0.0009937166,-0.0032401173
UncalAccel,1676593677428,121181058046946,-0.44925246,1.628914,7.158727,0.006110925,-0.043260336,-0.038735468
OrientationDeg,1676593677427,121181058046946,124.0,-12.0,-29.0
UncalMag,1676593677430,121181060010998,-74.7128,-27.9746,-95.6724,-47.771046,2.9698257,-64.15999
UncalGyro,1676593677431,121181062532542,0.8049677,-0.129198,-2.0366247,0.00046895302,-0.0009937166,-0.0032401173
UncalAccel,1676593677437,121181067013866,-2.8354948,1.7431713,6.000003,0.006110925,-0.043260336,-0.038735468
OrientationDeg,1676593677437,121181067013866,125.0,-11.0,-30.0
UncalMag,1676593677439,121181070010753,-70.5038,-26.8888,-91.1828,-47.771046,2.9698257,-64.15999
UncalGyro,1676593677441,121181071513072,0.36102137,0.21639901,-1.3364204,0.00046895302,-0.0009937166,-0.0032401173
UncalAccel,1676593677445,121181075991893,-8.510672,2.132005,6.142974,0.006110925,-0.043260336,-0.038735468
OrientationDeg,1676593677444,121181075991893,125.0,-11.0,-30.0
UncalMag,1676593677450,121181080010753,-71.9434,-27.6696,-92.1344,-47.771046,2.9698257,-64.15999
UncalGyro,1676593677449,121181080497325,0.03176499,0.2742785,-0.26740626,0.00046895302,-0.0009937166,-0.0032401173
UncalAccel,1676593677454,121181084983288,-5.9473605,1.9788643,8.117651,0.006110925,-0.043260336,-0.038735468
OrientationDeg,1676593677453,121181084983288,125.0,-10.0,-30.0
UncalGyro,1676593677458,121181089477489,-0.25381452,0.5487097,0.5893322,0.00046895302,-0.0009937166,-0.0032401173
UncalMag,1676593677459,121181090003673,-72.126396,-27.4256,-92.5492,-47.771046,2.9698257,-64.15999
UncalAccel,1676593677462,121181093960887,0.27098715,0.75673014,7.7054873,0.006110925,-0.043260336,-0.038735468
OrientationDeg,1676593677463,121181093960887,125.0,-10.0,-29.0
UncalGyro,1676593677467,121181098444713,-0.47036624,0.674548,1.0112875,0.00046895302,-0.0009937166,-0.0032401173
UncalMag,1676593677470,121181100010998,-73.077995,-27.803799,-94.867195,-47.771046,2.9698257,-64.15999
UncalAccel,1676593677471,121181102943309,4.188038,0.15792629,7.0576305,0.006110925,-0.043260336,-0.038735468
OrientationDeg,1676593677471,121181102943309,124.0,-10.0,-29.0
UncalGyro,1676593677476,121181107435253,-0.5187773,0.51053065,1.1212431,0.00046895302,-0.0009937166,-0.0032401173
UncalMag,1676593677480,121181110010753,-73.505,-27.608599,-95.2332,-47.771046,2.9698257,-64.15999
UncalAccel,1676593677480,121181111925426,6.1447687,0.78424764,8.551949,0.006110925,-0.043260336,-0.038735468
OrientationDeg,1676593677481,121181111925426,124.0,-11.0,-29.0
UncalGyro,1676593677486,121181116414073,-0.42714754,0.27382034,1.007775,0.00046895302,-0.0009937166,-0.0032401173
UncalMag,1676593677490,121181120010998,-73.7856,-27.0474,-94.8916,-47.771046,2.9698257,-64.15999
UncalAccel,1676593677489,121181120902965,6.617351,2.2061825,9.633504,0.006110925,-0.043260336,-0.038735468
OrientationDeg,1676593677489,121181120902965,123.0,-11.0,-28.0
UncalGyro,1676593677494,121181125394664,-0.279929,-0.0759,0.74204856,0.00046895302,-0.0009937166,-0.0032401173
UncalAccel,1676593677498,121181129882518,6.3828545,3.2721848,10.44826,0.006110925,-0.043260336,-0.038735468
UncalMag,1676593677499,121181130006359,-74.6884,-27.181599,-94.1108,-47.771046,2.9698257,-64.15999
OrientationDeg,1676593677499,121181129882518,123.0,-11.0,-28.0
UncalGyro,1676593677503,121181134373668,-0.09330966,-0.45952338,0.42287147,0.00046895302,-0.0009937166,-0.0032401173
UncalAccel,1676593677507,121181138860119,6.2715883,3.1202407,11.60519,0.006110925,-0.043260336,-0.038735468
UncalMag,1676593677509,121181139999279,-75.6644,-27.767199,-95.2088,-47.771046,2.9698257,-64.15999
OrientationDeg,1676593677508,121181138860119,123.0,-12.0,-28.0
UncalGyro,1676593677512,121181143344860,0.124769226,-0.6565274,0.15668693,0.00046895302,-0.0009937166,-0.0032401173
UncalAccel,1676593677516,121181147841930,6.6011996,2.571686,12.51865,0.006110925,-0.043260336,-0.038735468
OrientationDeg,1676593677517,121181147841930,122.0,-12.0,-28.0
UncalMag,1676593677518,121181149999279,-75.883995,-26.9376,-93.7082,-47.771046,2.9698257,-64.15999
UncalGyro,1676593677521,121181152333202,0.3231477,-0.6097962,-0.027641652,0.00046895302,-0.0009937166,-0.0032401173
UncalAccel,1676593677526,121181156824230,7.1342006,2.7320054,12.874582,0.006110925,-0.043260336,-0.038735468
OrientationDeg,1676593677525,121181156824230,122.0,-12.0,-28.0
UncalMag,1676593677530,121181160010998,-75.6034,-26.9986,-94.391396,-47.771046,2.9698257,-64.15999
UncalGyro,1676593677530,121181161308849,0.46715918,-0.48395798,-0.14523321,0.00046895302,-0.0009937166,-0.0032401173
UncalAccel,1676593677534,121181165786327,7.4943204,3.6161532,11.88515,0.006110925,-0.043260336,-0.038735468
OrientationDeg,1676593677534,121181165786327,122.0,-12.0,-29.0
UncalMag,1676593677540,121181170010998,-74.0418,-27.0718,-91.280396,-47.771046,2.9698257,-64.15999
UncalGyro,1676593677540,121181170289928,0.52213705,-0.5717699,-0.24190263,0.00046895302,-0.0009937166,-0.0032401173
UncalAccel,1676593677543,121181174769297,7.4045897,4.9112687,10.733006,0.006110925,-0.043260336,-0.038735468
OrientationDeg,1676593677544,121181174769297,123.0,-13.0,-29.0
UncalGyro,1676593677549,121181179273570,0.46502116,-0.86926126,-0.36865717,0.00046895302,-0.0009937166,-0.0032401173
UncalMag,1676593677550,121181180010753,-73.9564,-27.144999,-92.3174,-47.771046,2.9698257,-64.15999
UncalAccel,1676593677553,121181183761364,7.045666,5.74756,10.383056,0.006110925,-0.043260336,-0.038735468
OrientationDeg,1676593677552,121181183761364,123.0,-13.0,-29.0
UncalGyro,1676593677557,121181188255321,0.34880406,-1.1748465,-0.5206099,0.00046895302,-0.0009937166,-0.0032401173
UncalMag,1676593677560,121181190010998,-75.152,-27.449999,-93.4154,-47.771046,2.9698257,-64.15999
UncalAccel,1676593677561,121181192742381,6.8368926,6.031708,10.650454,0.006110925,-0.043260336,-0.038735468
OrientationDeg,1676593677561,121181192742381,123.0,-14.0,-29.0
UncalGyro,1676593677566,121181197233348,0.25289822,-1.3600914,-0.6542367,0.00046895302,-0.0009937166,-0.0032401173
UncalMag,1676593677570,121181200010753,-77.47,-28.8286,-94.549995,-47.771046,2.9698257,-64.15999
UncalAccel,1676593677570,121181201721080,6.753144,6.382256,10.737792,0.006110925,-0.043260336,-0.038735468
OrientationDeg,1676593677571,121181201721080,123.0,-14.0,-30.0
UncalGyro,1676593677575,121181206211803,0.20173825,-1.4291192,-0.7620544,0.00046895302,-0.0009937166,-0.0032401173
UncalMag,1676593677580,121181210010753,-76.957596,-29.243399,-94.3304,-47.771046,2.9698257,-64.15999
UncalAccel,1676593677580,121181210700817,6.556334,6.6131635,10.423734,0.006110925,-0.043260336,-0.038735468
OrientationDeg,1676593677579,121181210700817,124.0,-15.0,-30.0
UncalGyro,1676593677584,121181215192760,0.17944166,-1.4378241,-0.8741482,0.00046895302,-0.0009937166,-0.0032401173
UncalAccel,1676593677588,121181219680675,5.8432727,7.2502527,10.004392,0.006110925,-0.043260336,-0.038735468
OrientationDeg,1676593677588,121181219680675,124.0,-15.0,-30.0
UncalMag,1676593677588,121181219999035,-77.0796,-28.852999,-94.7818,-47.771046,2.9698257,-64.15999
UncalGyro,1676593677593,121181224171764,0.15836681,-1.3926201,-0.98563105,0.00046895302,-0.0009937166,-0.0032401173
UncalAccel,1676593677598,121181228655772,4.981857,8.29113,9.319446,0.006110925,-0.043260336,-0.038735468
OrientationDeg,1676593677598,121181228655772,124.0,-16.0,-30.0
UncalMag,1676593677600,121181230000988,-78.4948,-29.511799,-93.9034,-47.771046,2.9698257,-64.15999
UncalGyro,1676593677602,121181233134166,0.16523905,-1.331839,-1.1000156,0.00046895302,-0.0009937166,-0.0032401173
UncalAccel,1676593677607,121181237639965,3.9649072,9.385248,8.438888,0.006110925,-0.043260336,-0.038735468
OrientationDeg,1676593677606,121181237639965,125.0,-16.0,-31.0
UncalMag,1676593677609,121181240007335,-76.128,-29.585,-87.1324,-47.771046,2.9698257,-64.15999
UncalGyro,1676593677611,121181242130992,0.23441954,-1.3119859,-1.206917,0.00046895302,-0.0009937166,-0.0032401173
UncalAccel,1676593677615,121181246624339,3.1758738,9.873384,6.855437,0.006110925,-0.043260336,-0.038735468
OrientationDeg,1676593677615,121181246624339,126.0,-17.0,-31.0
UncalMag,1676593677620,121181250011242,-75.0056,-29.4996,-86.1076,-47.771046,2.9698257,-64.15999
UncalGyro,1676593677621,121181251112071,0.34987307,-1.4173601,-1.2805263,0.00046895302,-0.0009937166,-0.0032401173
UncalAccel,1676593677624,121181255600048,2.5268207,9.972687,5.204389,0.006110925,-0.043260336,-0.038735468
OrientationDeg,1676593677624,121181255600048,126.0,-17.0,-31.0
UncalMag,1676593677630,121181260005382,-76.2866,-30.414598,-85.7904,-47.771046,2.9698257,-64.15999
UncalGyro,1676593677630,121181260090343,0.5002986,-1.6391041,-1.3100005,0.00046895302,-0.0009937166,-0.0032401173
UncalAccel,1676593677633,121181264577831,1.6953149,9.976874,3.6610186,0.006110925,-0.043260336,-0.038735468
OrientationDeg,1676593677634,121181264577831,127.0,-18.0,-32.0
UncalGyro,1676593677638,121181269071605,0.6574437,-1.9091066,-1.2881621,0.00046895302,-0.0009937166,-0.0032401173
UncalMag,1676593677640,121181270010998,-74.005196,-30.4634,-85.1072,-47.771046,2.9698257,-64.15999
UncalAccel,1676593677643,121181273559276,0.61914283,10.025927,2.5411777,0.006110925,-0.043260336,-0.038735468
OrientationDeg,1676593677642,121181273559276,128.0,-18.0,-33.0
UncalGyro,1676593677647,121181278050914,0.77564615,-2.09145,-1.2188289,0.00046895302,-0.0009937166,-0.0032401173
UncalMag,1676593677650,121181280010509,-74.359,-30.5,-83.448,-47.771046,2.9698257,-64.15999
UncalAccel,1676593677652,121181282536327,-0.36311084,10.007382,1.655235,0.006110925,-0.043260336,-0.038735468
OrientationDeg,1676593677652,121181282536327,128.0,-19.0,-33.0
UncalGyro,1676593677656,121181287019725,0.8217665,-2.1168008,-1.1203269,0.00046895302,-0.0009937166,-0.0032401173
UncalMag,1676593677659,121181290010753,-75.4448,-31.305199,-85.1682,-47.771046,2.9698257,-64.15999
UncalAccel,1676593677661,121181291518932,-1.041476,9.84826,0.698106,0.006110925,-0.043260336,-0.038735468
OrientationDeg,1676593677660,121181291518932,129.0,-20.0,-34.0
UncalGyro,1676593677666,121181296009960,0.7664832,-2.0288363,-1.0267117,0.00046895302,-0.0009937166,-0.0032401173
UncalMag,1676593677670,121181300010998,-74.8836,-31.0246,-83.7896,-47.771046,2.9698257,-64.15999
UncalAccel,1676593677670,121181300501597,-1.4069797,9.332008,-0.39780676,0.006110925,-0.043260336,-0.038735468
OrientationDeg,1676593677669,121181300501597,129.0,-21.0,-35.0
UncalGyro,1676593677674,121181304989818,0.56688297,-1.9489655,-0.9521862,0.00046895302,-0.0009937166,-0.0032401173
UncalAccel,1676593677678,121181309478221,-1.2699906,7.6384883,-1.7162521,0.006110925,-0.043260336,-0.038735468
UncalMag,1676593677679,121181310000499,-77.4944,-33.2328,-83.3016,-47.771046,2.9698257,-64.15999
OrientationDeg,1676593677679,121181309478221,129.0,-21.0,-35.0
UncalGyro,1676593677682,121181313969616,0.18784106,-2.0250182,-0.82818055,0.00046895302,-0.0009937166,-0.0032401173
UncalAccel,1676593677687,121181318458690,-0.5413761,4.9196434,-2.8755746,0.006110925,-0.043260336,-0.038735468
OrientationDeg,1676593677688,121181318458690,130.0,-22.0,-35.0
UncalMag,1676593677690,121181320010998,-76.6038,-32.805798,-82.96,-47.771046,2.9698257,-64.15999
UncalGyro,1676593677692,121181322950695,-0.33444872,-2.2627976,-0.5731443,0.00046895302,-0.0009937166,-0.0032401173
UncalAccel,1676593677696,121181327435008,0.36610186,2.5645077,-3.00718,0.006110925,-0.043260336,-0.038735468
OrientationDeg,1676593677697,121181327435008,130.0,-23.0,-35.0
UncalMag,1676593677699,121181329999279,-74.664,-32.3178,-81.178795,-47.771046,2.9698257,-64.15999
UncalGyro,1676593677700,121181331916759,-0.883922,-2.5126414,-0.22983804,0.00046895302,-0.0009937166,-0.0032401173
UncalAccel,1676593677706,121181336418346,1.1425728,1.1359925,-2.120041,0.006110925,-0.043260336,-0.038735468
OrientationDeg,1676593677705,121181336418346,130.0,-25.0,-35.0
UncalMag,1676593677710,121181340010998,-75.6766,-32.6106,-81.6912,-47.771046,2.9698257,-64.15999
UncalGyro,1676593677710,121181340907176,-1.3733778,-2.6771169,0.10522154,0.00046895302,-0.0009937166,-0.0032401173
UncalAccel,1676593677714,121181345386302,2.1355941,0.20518455,-0.9385847,0.006110925,-0.043260336,-0.038735468
OrientationDeg,1676593677714,121181345386302,131.0,-26.0,-34.0
UncalGyro,1676593677719,121181349874217,-1.7765489,-2.7947085,0.3726278,0.00046895302,-0.0009937166,-0.0032401173
UncalMag,1676593677719,121181349999035,-77.286995,-32.5374,-82.105995,-47.771046,2.9698257,-64.15999
UncalAccel,1676593677723,121181354367382,3.7130625,-1.0217353,0.14416756,0.006110925,-0.043260336,-0.038735468
OrientationDeg,1676593677723,121181354367382,131.0,-27.0,-33.0
UncalGyro,1676593677728,121181358872692,-2.0650299,-2.9981265,0.6094908,0.00046895302,-0.0009937166,-0.0032401173
UncalMag,1676593677730,121181360010509,-76.1524,-31.695599,-81.3618,-47.771046,2.9698257,-64.15999
UncalAccel,1676593677733,121181363360363,5.3976097,-2.6757739,1.0677971,0.006110925,-0.043260336,-0.038735468
OrientationDeg,1676593677732,121181363360363,131.0,-29.0,-31.0
UncalGyro,1676593677736,121181367851146,-2.2276728,-3.4394767,0.93218035,0.00046895302,-0.0009937166,-0.0032401173
UncalMag,1676593677740,121181370010753,-75.762,-30.2438,-80.397995,-47.771046,2.9698257,-64.15999
UncalAccel,1676593677741,121181372334117,6.79442,-4.683352,1.8502501,0.006110925,-0.043260336,-0.038735468
OrientationDeg,1676593677742,121181372334117,131.0,-31.0,-30.0
UncalGyro,1676593677745,121181376816600,-2.3092234,-4.0059013,1.4899004,0.00046895302,-0.0009937166,-0.0032401173
UncalMag,1676593677750,121181380010753,-75.945,-29.9632,-79.422,-47.771046,2.9698257,-64.15999
UncalAccel,1676593677750,121181381317028,7.9034934,-5.191827,6.256035,0.006110925,-0.043260336,-0.038735468
OrientationDeg,1676593677751,121181381317028,131.0,-33.0,-28.0
UncalGyro,1676593677755,121181385808055,-2.179109,-4.181525,1.9746219,0.00046895302,-0.0009937166,-0.0032401173
UncalMag,1676593677759,121181390010998,-79.5074,-29.89,-80.1174,-47.771046,2.9698257,-64.15999
UncalAccel,1676593677760,121181390297313,10.609178,-3.9990048,7.5182486,0.006110925,-0.043260336,-0.038735468
OrientationDeg,1676593677759,121181390297313,131.0,-36.0,-27.0
UncalGyro,1676593677763,121181394777294,-1.9269744,-4.1841216,2.0986276,0.00046895302,-0.0009937166,-0.0032401173
UncalAccel,1676593677769,121181399276744,13.1898365,-2.934797,9.732208,0.006110925,-0.043260336,-0.038735468
UncalMag,1676593677769,121181399993908,-80.227196,-28.8408,-79.3488,-47.771046,2.9698257,-64.15999
OrientationDeg,1676593677768,121181399276744,130.0,-38.0,-25.0
UncalGyro,1676593677773,121181403767467,-1.6055065,-3.9979603,1.8397734,0.00046895302,-0.0009937166,-0.0032401173
UncalAccel,1676593677777,121181408259410,15.000606,-2.6715865,12.239287,0.006110925,-0.043260336,-0.038735468
OrientationDeg,1676593677778,121181408259410,130.0,-40.0,-24.0
UncalMag,1676593677779,121181410010753,-81.2642,-28.1576,-78.7876,-47.771046,2.9698257,-64.15999
UncalGyro,1676593677782,121181412748424,-1.2330315,-3.7572794,1.3090842,0.00046895302,-0.0009937166,-0.0032401173
UncalAccel,1676593677786,121181417236278,15.816558,-2.714059,13.91546,0.006110925,-0.043260336,-0.038735468
OrientationDeg,1676593677786,121181417236278,130.0,-42.0,-24.0
UncalMag,1676593677790,121181420010753,-84.265396,-27.767199,-76.7136,-47.771046,2.9698257,-64.15999
UncalGyro,1676593677791,121181421727184,-0.87857693,-3.499036,0.81214535,0.00046895302,-0.0009937166,-0.0032401173
UncalAccel,1676593677796,121181426216014,14.668003,-2.8498518,15.634703,0.006110925,-0.043260336,-0.038735468
OrientationDeg,1676593677796,121181426216014,130.0,-44.0,-23.0
UncalMag,1676593677800,121181430010998,-83.5456,-27.096199,-76.677,-47.771046,2.9698257,-64.15999
UncalGyro,1676593677800,121181430705333,-0.54443365,-3.142749,0.6056729,0.00046895302,-0.0009937166,-0.0032401173
UncalAccel,1676593677805,121181435184520,13.596018,-3.269792,16.761723,0.006110925,-0.043260336,-0.038735468
OrientationDeg,1676593677805,121181435184520,130.0,-45.0,-23.0
UncalGyro,1676593677809,121181439686962,-0.17944166,-2.6842947,0.65377855,0.00046895302,-0.0009937166,-0.0032401173
UncalMag,1676593677809,121181439998790,-85.2536,-27.511,-75.395996,-47.771046,2.9698257,-64.15999
UncalAccel,1676593677814,121181444175426,13.682159,-3.4043884,17.395222,0.006110925,-0.043260336,-0.038735468
OrientationDeg,1676593677813,121181444175426,130.0,-46.0,-22.0
UncalGyro,1676593677817,121181448669506,0.2096795,-2.123673,0.7680103,0.00046895302,-0.0009937166,-0.0032401173
UncalMag,1676593677818,121181449999035,-84.131195,-26.4252,-75.03,-47.771046,2.9698257,-64.15999
UncalAccel,1676593677822,121181453155468,14.254045,-2.7415764,17.520247,0.006110925,-0.043260336,-0.038735468
OrientationDeg,1676593677823,121181453155468,129.0,-48.0,-22.0
UncalGyro,1676593677827,121181457646617,0.569021,-1.5013541,0.7820602,0.00046895302,-0.0009937166,-0.0032401173
UncalMag,1676593677829,121181459999035,-85.3878,-26.718,-73.6514,-47.771046,2.9698257,-64.15999
UncalAccel,1676593677832,121181462135448,14.703297,-1.6701902,17.008781,0.006110925,-0.043260336,-0.038735468
OrientationDeg,1676593677831,121181462135448,129.0,-48.0,-22.0
UncalGyro,1676593677836,121181466627330,0.8622363,-0.8605564,0.62964934,0.00046895302,-0.0009937166,-0.0032401173
UncalMag,1676593677839,121181469999523,-85.058395,-27.022999,-72.9682,-47.771046,2.9698257,-64.15999
UncalAccel,1676593677840,121181471111949,14.679369,-1.2580265,15.695122,0.006110925,-0.043260336,-0.038735468
OrientationDeg,1676593677840,121181471111949,128.0,-49.0,-22.0
UncalGyro,1676593677844,121181475594432,1.1016954,-0.2770274,0.36193767,0.00046895302,-0.0009937166,-0.0032401173
UncalMag,1676593677850,121181480010753,-84.9974,-26.010399,-72.1996,-47.771046,2.9698257,-64.15999
UncalAccel,1676593677849,121181480094372,13.882559,-1.3166506,13.894523,0.006110925,-0.043260336,-0.038735468
OrientationDeg,1676593677849,121181480094372,127.0,-49.0,-22.0
UncalGyro,1676593677854,121181484584972,1.2698362,0.2133447,0.09193522,0.00046895302,-0.0009937166,-0.0032401173
UncalAccel,1676593677858,121181489077770,12.81177,-2.0733807,11.402996,0.006110925,-0.043260336,-0.038735468
UncalMag,1676593677858,121181489999035,-84.302,-26.5838,-71.8946,-47.771046,2.9698257,-64.15999
OrientationDeg,1676593677858,121181489077770,127.0,-49.0,-23.0
UncalGyro,1676593677862,121181493562877,1.3468051,0.537256,-0.089186326,0.00046895302,-0.0009937166,-0.0032401173
UncalAccel,1676593677867,121181498044139,11.587244,-2.853441,9.05803,0.006110925,-0.043260336,-0.038735468
OrientationDeg,1676593677868,121181498044139,126.0,-49.0,-23.0
UncalMag,1676593677870,121181500010753,-86.1076,-27.389,-73.4684,-47.771046,2.9698257,-64.15999
UncalGyro,1676593677872,121181502546520,1.3381003,0.6950119,-0.18921551,0.00046895302,-0.0009937166,-0.0032401173
UncalAccel,1676593677876,121181507034374,10.33161,-3.1106694,7.092326,0.006110925,-0.043260336,-0.038735468
OrientationDeg,1676593677876,121181507034374,126.0,-49.0,-24.0
UncalMag,1676593677880,121181510010998,-84.887596,-26.6448,-71.8092,-47.771046,2.9698257,-64.15999
UncalGyro,1676593677880,121181511528026,1.2719742,0.745561,-0.24801129,0.00046895302,-0.0009937166,-0.0032401173
UncalAccel,1676593677885,121181516010814,8.916854,-3.2703903,5.7559347,0.006110925,-0.043260336,-0.038735468
OrientationDeg,1676593677886,121181516010814,125.0,-49.0,-24.0
UncalMag,1676593677890,121181520010998,-84.8022,-27.1572,-73.2976,-47.771046,2.9698257,-64.15999
UncalGyro,1676593677889,121181520493053,1.1937834,0.753655,-0.2576324,0.00046895302,-0.0009937166,-0.0032401173
UncalAccel,1676593677894,121181524993785,7.676175,-3.4941192,4.6145587,0.006110925,-0.043260336,-0.038735468
OrientationDeg,1676593677894,121181524993785,125.0,-48.0,-25.0
UncalGyro,1676593677898,121181529484813,1.1082623,0.7005097,-0.17241672,0.00046895302,-0.0009937166,-0.0032401173
UncalMag,1676593677898,121181529995617,-84.1678,-27.022999,-72.8462,-47.771046,2.9698257,-64.15999
UncalAccel,1676593677903,121181533977062,6.5485573,-3.6981075,3.9744785,0.006110925,-0.043260336,-0.038735468
OrientationDeg,1676593677903,121181533977062,124.0,-48.0,-25.0
UncalGyro,1676593677908,121181538466014,1.0319041,0.6372852,-0.0035124752,0.00046895302,-0.0009937166,-0.0032401173
UncalMag,1676593677910,121181540010998,-85.461,-27.4256,-73.1878,-47.771046,2.9698257,-64.15999
UncalAccel,1676593677911,121181542954540,5.7152567,-3.7651064,3.6370904,0.006110925,-0.043260336,-0.038735468
OrientationDeg,1676593677912,121181542954540,124.0,-48.0,-25.0
UncalGyro,1676593677917,121181547444469,0.97585726,0.5749769,0.20082195,0.00046895302,-0.0009937166,-0.0032401173
UncalMag,1676593677918,121181549999279,-85.826996,-27.694,-73.871,-47.771046,2.9698257,-64.15999
UncalAccel,1676593677920,121181551933300,5.1003013,-3.675974,2.8528428,0.006110925,-0.043260336,-0.038735468
OrientationDeg,1676593677921,121181551933300,123.0,-48.0,-25.0
UncalGyro,1676593677925,121181556425182,0.9334021,0.4392121,0.41691554,0.00046895302,-0.0009937166,-0.0032401173
UncalMag,1676593677930,121181560006359,-85.5952,-27.7306,-74.017395,-47.771046,2.9698257,-64.15999
UncalAccel,1676593677929,121181560910900,4.5852466,-3.5294135,2.0554347,0.006110925,-0.043260336,-0.038735468
OrientationDeg,1676593677930,121181560910900,123.0,-48.0,-25.0
UncalGyro,1676593677935,121181565395702,0.9127854,0.21624629,0.66355234,0.00046895302,-0.0009937166,-0.0032401173
UncalAccel,1676593677939,121181569892955,4.159324,-3.3445678,1.7066808,0.006110925,-0.043260336,-0.038735468
UncalMag,1676593677939,121181569996349,-84.2532,-26.535,-75.1398,-47.771046,2.9698257,-64.15999
OrientationDeg,1676593677939,121181569892955,122.0,-49.0,-25.0
UncalGyro,1676593677943,121181574384960,0.92057395,-0.036957346,0.95172805,0.00046895302,-0.0009937166,-0.0032401173
UncalAccel,1676593677947,121181578874828,4.13061,-2.864807,1.5661024,0.006110925,-0.043260336,-0.038735468
OrientationDeg,1676593677948,121181578874828,121.0,-49.0,-25.0
UncalMag,1676593677949,121181579999035,-85.2536,-26.595999,-73.322,-47.771046,2.9698257,-64.15999
UncalGyro,1676593677952,121181583363658,0.9416488,-0.28527406,1.2290609,0.00046895302,-0.0009937166,-0.0032401173
UncalAccel,1676593677956,121181587852123,4.62413,-2.1678972,1.1862419,0.006110925,-0.043260336,-0.038735468
OrientationDeg,1676593677956,121181587852123,120.0,-50.0,-25.0
UncalMag,1676593677960,121181590010998,-84.911995,-26.3764,-74.798195,-47.771046,2.9698257,-64.15999
UncalGyro,1676593677961,121181592343151,0.93309665,-0.5001459,1.4349225,0.00046895302,-0.0009937166,-0.0032401173
UncalAccel,1676593677965,121181596832164,4.9471607,-1.7670995,1.0229317,0.006110925,-0.043260336,-0.038735468
OrientationDeg,1676593677965,121181596832164,119.0,-50.0,-24.0
UncalMag,1676593677970,121181600010998,-88.1938,-26.6204,-75.6766,-47.771046,2.9698257,-64.15999
UncalGyro,1676593677970,121181601323192,0.86819226,-0.6420194,1.5867225,0.00046895302,-0.0009937166,-0.0032401173
UncalAccel,1676593677974,121181605812572,5.0129633,-1.7150556,1.2568301,0.006110925,-0.043260336,-0.038735468
OrientationDeg,1676593677974,121181605812572,118.0,-51.0,-24.0
UncalMag,1676593677979,121181610010998,-86.607796,-25.3028,-74.175995,-47.771046,2.9698257,-64.15999
UncalGyro,1676593677980,121181610301524,0.7287622,-0.6762278,1.7362317,0.00046895302,-0.0009937166,-0.0032401173
UncalAccel,1676593677983,121181614780468,5.011767,-1.3986049,1.096511,0.006110925,-0.043260336,-0.038735468
OrientationDeg,1676593677984,121181614780468,118.0,-52.0,-23.0
UncalGyro,1676593677988,121181619282848,0.5103779,-0.6640105,1.8697058,0.00046895302,-0.0009937166,-0.0032401173
UncalMag,1676593677990,121181620010753,-87.901,-24.827,-76.1158,-47.771046,2.9698257,-64.15999
UncalAccel,1676593677992,121181623771617,5.0045886,-1.2017952,0.9020941,0.006110925,-0.043260336,-0.038735468
OrientationDeg,1676593677993,121181623771617,117.0,-53.0,-22.0
UncalGyro,1676593677997,121181628266734,0.22082779,-0.57757306,1.9787452,0.00046895302,-0.0009937166,-0.0032401173
UncalMag,1676593678000,121181630010753,-88.1938,-24.278,-74.0296,-47.771046,2.9698257,-64.15999
UncalAccel,1676593678001,121181632751598,4.8843493,-1.3112668,0.8817552,0.006110925,-0.043260336,-0.038735468
OrientationDeg,1676593678002,121181632751598,116.0,-53.0,-21.0
UncalGyro,1676593678006,121181637242382,-0.1217149,-0.42394048,2.0793853,0.00046895302,-0.0009937166,-0.0032401173
UncalMag,1676593678010,121181640010998,-90.3898,-24.156,-73.529396,-47.771046,2.9698257,-64.15999
UncalAccel,1676593678010,121181641731334,4.985446,-1.326222,0.6628119,0.006110925,-0.043260336,-0.038735468
OrientationDeg,1676593678010,121181641731334,115.0,-54.0,-20.0
UncalGyro,1676593678016,121181646223278,-0.44348818,-0.34605515,2.1949916,0.00046895302,-0.0009937166,-0.0032401173
UncalMag,1676593678019,121181650010998,-89.5114,-22.6066,-73.224396,-47.771046,2.9698257,-64.15999
UncalAccel,1676593678020,121181650711132,5.2277193,-1.4859428,0.6586244,0.006110925,-0.043260336,-0.038735468
OrientationDeg,1676593678019,121181650711132,115.0,-54.0,-19.0
UncalGyro,1676593678024,121181655202037,-0.6921103,-0.35842517,2.3542747,0.00046895302,-0.0009937166,-0.0032401173
UncalAccel,1676593678029,121181659691478,5.3108697,-1.4673985,1.2119647,0.006110925,-0.043260336,-0.038735468
UncalMag,1676593678028,121181659998790,-91.292595,-22.6066,-73.4562,-47.771046,2.9698257,-64.15999
OrientationDeg,1676593678028,121181659691478,115.0,-54.0,-18.0
UncalGyro,1676593678034,121181664185436,-0.84559023,-0.46502116,2.5265386,0.00046895302,-0.0009937166,-0.0032401173
UncalAccel,1676593678038,121181668670543,5.6913285,-1.2053844,1.7150556,0.006110925,-0.043260336,-0.038735468
OrientationDeg,1676593678038,121181668670543,114.0,-55.0,-16.0
UncalMag,1676593678040,121181670010998,-91.4024,-21.227999,-74.115,-47.771046,2.9698257,-64.15999
UncalGyro,1676593678043,121181673161510,-0.923781,-0.59712076,2.6700919,0.00046895302,-0.0009937166,-0.0032401173
UncalAccel,1676593678046,121181677649669,6.105287,-0.8003992,2.5196424,0.006110925,-0.043260336,-0.038735468
OrientationDeg,1676593678046,121181677649669,114.0,-55.0,-15.0
UncalMag,1676593678050,121181680010753,-92.207596,-20.215399,-73.0292,-47.771046,2.9698257,-64.15999
Status,0,30,0,6,2,1176450050,35.48,81.0,79.0,1,1,1,31.375013
Status,0,30,1,6,2,1575420030,41.76,81.0,79.0,1,1,1,37.55985
Status,0,30,2,3,17,1604249980,38.58,287.0,74.0,1,1,1,34.375355
Status,0,30,3,1,11,1575420030,44.13,147.0,71.0,1,1,1,39.92919
Status,0,30,4,1,11,1176450050,39.52,147.0,71.0,1,1,1,35.42093
Status,0,30,5,3,15,1602000000,42.34,328.0,68.0,1,1,1,38.135567
Status,0,30,6,6,36,1575420030,42.85,60.0,67.0,1,1,1,38.650806
Status,0,30,7,6,36,1176450050,41.12,60.0,67.0,1,1,1,37.01928
Status,0,30,8,1,12,1575420030,42.69,323.0,58.0,1,1,1,38.493725
Status,0,30,9,3,14,1598062460,41.57,146.0,54.0,1,1,1,37.36721
Status,0,30,10,6,34,1176450050,36.61,202.0,53.0,1,1,1,32.508217
Status,0,30,11,6,34,1575420030,40.12,202.0,53.0,1,1,1,35.921406
Status,0,30,12,1,6,1176450050,42.11,53.0,50.0,1,1,1,38.00562
Status,0,30,13,1,6,1575420030,47.68,53.0,50.0,1,1,1,43.483536
Status,0,30,14,1,24,1575420030,40.29,225.0,44.0,1,1,1,36.085075
Status,0,30,15,1,24,1176450050,39.71,225.0,44.0,1,1,1,35.609974
Status,0,30,16,6,30,1575420030,39.59,314.0,41.0,1,1,1,35.387276
Status,0,30,17,6,30,1176450050,36.65,314.0,41.0,1,1,1,32.548656
Status,0,30,18,3,24,1603124990,44.94,31.0,38.0,1,1,1,40.744072
Status,0,30,19,3,18,1600312450,39.29,232.0,30.0,1,1,1,35.09463
Status,0,30,20,6,25,1575420030,41.52,122.0,30.0,1,1,1,37.32044
Status,0,30,21,6,25,1176450050,33.88,122.0,30.0,1,1,1,29.784182
Status,0,30,22,1,19,1575420030,46.35,56.0,30.0,1,1,1,42.147007
Status,0,30,23,1,25,1575420030,40.47,310.0,29.0,1,1,1,36.272778
Status,0,30,24,1,25,1176450050,34.70,310.0,29.0,1,1,1,30.595682
Status,0,30,25,1,20,1575420030,37.62,146.0,21.0,1,1,1,33.41777
Status,0,30,26,6,11,1575420030,42.27,40.0,19.0,1,1,1,38.06533
Status,0,30,27,6,11,1176450050,38.44,40.0,19.0,1,1,1,34.34145
Status,0,30,28,3,16,1601437440,43.91,327.0,14.0,1,1,1,39.71347
Status,0,30,29,1,29,1575420030,39.68,259.0,10.0,1,1,1,35.480415
UncalGyro,1676593678051,121181682140880,-0.9735665,-0.6950119,2.7910433,0.00046895302,-0.0009937166,-0.0032401173
UncalAccel,1676593678055,121181686623729,6.5437717,-0.55812585,2.9234312,0.006110925,-0.043260336,-0.038735468
OrientationDeg,1676593678055,121181686623729,113.0,-56.0,-13.0
Raw,1676593677000,316539000000,,,-1360628578461089450,0.0,7.066594306346193,292.0,1.0,17,6,0.0,16431,433694929349761,12,46.65874481201172,463.8459418612315,0.15,16,141922.42428911643,340282346638528860000000000000000000000,1575420030,,,,0,,1,,42.458744049072266,0.320142130558394,1.0,0.320142130558394,1.0,C,121181587921000
Raw,1676593677000,316539000000,,,-1360628578461089450,0.0,7.066594306346193,292.0,1.0,17,11,0.0,16431,433694931723707,15,41.127811431884766,-87.25559610326974,0.15,16,-33375.029356100225,340282346638528860000000000000000000000,1575420030,,,,0,,1,,36.92781066894531,-0.20372681261465636,1.0,-0.20372681261465636,1.0,C,121181587921000
Raw,1676593677000,316539000000,,,-1360628578461089450,0.0,7.066594306346193,292.0,1.0,17,12,0.0,16431,433694930609601,17,40.022212982177734,-243.87333674366528,0.15,16,-80231.93102706288,340282346638528860000000000000000000000,1575420030,,,,0,,1,,35.82221221923828,-0.6984919076624261,1.0,-0.6984919076624261,1.0,C,121181587921000
Raw,1676593677000,316539000000,,,-1360628578461089450,0.0,7.066594306346193,292.0,1.0,17,19,0.0,16431,433694925209203,12,46.30724334716797,578.5264552393578,0.15,16,181974.91684811225,340282346638528860000000000000000000000,1575420030,,,,0,,1,,42.107242584228516,0.0,1.0,0.0,1.0,C,121181587921000
Raw,1676593677000,316539000000,,,-1360628578461089450,0.0,7.066594306346193,292.0,1.0,17,20,0.0,16431,433694921426576,28,33.88016891479492,-477.8085699898443,0.6142239797921065,16,-151836.32962450918,340282346638528860000000000000000000000,1575420030,,,,0,,1,,29.68016815185547,0.0,1.0,0.0,1.0,C,121181587921000
Raw,1676593677000,316539000000,,,-1360628578461089450,0.0,7.066594306346193,292.0,1.0,17,24,0.0,16431,433694926915212,30,32.881561279296875,531.030234467778,0.6601174719806244,16,163945.40531759302,340282346638528860000000000000000000000,1575420030,,,,1,,1,,28.681560516357422,-0.20372681261465636,1.0,-0.20372681261465636,1.0,C,121181587921000
Raw,1676593677000,316539000000,,,-1360628578461089450,0.0,7.066594306346193,292.0,1.0,17,25,0.0,16431,433694924999486,26,34.66690444946289,-479.028858263187,0.5794878989712542,16,-152480.50145213044,340282346638528860000000000000000000000,1575420030,,,,0,,1,,30.46690559387207,-2.0372682255564105,1.0,-2.0372682255564105,1.0,C,121181587921000
Raw,1676593677000,316539000000,,,-1360628578461089450,0.0,7.066594306346193,292.0,1.0,17,29,0.0,16419,433694917060841,30,33.031227111816406,-429.7876498000958,0.6552121277986598,16,-61580.86957547735,340282346638528860000000000000000000000,1575420030,,,,0,,1,,28.831226348876953,-0.6984919076624261,1.0,-0.6984919076624261,1.0,C,121181587921000
Raw,1676593677000,316539000000,,,-1360628578461089450,0.0,7.066594306346193,292.0,1.0,17,6,0.0,81921,433694929350323,20,34.20378112792969,462.81504979878605,299.7941272834664,16,143273.6276548538,340282346638528860000000000000000000000,1176450050,,,,0,,1,,30.103782653808594,1.9208527336454408,1.5177579464996178,1.9208527336454408,1.0,Q,121181587921000
Raw,1676593677000,316539000000,,,-1360628578461089450,0.0,7.066594306346193,292.0,1.0,17,11,0.0,81921,433694931724259,16,34.67353820800781,-87.07703811354673,0.5759024511719737,16,-33768.61411246987,340282346638528860000000000000000000000,1176450050,,,,0,,1,,30.573537826538086,0.0,1.5177579464996178,0.0,1.0,Q,121181587921000
Raw,1676593677000,316539000000,,,-1360628578461089450,0.0,7.066594306346193,292.0,1.0,17,24,0.0,81921,433694926915772,7,39.411827087402344,531.4189108019641,0.15,16,165493.64059225525,340282346638528860000000000000000000000,1176450050,,,,0,,1,,35.31182861328125,3.5215636101095664,1.5177579464996178,3.5215636101095664,1.0,Q,121181587921000
Raw,1676593677000,316539000000,,,-1360628578461089450,0.0,7.066594306346193,292.0,1.0,17,25,0.0,81921,433694925000027,23,29.893198013305664,-478.14424810413743,0.7896594307053992,16,-154006.98755984323,340282346638528860000000000000000000000,1176450050,,,,0,,1,,25.793197631835938,1.0186341127782053,1.5177579464996178,1.0186341127782053,1.0,Q,121181587921000
Raw,1676593677000,316539000000,,,-1360628578461089450,0.0,7.066594306346193,292.0,1.0,17,14,0.0,32995,12476933129900,76,30.065921783447266,549.6746333191031,0.7878516625964345,16,167625.53429453605,340282346638528860000000000000000000000,1598062460,,,,1,,3,,25.865921020507812,50.29141902923584,2.0000000474974513,50.29141902923584,2.0000000474974513,C,121181587921000
Raw,1676593677000,316539000000,,,-1360628578461089450,0.0,7.066594306346193,292.0,1.0,17,18,0.0,32995,12476927742069,59,33.16391372680664,-488.8814488772575,0.6475692034907174,16,-158367.6893716605,340282346638528860000000000000000000000,1600312450,,,,0,,3,,28.96391487121582,50.29141902923584,2.0000000474974513,50.29141902923584,2.0000000474974513,C,121181587921000
Raw,1676593677000,316539000000,,,-1360628578461089450,0.0,7.066594306346193,292.0,1.0,17,16,0.0,32995,12476922771221,33,42.09767532348633,-678.0890815425741,0.15,16,-214598.23481414287,340282346638528860000000000000000000000,1601437440,,,,0,,3,,37.897674560546875,50.29141902923584,2.0000000474974513,50.29141902923584,2.0000000474974513,C,121181587921000
Raw,1676593677000,316539000000,,,-1360628578461089450,0.0,7.066594306346193,292.0,1.0,17,15,0.0,32995,12476935132968,33,41.3837776184082,-210.18974720954134,0.15,16,-72519.895542172,340282346638528860000000000000000000000,1602000000,,,,0,,3,,37.18377685546875,50.29141902923584,2.0000000474974513,50.29141902923584,2.0000000474974513,C,121181587921000
Raw,1676593677000,316539000000,,,-1360628578461089450,0.0,7.066594306346193,292.0,1.0,17,24,0.0,32867,12476929689777,33,44.94407272338867,691.8660966129637,0.15,16,217207.25438631655,340282346638528860000000000000000000000,1603124990,,,,0,,3,,40.74407196044922,50.29141902923584,2.0000000474974513,50.29141902923584,2.0000000474974513,C,121181587921000
Raw,1676593677000,316539000000,,,-1360628578461089450,0.0,7.066594306346193,292.0,1.0,17,17,0.0,32867,12476936192226,66,31.863414764404297,71.7596493793805,0.7075709687953378,16,16853.977526417595,340282346638528860000000000000000000000,1604249980,,,,1,,3,,27.663415908813477,50.29141902923584,2.0000000474974513,50.29141902923584,2.0000000474974513,C,121181587921000
Raw,1676593677000,316539000000,,,-1360628578461089450,0.0,7.066594306346193,292.0,1.0,17,2,0.0,85026,433694922299921,17,39.836788177490234,123.56990820901984,0.15,16,36581.43530521141,340282346638528860000000000000000000000,1575420030,,,,0,,6,,35.63678741455078,-6.024492904543876,1.5000000237487257,-6.024492904543876,1.5000000237487257,C,121181587921000
Raw,1676593677000,316539000000,,,-1360628578461089450,0.0,7.066594306346193,292.0,1.0,17,11,0.0,85026,433694911129755,17,39.7550048828125,601.4544735562959,0.15,16,189269.99959818283,340282346638528860000000000000000000000,1575420030,,,,0,,6,,35.55500411987305,-6.024492904543876,1.5000000237487257,-6.024492904543876,1.5000000237487257,C,121181587921000
Raw,1676593677000,316539000000,,,-1360628578461089450,0.0,7.066594306346193,292.0,1.0,17,25,0.0,85026,433694913077631,21,37.554168701171875,492.40963069404233,0.15,16,153240.86066108983,340282346638528860000000000000000000000,1575420030,,,,0,,6,,33.35416793823242,-6.024492904543876,1.5000000237487257,-6.024492904543876,1.5000000237487257,C,121181587921000
Raw,1676593677000,316539000000,,,-1360628578461089450,0.0,7.066594306346193,292.0,1.0,17,30,0.0,85026,433694915303046,30,32.946876525878906,-302.13211563601817,0.6572500856237493,16,-96285.53750008631,340282346638528860000000000000000000000,1575420030,,,,1,,6,,28.746875762939453,-6.024492904543876,1.5000000237487257,-6.024492904543876,1.5000000237487257,C,121181587921000
Raw,1676593677000,316539000000,,,-1360628578461089450,0.0,7.066594306346193,292.0,1.0,17,34,0.0,85026,433694919128927,25,35.18873977661133,-285.43931232764567,0.555685263844296,16,-93324.89874133529,340282346638528860000000000000000000000,1575420030,,,,0,,6,,30.988739013671875,-6.024492904543876,1.5000000237487257,-6.024492904543876,1.5000000237487257,C,121181587921000
Raw,1676593677000,316539000000,,,-1360628578461089450,0.0,7.066594306346193,292.0,1.0,17,36,0.0,85026,433694921261044,21,37.07086181640625,243.17503833319768,0.15,16,73502.301064914,340282346638528860000000000000000000000,1575420030,,,,0,,6,,32.8708610534668,-6.024492904543876,1.5000000237487257,-6.024492904543876,1.5000000237487257,C,121181587921000
Raw,1676593677000,316539000000,,,-1360628578461089450,0.0,7.066594306346193,292.0,1.0,17,2,0.0,84003,433694922300459,10,34.024837493896484,123.50038851832744,0.6069760658298797,16,36496.55121709316,340282346638528860000000000000000000000,1176450050,,,,0,,6,,29.92483901977539,-3.808038309216499,2.0177579702483435,-3.808038309216499,1.5000000237487257,Q,121181587921000
Raw,1676593677000,316539000000,,,-1360628578461089450,0.0,7.066594306346193,292.0,1.0,17,11,0.0,84003,433694911130303,7,36.89707946777344,601.3283003022484,0.15,16,190905.0305003996,340282346638528860000000000000000000000,1176450050,,,,0,,6,,32.797080993652344,5.057780072093007,2.0177579702483435,5.057780072093007,1.5000000237487257,Q,121181587921000
Raw,1676593677000,316539000000,,,-1360628578461089450,0.0,7.066594306346193,292.0,1.0,17,25,0.0,84003,433694913078162,12,32.918243408203125,492.61542056652706,0.6550795923085486,16,152610.18874347117,340282346638528860000000000000000000000,1176450050,,,,0,,6,,28.8182430267334,-8.979765698313711,2.0177579702483435,-8.979765698313711,1.5000000237487257,Q,121181587921000
Raw,1676593677000,316539000000,,,-1360628578461089450,0.0,7.066594306346193,292.0,1.0,17,30,0.0,84003,433694915303589,58,26.4637508392334,-302.26043608482655,0.9457311203336913,16,-97479.33645849983,340282346638528860000000000000000000000,1176450050,,,,0,,6,,22.363750457763672,-8.425652049481869,2.0177579702483435,-8.425652049481869,1.5000000237487257,Q,121181587921000
Raw,1676593677000,316539000000,,,-1360628578461089450,0.0,7.066594306346193,292.0,1.0,17,34,0.0,84003,433694919129463,15,31.60742950439453,-285.05699237160104,0.7151139090218401,16,-94047.97928580747,340282346638528860000000000000000000000,1176450050,,,,0,,6,,27.507429122924805,-11.011515744030472,2.0177579702483435,-11.011515744030472,1.5000000237487257,Q,121181587921000
Raw,1676593677000,316539000000,,,-1360628578461089450,0.0,7.066594306346193,292.0,1.0,17,36,0.0,84003,433694921261586,10,39.07011413574219,243.0423382887261,0.15,16,73600.54740033095,340282346638528860000000000000000000000,1176450050,,,,0,,6,,34.970115661621094,-11.750333942472933,2.0177579702483435,-11.750333942472933,1.5000000237487257,Q,121181587921000
UncalMag,1676593678060,121181690010753,-92.903,-18.7026,-73.224396,-47.771046,2.9698257,-64.15999
UncalGyro,1676593678061,121181691121288,-1.0384709,-0.7994699,2.8669434,0.00046895302,-0.0009937166,-0.0032401173
UncalAccel,1676593678065,121181695610057,7.2095747,-0.48035914,3.3320055,0.006110925,-0.043260336,-0.038735468
OrientationDeg,1676593678065,121181695610057,113.0,-56.0,-12.0
Fix,GPS,37.4312831559,-122.1550269667,-17.42974998603992,0.74459255,3.062971,292.27542,1676593677000,0.14472361,25.803223,121181587921000,3.0
Fix,FLP,37.4313155000,-122.1550299000,-16.5,0.8859327,4.348,45.926888,1676593678024,,,121181655202037,3.845306
UncalMag,1676593678070,121181700010753,-94.4768,-17.6168,-73.6392,-47.771046,2.9698257,-64.15999
UncalGyro,1676593678069,121181700102611,-1.1354458,-0.8924741,2.889698,0.00046895302,-0.0009937166,-0.0032401173
UncalAccel,1676593678073,121181704584789,7.7671022,-0.67058855,4.057629,0.006110925,-0.043260336,-0.038735468
OrientationDeg,1676593678073,121181704584789,113.0,-57.0,-10.0
UncalGyro,1676593678078,121181709080516,-1.2371548,-0.9315695,2.9113839,0.00046895302,-0.0009937166,-0.0032401173
UncalMag,1676593678080,121181710010753,-93.4276,-16.6408,-72.1874,-47.771046,2.9698257,-64.15999
UncalAccel,1676593678082,121181713569713,8.228917,-0.8554341,4.831109,0.006110925,-0.043260336,-0.038735468
OrientationDeg,1676593678082,121181713569713,113.0,-57.0,-9.0
UncalGyro,1676593678087,121181718062938,-1.3271047,-0.9437868,2.9437597,0.00046895302,-0.0009937166,-0.0032401173
UncalMag,1676593678090,121181720010753,-95.3918,-16.2138,-72.5656,-47.771046,2.9698257,-64.15999
UncalAccel,1676593678091,121181722549510,8.593225,-1.0396814,5.155935,0.006110925,-0.043260336,-0.038735468
OrientationDeg,1676593678092,121181722549510,113.0,-58.0,-7.0
UncalGyro,1676593678096,121181727039378,-1.4089607,-0.9954049,2.9917126,0.00046895302,-0.0009937166,-0.0032401173
UncalMag,1676593678099,121181730010998,-96.4654,-14.5668,-71.5774,-47.771046,2.9698257,-64.15999
UncalAccel,1676593678101,121181731525768,9.05145,-1.4255241,5.4705906,0.006110925,-0.043260336,-0.038735468
OrientationDeg,1676593678101,121181731525768,113.0,-59.0,-5.0
UncalGyro,1676593678105,121181736020214,-1.4801265,-1.0682507,3.0596714,0.00046895302,-0.0009937166,-0.0032401173
UncalMag,1676593678110,121181740010998,-97.905,-13.2369995,-72.5534,-47.771046,2.9698257,-64.15999
UncalAccel,1676593678109,121181740509288,9.2075815,-1.6995022,6.146563,0.006110925,-0.043260336,-0.038735468
OrientationDeg,1676593678109,121181740509288,113.0,-59.0,-3.0
UncalGyro,1676593678115,121181745000987,-1.5131133,-1.1206323,3.1300735,0.00046895302,-0.0009937166,-0.0032401173
UncalAccel,1676593678119,121181749484813,10.018748,-2.0255244,6.515058,0.006110925,-0.043260336,-0.038735468
UncalMag,1676593678119,121181749999279,-95.5382,-11.163,-70.3696,-47.771046,2.9698257,-64.15999
OrientationDeg,1676593678119,121181749484813,113.0,-60.0,-2.0
UncalGyro,1676593678122,121181753963207,-1.5079209,-1.1976013,3.1680999,0.00046895302,-0.0009937166,-0.0032401173
UncalAccel,1676593678128,121181758468395,10.810175,-2.4951158,6.7022963,0.006110925,-0.043260336,-0.038735468
OrientationDeg,1676593678128,121181758468395,113.0,-60.0,0.0
UncalMag,1676593678129,121181760010509,-98.8322,-11.6144,-69.906,-47.771046,2.9698257,-64.15999
UncalGyro,1676593678132,121181762959667,-1.4955509,-1.2744176,3.174514,0.00046895302,-0.0009937166,-0.0032401173
UncalAccel,1676593678137,121181767453074,11.212169,-2.4209383,6.5282183,0.006110925,-0.043260336,-0.038735468
UncalMag,1676593678140,121181770010998,-97.6366,-9.1256,-69.9426,-47.771046,2.9698257,-64.15999
OrientationDeg,1676593678137,121181767453074,113.0,-61.0,1.0
UncalGyro,1676593678140,121181771937755,-1.540144,-1.3715452,3.160464,0.00046895302,-0.0009937166,-0.0032401173
UncalAccel,1676593678146,121181776416698,11.621342,-2.6638098,5.3611193,0.006110925,-0.043260336,-0.038735468
OrientationDeg,1676593678146,121181776416698,113.0,-62.0,3.0
UncalMag,1676593678150,121181780011242,-96.733795,-7.3566,-67.0878,-47.771046,2.9698257,-64.15999
UncalGyro,1676593678150,121181780919323,-1.7311921,-1.5416712,3.1563408,0.00046895302,-0.0009937166,-0.0032401173
UncalAccel,1676593678155,121181785408153,12.150753,-3.5587256,4.8394837,0.006110925,-0.043260336,-0.038735468
OrientationDeg,1676593678154,121181785408153,114.0,-63.0,5.0
UncalGyro,1676593678158,121181789903209,-2.054798,-1.7415768,3.1844406,0.00046895302,-0.0009937166,-0.0032401173
UncalMag,1676593678158,121181789999767,-94.403595,-4.5628,-63.8792,-47.771046,2.9698257,-64.15999
UncalAccel,1676593678164,121181794385020,13.161721,-3.952943,6.1525455,0.006110925,-0.043260336,-0.038735468
OrientationDeg,1676593678163,121181794385020,114.0,-64.0,7.0
UncalGyro,1676593678167,121181798867626,-2.385887,-1.8724546,3.1850514,0.00046895302,-0.0009937166,-0.0032401173
UncalMag,1676593678170,121181800010509,-96.1604,-4.5871997,-67.1366,-47.771046,2.9698257,-64.15999
UncalAccel,1676593678172,121181803367504,14.587245,-4.2484565,7.5870423,0.006110925,-0.043260336,-0.038735468
OrientationDeg,1676593678173,121181803367504,115.0,-65.0,9.0
UncalGyro,1676593678176,121181807858593,-2.6939158,-1.9575176,3.128699,0.00046895302,-0.0009937166,-0.0032401173
UncalMag,1676593678180,121181810010753,-96.9656,-3.4526,-64.8796,-47.771046,2.9698257,-64.15999
UncalAccel,1676593678182,121181812350413,15.592231,-5.2366924,9.18784,0.006110925,-0.043260336,-0.038735468
OrientationDeg,1676593678181,121181812350413,116.0,-66.0,11.0
UncalGyro,1676593678186,121181816838512,-2.9799533,-2.0288363,3.1082351,0.00046895302,-0.0009937166,-0.0032401173
UncalMag,1676593678190,121181820010753,-93.2202,-0.121999994,-63.501,-47.771046,2.9698257,-64.15999
UncalAccel,1676593678191,121181821327648,15.99243,-6.1974106,11.591431,0.006110925,-0.043260336,-0.038735468
OrientationDeg,1676593678191,121181821327648,117.0,-67.0,13.0
UncalGyro,1676593678195,121181825819469,-3.1500793,-2.0523546,3.169627,0.00046895302,-0.0009937166,-0.0032401173
UncalMag,1676593678200,121181830010998,-92.6346,2.1838,-59.2066,-47.771046,2.9698257,-64.15999
UncalAccel,1676593678200,121181830304271,15.994225,-6.3978095,13.7730875,0.006110925,-0.043260336,-0.038735468
OrientationDeg,1676593678199,121181830304271,118.0,-68.0,15.0
UncalGyro,1676593678204,121181834786998,-3.1422908,-2.0938933,3.2834008,0.00046895302,-0.0009937166,-0.0032401173
UncalAccel,1676593678209,121181839286754,15.777675,-6.0843496,14.717654,0.006110925,-0.043260336,-0.038735468
UncalMag,1676593678208,121181839999523,-94.0376,2.5986,-59.4384,-47.771046,2.9698257,-64.15999
OrientationDeg,1676593678209,121181839286754,119.0,-70.0,17.0
UncalGyro,1676593678213,121181843779003,-2.9852984,-2.2579107,3.407101,0.00046895302,-0.0009937166,-0.0032401173
UncalAccel,1676593678217,121181848269420,15.454643,-5.9096737,14.759528,0.006110925,-0.043260336,-0.038735468
OrientationDeg,1676593678218,121181848269420,120.0,-71.0,20.0
UncalMag,1676593678219,121181850010265,-91.768394,4.88,-57.218,-47.771046,2.9698257,-64.15999
UncalGyro,1676593678221,121181852757274,-2.7241535,-2.568383,3.5537086,0.00046895302,-0.0009937166,-0.0032401173
UncalAccel,1676593678226,121181857243297,14.842081,-6.29432,14.626128,0.006110925,-0.043260336,-0.038735468
OrientationDeg,1676593678227,121181857243297,120.0,-73.0,22.0
UncalMag,1676593678230,121181860010509,-93.5008,5.5022,-55.4124,-47.771046,2.9698257,-64.15999
UncalGyro,1676593678230,121181861725780,-2.4326181,-2.9263499,3.7814085,0.00046895302,-0.0009937166,-0.0032401173
UncalAccel,1676593678235,121181866226573,14.577674,-7.5774713,15.061622,0.006110925,-0.043260336,-0.038735468
OrientationDeg,1676593678235,121181866226573,121.0,-75.0,24.0
UncalMag,1676593678240,121181870010509,-94.062,6.3073997,-54.5462,-47.771046,2.9698257,-64.15999
UncalGyro,1676593678240,121181870713939,-2.1558962,-3.1580205,4.142888,0.00046895302,-0.0009937166,-0.0032401173
UncalAccel,1676593678245,121181875195933,14.340784,-8.760123,16.770098,0.006110925,-0.043260336,-0.038735468
OrientationDeg,1676593678245,121181875195933,121.0,-76.0,26.0
UncalGyro,1676593678249,121181879696849,-1.8506162,-3.104417,4.6192102,0.00046895302,-0.0009937166,-0.0032401173
UncalMag,1676593678248,121181879998790,-93.0494,10.4066,-51.423,-47.771046,2.9698257,-64.15999
UncalAccel,1676593678254,121181884185741,15.195621,-9.186047,18.792631,0.006110925,-0.043260336,-0.038735468
OrientationDeg,1676593678253,121181884185741,122.0,-78.0,29.0
UncalGyro,1676593678257,121181888680187,-1.4337007,-2.7737863,5.0436087,0.00046895302,-0.0009937166,-0.0032401173
UncalMag,1676593678259,121181890010509,-92.2686,12.4074,-51.3376,-47.771046,2.9698257,-64.15999
UncalAccel,1676593678262,121181893165965,16.490137,-8.517252,20.16013,0.006110925,-0.043260336,-0.038735468
OrientationDeg,1676593678263,121181893165965,122.0,-79.0,32.0
UncalGyro,1676593678267,121181897657665,-0.86559606,-2.34221,5.3722544,0.00046895302,-0.0009937166,-0.0032401173
UncalMag,1676593678269,121181900010753,-94.0254,13.529799,-50.5202,-47.771046,2.9698257,-64.15999
UncalAccel,1676593678272,121181902145397,17.682362,-7.1527452,20.239092,0.006110925,-0.043260336,-0.038735468
OrientationDeg,1676593678272,121181902145397,121.0,-80.0,35.0
UncalGyro,1676593678276,121181906636303,-0.1815797,-1.9637791,5.5434494,0.00046895302,-0.0009937166,-0.0032401173
UncalMag,1676593678279,121181910010753,-92.72,15.921,-48.995197,-47.771046,2.9698257,-64.15999
UncalAccel,1676593678280,121181911124950,18.801603,-6.047859,19.23949,0.006110925,-0.043260336,-0.038735468
OrientationDeg,1676593678281,121181911124950,121.0,-81.0,37.0
UncalGyro,1676593678285,121181915616710,0.51251596,-1.668273,5.584072,0.00046895302,-0.0009937166,-0.0032401173
UncalMag,1676593678290,121181920010998,-94.4768,17.1166,-50.996,-47.771046,2.9698257,-64.15999
