# 
# Header Description:
# 
# Version: v3.0.5.6 Platform: 13 Manufacturer: Google Model: Pixel 6
# 
# Raw,utcTimeMillis,TimeNanos,LeapSecond,TimeUncertaintyNanos,FullBiasNanos,BiasNanos,BiasUncertaintyNanos,DriftNanosPerSecond,DriftUncertaintyNanosPerSecond,HardwareClockDiscontinuityCount,Svid,TimeOffsetNanos,State,ReceivedSvTimeNanos,ReceivedSvTimeUncertaintyNanos,Cn0DbHz,PseudorangeRateMetersPerSecond,PseudorangeRateUncertaintyMetersPerSecond,AccumulatedDeltaRangeState,AccumulatedDeltaRangeMeters,AccumulatedDeltaRangeUncertaintyMeters,CarrierFrequencyHz,CarrierCycles,CarrierPhase,CarrierPhaseUncertainty,MultipathIndicator,SnrInDb,ConstellationType,AgcDb,BasebandCn0DbHz,FullInterSignalBiasNanos,FullInterSignalBiasUncertaintyNanos,SatelliteInterSignalBiasNanos,SatelliteInterSignalBiasUncertaintyNanos,CodeType,ChipsetElapsedRealtimeNanos
# 
# UncalAccel,utcTimeMillis,elapsedRealtimeNanos,UncalAccelXMps2,UncalAccelYMps2,UncalAccelZMps2,BiasXMps2,BiasYMps2,BiasZMps2
# 
# Accel,utcTimeMillis,elapsedRealtimeNanos,AccelXMps2,AccelYMps2,AccelZMps2
# 
# UncalGyro,utcTimeMillis,elapsedRealtimeNanos,UncalGyroXRadPerSec,UncalGyroYRadPerSec,UncalGyroZRadPerSec,DriftXRadPerSec,DriftYRadPerSec,DriftZRadPerSec
# 
# Gyro,utcTimeMillis,elapsedRealtimeNanos,GyroXRadPerSec,GyroYRadPerSec,GyroZRadPerSec
# 
# UncalMag,utcTimeMillis,elapsedRealtimeNanos,UncalMagXMicroT,UncalMagYMicroT,UncalMagZMicroT,BiasXMicroT,BiasYMicroT,BiasZMicroT
# 
# Mag,utcTimeMillis,elapsedRealtimeNanos,MagXMicroT,MagYMicroT,MagZMicroT
# 
# OrientationDeg,utcTimeMillis,elapsedRealtimeNanos,yawDeg,rollDeg,pitchDeg
# 
# Fix,Provider,LatitudeDegrees,LongitudeDegrees,AltitudeMeters,SpeedMps,AccuracyMeters,BearingDegrees,UnixTimeMillis,SpeedAccuracyMps,BearingAccuracyDegrees,elapsedRealtimeNanos,VerticalAccuracyMeters
# 
# Nav,Svid,Type,Status,MessageId,Sub-messageId,Data(Bytes)
# 
# Status,UnixTimeMillis,SignalCount,SignalIndex,ConstellationType,Svid,CarrierFrequencyHz,Cn0DbHz,AzimuthDegrees,ElevationDegrees,UsedInFix,HasAlmanacData,HasEphemerisData,BasebandCn0DbHz
# 
UncalAccel,1676594612481,122116111181285,2.8875387,2.012962,9.385847,0.006110925,-0.043260336,-0.038735468
UncalGyro,1676594612489,122116120145763,0.11056661,-0.5487097,-0.46639562,0.0005811503,-0.0010014891,-0.003142264
UncalGyro,1676594612498,122116129127452,0.1695151,-0.4036292,-0.43203443,0.0005811503,-0.0010014891,-0.003142264
UncalAccel,1676594612489,122116120145763,3.1154552,1.8538394,10.263414,0.006110925,-0.043260336,-0.038735468
UncalAccel,1676594612498,122116129127452,3.3547373,1.7186449,10.854442,0.006110925,-0.043260336,-0.038735468
UncalMag,1676594612484,122116115855968,-39.223,-6.0878,-113.8138,-45.491467,0.31409264,-60.09035
UncalMag,1676594612494,122116125860119,-39.223,-6.0878,-113.8138,-45.491467,0.31409264,-60.09035
Fix,FLP,37.4311418000,-122.1551802000,-16.5,0.22074315,5.767,23.827152,1676594611860,,,122115491603710,2.7739046
UncalAccel,1676594612508,122116138105358,3.4372897,1.5164514,11.139786,0.006110925,-0.043260336,-0.038735468
OrientationDeg,1676594612489,122116120145763,283.0,-16.0,-17.0
OrientationDeg,1676594612507,122116138105358,283.0,-16.0,-17.0
UncalGyro,1676594612507,122116138105358,0.16752979,-0.13973543,-0.39477167,0.0005811503,-0.0010014891,-0.003142264
UncalMag,1676594612505,122116135856456,-39.3084,-5.9414,-113.3258,-45.491467,0.31409264,-60.09035
UncalMag,1676594612515,122116145856212,-37.6858,-5.7706,-112.752396,-45.491467,0.31409264,-60.09035
UncalGyro,1676594612517,122116147084667,0.13775012,0.14813483,-0.33261612,0.0005811503,-0.0010014891,-0.003142264
UncalAccel,1676594612517,122116147084667,3.289533,1.4117653,11.0195465,0.006110925,-0.043260336,-0.038735468
UncalMag,1676594612524,122116155856212,-38.4666,-6.0878,-113.081795,-45.491467,0.31409264,-60.09035
UncalGyro,1676594612525,122116156063487,0.08353582,0.4240932,-0.25778514,0.0005811503,-0.0010014891,-0.003142264
UncalAccel,1676594612525,122116156063487,3.1495528,1.4943178,10.575678,0.006110925,-0.043260336,-0.038735468
OrientationDeg,1676594612516,122116147084667,284.0,-16.0,-17.0
OrientationDeg,1676594612526,122116156063487,284.0,-16.0,-17.0
UncalGyro,1676594612535,122116165046215,-0.017104227,0.65576386,-0.19883664,0.0005811503,-0.0010014891,-0.003142264
UncalAccel,1676594612535,122116165046215,3.2584262,1.6325033,9.991231,0.006110925,-0.043260336,-0.038735468
OrientationDeg,1676594612535,122116165046215,284.0,-16.0,-17.0
UncalMag,1676594612535,122116165855724,-38.3446,-6.2952,-112.471794,-45.491467,0.31409264,-60.09035
UncalGyro,1676594612543,122116174022289,-0.116675265,0.77442443,-0.12217305,0.0005811503,-0.0010014891,-0.003142264
UncalAccel,1676594612543,122116174022289,3.0412776,1.5954145,9.437292,0.006110925,-0.043260336,-0.038735468
OrientationDeg,1676594612544,122116174022289,284.0,-15.0,-17.0
UncalMag,1676594612545,122116175857189,-37.0514,-5.8803997,-112.0204,-45.491467,0.31409264,-60.09035
UncalGyro,1676594612552,122116183001659,-0.17715092,0.77091193,-0.07391469,0.0005811503,-0.0010014891,-0.003142264
UncalAccel,1676594612552,122116183001659,3.1058838,1.6905292,9.070593,0.006110925,-0.043260336,-0.038735468
OrientationDeg,1676594612553,122116183001659,284.0,-15.0,-17.0
UncalMag,1676594612555,122116185856212,-35.9046,-5.4045997,-111.837395,-45.491467,0.31409264,-60.09035
UncalGyro,1676594612560,122116191981517,-0.19853121,0.7115053,-0.07009678,0.0005811503,-0.0010014891,-0.003142264
UncalAccel,1676594612561,122116191981517,3.2123644,1.8430717,9.02453,0.006110925,-0.043260336,-0.038735468
OrientationDeg,1676594612561,122116191981517,284.0,-14.0,-17.0
UncalMag,1676594612565,122116195856212,-38.1616,-6.3928,-113.0452,-45.491467,0.31409264,-60.09035
UncalGyro,1676594612569,122116200960276,-0.17501289,0.70295316,-0.06291912,0.0005811503,-0.0010014891,-0.003142264
UncalAccel,1676594612569,122116200960276,3.138187,1.8197416,9.4432745,0.006110925,-0.043260336,-0.038735468
OrientationDeg,1676594612570,122116200960276,284.0,-14.0,-17.0
UncalMag,1676594612575,122116205855968,-38.5764,-6.1243997,-113.533195,-45.491467,0.31409264,-60.09035
UncalGyro,1676594612579,122116209941662,-0.118507855,0.74067414,-0.05879578,0.0005811503,-0.0010014891,-0.003142264
UncalAccel,1676594612579,122116209941662,3.2135608,1.6660028,9.457033,0.006110925,-0.043260336,-0.038735468
OrientationDeg,1676594612578,122116209941662,284.0,-13.0,-17.0
UncalMag,1676594612585,122116215856212,-37.392998,-6.0512,-114.765396,-45.491467,0.31409264,-60.09035
UncalGyro,1676594612588,122116218921825,-0.09682214,0.7125743,-0.059864793,0.0005811503,-0.0010014891,-0.003142264
UncalAccel,1676594612587,122116218921825,3.1884363,1.3686945,9.250652,0.006110925,-0.043260336,-0.038735468
OrientationDeg,1676594612588,122116218921825,284.0,-13.0,-17.0
UncalMag,1676594612595,122116225857433,-36.9904,-5.7827997,-113.4356,-45.491467,0.31409264,-60.09035
UncalGyro,1676594612597,122116227899669,-0.12232576,0.6789767,-0.06169739,0.0005811503,-0.0010014891,-0.003142264
UncalAccel,1676594612597,122116227899669,2.932404,1.250848,9.730413,0.006110925,-0.043260336,-0.038735468
OrientationDeg,1676594612597,122116227899669,284.0,-13.0,-17.0
UncalMag,1676594612604,122116235857433,-37.3808,-6.0512,-114.6556,-45.491467,0.31409264,-60.09035
UncalGyro,1676594612606,122116236876597,-0.1695151,0.72051555,-0.056505036,0.0005811503,-0.0010014891,-0.003142264
UncalAccel,1676594612606,122116236876597,2.690131,1.1802598,10.357931,0.006110925,-0.043260336,-0.038735468
OrientationDeg,1676594612605,122116236876597,284.0,-12.0,-17.0
UncalGyro,1676594612615,122116245857982,-0.19837849,0.82604253,-0.026419923,0.0005811503,-0.0010014891,-0.003142264
UncalAccel,1676594612615,122116245857982,2.6458635,1.180858,10.729417,0.006110925,-0.043260336,-0.038735468
UncalMag,1676594612615,122116245865246,-35.7094,-5.551,-113.5942,-45.491467,0.31409264,-60.09035
OrientationDeg,1676594612614,122116245857982,284.0,-12.0,-17.0
UncalGyro,1676594612624,122116254841441,-0.18371773,0.9630291,0.0041233404,0.0005811503,-0.0010014891,-0.003142264
UncalAccel,1676594612623,122116254841441,2.8612177,1.4721842,10.922637,0.006110925,-0.043260336,-0.038735468
UncalMag,1676594612624,122116255864025,-37.2466,-6.344,-110.885796,-45.491467,0.31409264,-60.09035
OrientationDeg,1676594612623,122116254841441,284.0,-11.0,-17.0
UncalGyro,1676594612633,122116263817882,-0.11728613,1.135293,-0.00076358154,0.0005811503,-0.0010014891,-0.003142264
UncalAccel,1676594612633,122116263817882,3.1393833,1.8400806,11.163714,0.006110925,-0.043260336,-0.038735468
OrientationDeg,1676594612633,122116263817882,284.0,-11.0,-16.0
UncalMag,1676594612635,122116265855968,-36.063198,-5.6851997,-109.434,-45.491467,0.31409264,-60.09035
UncalGyro,1676594612642,122116272796947,-0.008093964,1.3057245,-0.041996986,0.0005811503,-0.0010014891,-0.003142264
UncalAccel,1676594612641,122116272796947,3.4121652,1.9292133,11.079966,0.006110925,-0.043260336,-0.038735468
OrientationDeg,1676594612641,122116272796947,284.0,-10.0,-16.0
UncalMag,1676594612644,122116275859142,-36.2584,-6.2585998,-109.251,-45.491467,0.31409264,-60.09035
UncalGyro,1676594612650,122116281771190,0.10567969,1.4372132,-0.084910266,0.0005811503,-0.0010014891,-0.003142264
UncalAccel,1676594612650,122116281771190,3.4259238,1.6175481,10.697114,0.006110925,-0.043260336,-0.038735468
OrientationDeg,1676594612650,122116281771190,284.0,-9.0,-16.0
UncalMag,1676594612655,122116285859874,-33.2816,-4.8434,-107.7382,-45.491467,0.31409264,-60.09035
UncalGyro,1676594612660,122116290753978,0.22861631,1.5092953,-0.11407909,0.0005811503,-0.0010014891,-0.003142264
UncalAccel,1676594612660,122116290753978,3.3260236,1.3058829,10.18505,0.006110925,-0.043260336,-0.038735468
OrientationDeg,1676594612660,122116290753978,284.0,-9.0,-17.0
UncalMag,1676594612664,122116295855968,-32.696,-5.1728,-106.6524,-45.491467,0.31409264,-60.09035
UncalGyro,1676594612669,122116299734019,0.38835758,1.4763086,-0.1207986,0.0005811503,-0.0010014891,-0.003142264
UncalAccel,1676594612669,122116299734019,3.2620156,1.3256238,9.717851,0.006110925,-0.043260336,-0.038735468
OrientationDeg,1676594612669,122116299734019,285.0,-8.0,-17.0
UncalMag,1676594612675,122116305856945,-31.854198,-5.7584,-106.7378,-45.491467,0.31409264,-60.09035
UncalGyro,1676594612678,122116308715526,0.56214875,1.4025466,-0.15409076,0.0005811503,-0.0010014891,-0.003142264
UncalAccel,1676594612678,122116308715526,3.39721,2.0344975,9.52164,0.006110925,-0.043260336,-0.038735468
OrientationDeg,1676594612678,122116308715526,285.0,-7.0,-17.0
UncalMag,1676594612684,122116315858165,-31.049,-5.2216,-107.298996,-45.491467,0.31409264,-60.09035
UncalGyro,1676594612686,122116317692760,0.69058317,1.3029755,-0.2874121,0.0005811503,-0.0010014891,-0.003142264
UncalAccel,1676594612686,122116317692760,3.6693935,2.6751757,9.378669,0.006110925,-0.043260336,-0.038735468
OrientationDeg,1676594612687,122116317692760,285.0,-6.0,-17.0
UncalMag,1676594612695,122116325857189,-30.195,-5.124,-107.2258,-45.491467,0.31409264,-60.09035
UncalGyro,1676594612696,122116326671276,0.7631234,1.1215485,-0.48349985,0.0005811503,-0.0010014891,-0.003142264
UncalAccel,1676594612696,122116326671276,3.2279177,2.4095724,9.561121,0.006110925,-0.043260336,-0.038735468
OrientationDeg,1676594612695,122116326671276,285.0,-6.0,-18.0
UncalGyro,1676594612705,122116335651683,0.79336125,0.9256136,-0.6592763,0.0005811503,-0.0010014891,-0.003142264
UncalAccel,1676594612705,122116335651683,2.6632116,1.7461623,9.969695,0.006110925,-0.043260336,-0.038735468
UncalMag,1676594612704,122116335850109,-30.2438,-5.5875998,-106.371796,-45.491467,0.31409264,-60.09035
OrientationDeg,1676594612705,122116335651683,285.0,-5.0,-18.0
UncalGyro,1676594612714,122116344629589,0.75655663,0.7098254,-0.7877107,0.0005811503,-0.0010014891,-0.003142264
UncalAccel,1676594612713,122116344629589,2.6973093,0.86859465,9.507881,0.006110925,-0.043260336,-0.038735468
OrientationDeg,1676594612714,122116344629589,286.0,-5.0,-19.0
UncalMag,1676594612715,122116345855968,-29.7192,-6.1731997,-106.323,-45.491467,0.31409264,-60.09035
UncalGyro,1676594612722,122116353610728,0.65301496,0.45066583,-0.8576548,0.0005811503,-0.0010014891,-0.003142264
UncalAccel,1676594612723,122116353610728,2.3802602,0.64008003,9.591031,0.006110925,-0.043260336,-0.038735468
UncalMag,1676594612725,122116355856456,-31.610199,-6.7588,-107.97,-45.491467,0.31409264,-60.09035
OrientationDeg,1676594612723,122116353610728,286.0,-4.0,-19.0
UncalGyro,1676594612731,122116362589672,0.5887214,0.2941316,-0.9060659,0.0005811503,-0.0010014891,-0.003142264
UncalAccel,1676594612732,122116362589672,2.5351956,1.1910275,9.990034,0.006110925,-0.043260336,-0.038735468
OrientationDeg,1676594612731,122116362589672,286.0,-4.0,-19.0
UncalMag,1676594612735,122116365855968,-30.133999,-6.3318,-107.152596,-45.491467,0.31409264,-60.09035
UncalGyro,1676594612741,122116371574291,0.5653558,0.16264287,-0.9964739,0.0005811503,-0.0010014891,-0.003142264
UncalAccel,1676594612741,122116371574291,2.9958138,1.9597218,9.567103,0.006110925,-0.043260336,-0.038735468
OrientationDeg,1676594612741,122116371574291,287.0,-4.0,-20.0
UncalMag,1676594612745,122116375860851,-31.610199,-7.3199997,-106.9818,-45.491467,0.31409264,-60.09035
UncalGyro,1676594612749,122116380546825,0.5540548,-0.025809057,-1.1282681,0.0005811503,-0.0010014891,-0.003142264
UncalAccel,1676594612749,122116380546825,3.3122647,2.6099713,9.152547,0.006110925,-0.043260336,-0.038735468
OrientationDeg,1676594612750,122116380546825,288.0,-4.0,-20.0
UncalMag,1676594612755,122116385856701,-28.914,-6.0267997,-105.615395,-45.491467,0.31409264,-60.09035
UncalGyro,1676594612758,122116389526623,0.5338962,-0.268628,-1.2751812,0.0005811503,-0.0010014891,-0.003142264
UncalAccel,1676594612758,122116389526623,3.4594233,2.9976087,8.96471,0.006110925,-0.043260336,-0.038735468
OrientationDeg,1676594612759,122116389526623,288.0,-4.0,-20.0
UncalMag,1676594612764,122116395856212,-31.049,-7.015,-107.774796,-45.491467,0.31409264,-60.09035
OrientationDeg,1676594612767,122116398507274,289.0,-4.0,-21.0
UncalGyro,1676594612768,122116398507274,0.49953505,-0.48701233,-1.4198035,0.0005811503,-0.0010014891,-0.003142264
UncalAccel,1676594612768,122116398507274,3.6077783,3.106482,8.985049,0.006110925,-0.043260336,-0.038735468
UncalMag,1676594612775,122116405867199,-29.5728,-6.1243997,-105.0054,-45.491467,0.31409264,-60.09035
UncalGyro,1676594612777,122116407498973,0.48838675,-0.6151413,-1.5477798,0.0005811503,-0.0010014891,-0.003142264
UncalAccel,1676594612777,122116407498973,3.586841,3.0592237,9.370892,0.006110925,-0.043260336,-0.038735468
OrientationDeg,1676594612776,122116407498973,290.0,-4.0,-21.0
UncalMag,1676594612784,122116415867687,-31.049,-6.6977997,-108.6044,-45.491467,0.31409264,-60.09035
UncalGyro,1676594612785,122116416478160,0.54305923,-0.57604593,-1.6534595,0.0005811503,-0.0010014891,-0.003142264
UncalAccel,1676594612786,122116416478160,3.266203,2.917449,10.369297,0.006110925,-0.043260336,-0.038735468
OrientationDeg,1676594612785,122116416478160,291.0,-4.0,-21.0
UncalGyro,1676594612794,122116425452343,0.6794349,-0.34055737,-1.7437148,0.0005811503,-0.0010014891,-0.003142264
UncalAccel,1676594612794,122116425452343,2.922833,2.9533412,11.368898,0.006110925,-0.043260336,-0.038735468
UncalMag,1676594612794,122116425856212,-33.4036,-6.9417996,-108.8118,-45.491467,0.31409264,-60.09035
OrientationDeg,1676594612795,122116425452343,292.0,-4.0,-22.0
UncalGyro,1676594612804,122116434434581,0.84940815,0.035430185,-1.8219056,0.0005811503,-0.0010014891,-0.003142264
UncalAccel,1676594612804,122116434434581,2.6943183,3.1274192,11.592628,0.006110925,-0.043260336,-0.038735468
UncalMag,1676594612804,122116435856945,-31.0978,-6.6001997,-108.641,-45.491467,0.31409264,-60.09035
OrientationDeg,1676594612803,122116434434581,293.0,-3.0,-22.0
UncalGyro,1676594612812,122116443410716,0.99036527,0.36774087,-1.8771889,0.0005811503,-0.0010014891,-0.003142264
UncalAccel,1676594612812,122116443410716,2.5818555,3.2763724,10.420743,0.006110925,-0.043260336,-0.038735468
OrientationDeg,1676594612812,122116443410716,294.0,-3.0,-23.0
UncalMag,1676594612815,122116445855968,-29.902199,-6.039,-107.8114,-45.491467,0.31409264,-60.09035
UncalGyro,1676594612821,122116452393200,1.0567969,0.50503284,-1.8982637,0.0005811503,-0.0010014891,-0.003142264
UncalAccel,1676594612821,122116452393200,2.4951158,3.4540396,8.982058,0.006110925,-0.043260336,-0.038735468
OrientationDeg,1676594612821,122116452393200,295.0,-2.0,-23.0
UncalMag,1676594612825,122116455867687,-30.0364,-6.3561997,-106.3596,-45.491467,0.31409264,-60.09035
UncalGyro,1676594612831,122116461375499,1.0485502,0.4804455,-1.8947513,0.0005811503,-0.0010014891,-0.003142264
UncalAccel,1676594612831,122116461375499,2.353341,3.6604204,8.09133,0.006110925,-0.043260336,-0.038735468
OrientationDeg,1676594612830,122116461375499,296.0,-1.0,-24.0
UncalMag,1676594612834,122116465861828,-28.5114,-5.7339997,-106.225395,-45.491467,0.31409264,-60.09035
UncalGyro,1676594612840,122116470341503,0.97585726,0.44700065,-1.8573358,0.0005811503,-0.0010014891,-0.003142264
UncalAccel,1676594612840,122116470341503,1.9764715,3.6053855,8.07458,0.006110925,-0.043260336,-0.038735468
OrientationDeg,1676594612839,122116470341503,297.0,-1.0,-24.0
UncalMag,1676594612844,122116475867443,-28.8286,-6.1243997,-104.822395,-45.491467,0.31409264,-60.09035
UncalGyro,1676594612848,122116479331005,0.86330533,0.66706485,-1.7615826,0.0005811503,-0.0010014891,-0.003142264
UncalAccel,1676594612849,122116479331005,1.1030912,3.1363924,9.46481,0.006110925,-0.043260336,-0.038735468
OrientationDeg,1676594612849,122116479331005,298.0,0.0,-25.0
UncalMag,1676594612855,122116485867687,-29.4142,-6.9052,-106.2986,-45.491467,0.31409264,-60.09035
UncalGyro,1676594612858,122116488307018,0.64751714,1.484708,-1.4666874,0.0005811503,-0.0010014891,-0.003142264
UncalAccel,1676594612857,122116488307018,-1.4356936,2.845066,10.585847,0.006110925,-0.043260336,-0.038735468
OrientationDeg,1676594612858,122116488307018,299.0,0.0,-25.0
UncalMag,1676594612865,122116495867687,-30.365799,-7.5518,-106.1766,-45.491467,0.31409264,-60.09035
UncalGyro,1676594612866,122116497289745,0.24801129,2.4920247,-0.7631234,0.0005811503,-0.0010014891,-0.003142264
UncalAccel,1676594612866,122116497289745,-5.1218367,2.9766715,9.035298,0.006110925,-0.043260336,-0.038735468
OrientationDeg,1676594612866,122116497289745,300.0,2.0,-25.0
UncalMag,1676594612875,122116505867443,-24.4366,-5.124,-102.967995,-45.491467,0.31409264,-60.09035
UncalGyro,1676594612875,122116506272411,-0.28053987,3.0671544,0.08460484,0.0005811503,-0.0010014891,-0.003142264
UncalAccel,1676594612875,122116506272411,-4.253242,2.9084759,6.860821,0.006110925,-0.043260336,-0.038735468
OrientationDeg,1676594612876,122116506272411,300.0,3.0,-25.0
UncalGyro,1676594612884,122116515238659,-0.83077675,3.06578,0.5367978,0.0005811503,-0.0010014891,-0.003142264
UncalAccel,1676594612885,122116515238659,-0.39421752,2.1080768,5.130212,0.006110925,-0.043260336,-0.038735468
UncalMag,1676594612885,122116515855968,-22.5212,-4.514,-102.943596,-45.491467,0.31409264,-60.09035
OrientationDeg,1676594612885,122116515238659,299.0,5.0,-25.0
OrientationDeg,1676594612894,122116524227733,299.0,6.0,-24.0
UncalGyro,1676594612893,122116524227733,-1.2521211,2.761569,0.6808093,0.0005811503,-0.0010014891,-0.003142264
UncalAccel,1676594612893,122116524227733,1.0660025,1.5954145,4.9340005,0.006110925,-0.043260336,-0.038735468
UncalMag,1676594612895,122116525867443,-23.0092,-5.4533997,-102.5288,-45.491467,0.31409264,-60.09035
UncalGyro,1676594612902,122116533204295,-1.4853189,2.389552,0.80741113,0.0005811503,-0.0010014891,-0.003142264
UncalAccel,1676594612902,122116533204295,0.48035914,1.7676977,6.099903,0.006110925,-0.043260336,-0.038735468
OrientationDeg,1676594612903,122116533204295,298.0,7.0,-23.0
UncalMag,1676594612905,122116535867687,-20.5448,-4.0748,-101.6748,-45.491467,0.31409264,-60.09035
UncalGyro,1676594612911,122116542186413,-1.5453364,2.1018345,0.9808969,0.0005811503,-0.0010014891,-0.003142264
UncalAccel,1676594612912,122116542186413,-0.15254244,2.2947168,7.548757,0.006110925,-0.043260336,-0.038735468
OrientationDeg,1676594612911,122116542186413,297.0,8.0,-23.0
UncalMag,1676594612915,122116545867687,-23.0336,-5.0386,-103.0656,-45.491467,0.31409264,-60.09035
UncalGyro,1676594612920,122116551168590,-1.4802792,1.8376354,1.1607966,0.0005811503,-0.0010014891,-0.003142264
UncalAccel,1676594612920,122116551168590,-0.47258246,2.781058,8.426325,0.006110925,-0.043260336,-0.038735468
OrientationDeg,1676594612921,122116551168590,297.0,8.0,-22.0
UncalMag,1676594612924,122116555854748,-21.8624,-4.7336,-102.626396,-45.491467,0.31409264,-60.09035
UncalGyro,1676594612930,122116560147960,-1.3249667,1.5430456,1.32909,0.0005811503,-0.0010014891,-0.003142264
UncalAccel,1676594612930,122116560147960,-0.70289165,2.8546374,8.864211,0.006110925,-0.043260336,-0.038735468
OrientationDeg,1676594612929,122116560147960,296.0,9.0,-21.0
UncalMag,1676594612935,122116565855724,-20.251999,-4.1358,-102.1384,-45.491467,0.31409264,-60.09035
UncalGyro,1676594612939,122116569124401,-1.1139128,1.2651019,1.4825699,0.0005811503,-0.0010014891,-0.003142264
UncalAccel,1676594612939,122116569124401,-1.0127622,2.3336003,9.079565,0.006110925,-0.043260336,-0.038735468
OrientationDeg,1676594612938,122116569124401,295.0,9.0,-21.0
UncalMag,1676594612944,122116575867443,-21.5452,-4.6604,-103.419395,-45.491467,0.31409264,-60.09035
UncalGyro,1676594612947,122116578103954,-0.8782715,1.0117456,1.630552,0.0005811503,-0.0010014891,-0.003142264
UncalAccel,1676594612947,122116578103954,-0.68853474,1.4877375,8.718847,0.006110925,-0.043260336,-0.038735468
OrientationDeg,1676594612948,122116578103954,294.0,9.0,-21.0
UncalMag,1676594612954,122116585867443,-20.374,-4.1114,-103.2486,-45.491467,0.31409264,-60.09035
UncalGyro,1676594612956,122116587083263,-0.66355234,0.7661777,1.7788396,0.0005811503,-0.0010014891,-0.003142264
UncalAccel,1676594612957,122116587083263,-0.43429732,1.3806586,8.195417,0.006110925,-0.043260336,-0.038735468
OrientationDeg,1676594612957,122116587083263,293.0,9.0,-20.0
UncalMag,1676594612964,122116595867443,-19.8738,-4.697,-103.639,-45.491467,0.31409264,-60.09035
UncalGyro,1676594612965,122116596059642,-0.4906775,0.4709771,1.9521726,0.0005811503,-0.0010014891,-0.003142264
UncalAccel,1676594612966,122116596059642,-0.8769695,1.5936198,7.422536,0.006110925,-0.043260336,-0.038735468
OrientationDeg,1676594612965,122116596059642,292.0,9.0,-20.0
UncalGyro,1676594612975,122116605041881,-0.345597,0.010537425,2.1235204,0.0005811503,-0.0010014891,-0.003142264
UncalAccel,1676594612975,122116605041881,-0.7495517,1.7700906,6.113662,0.006110925,-0.043260336,-0.038735468
UncalMag,1676594612975,122116605855480,-18.0438,-4.331,-101.6382,-45.491467,0.31409264,-60.09035
OrientationDeg,1676594612975,122116605041881,291.0,9.0,-20.0
UncalGyro,1676594612984,122116614023936,-0.21639901,-0.5035057,2.2322543,0.0005811503,-0.0010014891,-0.003142264
UncalAccel,1676594612984,122116614023936,-0.15314065,2.332404,5.8713884,0.006110925,-0.043260336,-0.038735468
OrientationDeg,1676594612983,122116614023936,290.0,8.0,-20.0
UncalMag,1676594612985,122116615867687,-18.5684,-4.5994,-102.2604,-45.491467,0.31409264,-60.09035
UncalGyro,1676594612992,122116623000255,-0.09865474,-0.93111134,2.2305744,0.0005811503,-0.0010014891,-0.003142264
OrientationDeg,1676594612992,122116623000255,289.0,7.0,-20.0
UncalAccel,1676594612993,122116623000255,0.22313072,3.298506,5.4777694,0.006110925,-0.043260336,-0.038735468
UncalMag,1676594612995,122116625867687,-19.1174,-5.0629997,-103.8098,-45.491467,0.31409264,-60.09035
UncalGyro,1676594613001,122116631979319,0.031001411,-1.4075862,2.131767,0.0005811503,-0.0010014891,-0.003142264
UncalAccel,1676594613000,122116631979319,0.19860429,4.1276193,4.9381876,0.006110925,-0.043260336,-0.038735468
OrientationDeg,1676594613000,122116631979319,287.0,6.0,-21.0
UncalMag,1676594613005,122116635867443,-21.9356,-6.9662,-104.9566,-45.491467,0.31409264,-60.09035
UncalGyro,1676594613010,122116640947399,0.15134187,-1.7327193,1.9422461,0.0005811503,-0.0010014891,-0.003142264
UncalAccel,1676594613010,122116640947399,0.18185452,4.6749773,6.242276,0.006110925,-0.043260336,-0.038735468
OrientationDeg,1676594613010,122116640947399,286.0,5.0,-21.0
UncalMag,1676594613014,122116645855724,-25.4492,-9.0157995,-107.7504,-45.491467,0.31409264,-60.09035
UncalGyro,1676594613018,122116649938671,0.2602286,-1.8293887,1.6526959,0.0005811503,-0.0010014891,-0.003142264
UncalAccel,1676594613018,122116649938671,0.43728834,5.0141597,7.1886373,0.006110925,-0.043260336,-0.038735468
OrientationDeg,1676594613018,122116649938671,286.0,3.0,-21.0
UncalMag,1676594613025,122116655855968,-26.657,-9.2109995,-108.0188,-45.491467,0.31409264,-60.09035
UncalGyro,1676594613027,122116658918651,0.34895676,-1.9205604,1.290911,0.0005811503,-0.0010014891,-0.003142264
UncalAccel,1676594613027,122116658918651,0.8895318,4.9495535,7.2807612,0.006110925,-0.043260336,-0.038735468
OrientationDeg,1676594613028,122116658918651,285.0,2.0,-21.0
UncalMag,1676594613035,122116665855724,-25.4614,-8.845,-107.6894,-45.491467,0.31409264,-60.09035
UncalGyro,1676594613036,122116667897228,0.3912592,-2.0309741,0.91965765,0.0005811503,-0.0010014891,-0.003142264
UncalAccel,1676594613036,122116667897228,1.3100704,4.5966125,7.405188,0.006110925,-0.043260336,-0.038735468
OrientationDeg,1676594613037,122116667897228,285.0,1.0,-22.0
UncalMag,1676594613045,122116675867443,-23.18,-7.6493998,-107.604,-45.491467,0.31409264,-60.09035
UncalGyro,1676594613045,122116676876293,0.29749137,-2.0905335,0.6253733,0.0005811503,-0.0010014891,-0.003142264
UncalAccel,1676594613045,122116676876293,1.3686945,3.8147576,7.906484,0.006110925,-0.043260336,-0.038735468
OrientationDeg,1676594613045,122116676876293,284.0,0.0,-22.0
UncalGyro,1676594613054,122116685855846,-0.042455133,-1.9240729,0.48197266,0.0005811503,-0.0010014891,-0.003142264
UncalAccel,1676594613055,122116685855846,1.11685,2.5507488,7.670193,0.006110925,-0.043260336,-0.038735468
UncalMag,1676594613055,122116685867687,-25.8762,-9.076799,-107.957794,-45.491467,0.31409264,-60.09035
OrientationDeg,1676594613055,122116685855846,284.0,-1.0,-22.0
UncalGyro,1676594613064,122116694835155,-0.29352075,-1.6563611,0.52580225,0.0005811503,-0.0010014891,-0.003142264
UncalAccel,1676594613064,122116694835155,0.38644084,1.7647067,9.559326,0.006110925,-0.043260336,-0.038735468
UncalMag,1676594613065,122116695855724,-26.9254,-9.0036,-108.3482,-45.491467,0.31409264,-60.09035
OrientationDeg,1676594613063,122116694835155,284.0,-1.0,-21.0
UncalGyro,1676594613073,122116703803173,-0.5233588,-1.0261009,0.6776023,0.0005811503,-0.0010014891,-0.003142264
UncalAccel,1676594613073,122116703803173,-0.119042926,1.9932213,10.944771,0.006110925,-0.043260336,-0.038735468
UncalMag,1676594613075,122116705867199,-28.926199,-9.028,-109.6048,-45.491467,0.31409264,-60.09035
OrientationDeg,1676594613072,122116703803173,284.0,-2.0,-21.0
OrientationDeg,1676594613082,122116712793712,283.0,-3.0,-21.0
Raw,1676594612000,115836000000,,,-1360629714164356611,0.0,7.238859642051167,298.0,1.0,21,2,0.0,16431,434629918987258,19,38.712947845458984,-558.3324634197666,0.15,16,-64823.50821122345,340282346638528860000000000000000000000,1575420030,,,,0,,1,,34.51294708251953,0.0,1.0,0.0,1.0,C,122116603523000
Raw,1676594612000,115836000000,,,-1360629714164356611,0.0,7.238859642051167,298.0,1.0,21,6,0.0,16431,434629928310479,36,30.573875427246094,548.928057108971,0.7641424546720734,16,62928.40968161987,340282346638528860000000000000000000000,1575420030,,,,0,,1,,26.37387466430664,0.320142130558394,1.0,0.320142130558394,1.0,C,122116603523000
Raw,1676594612000,115836000000,,,-1360629714164356611,0.0,7.238859642051167,298.0,1.0,21,11,0.0,16431,434629932362191,16,40.719783782958984,26.099844619088017,0.15,16,2274.040637619074,340282346638528860000000000000000000000,1575420030,,,,0,,1,,36.51978302001953,-0.20372681261465636,1.0,-0.20372681261465636,1.0,C,122116603523000
Raw,1676594612000,115836000000,,,-1360629714164356611,0.0,7.238859642051167,298.0,1.0,21,12,0.0,16431,434629931811032,19,38.597442626953125,-176.3161138978462,0.15,16,-20810.42707869115,340282346638528860000000000000000000000,1575420030,,,,0,,1,,34.39744186401367,-0.6984919076624261,1.0,-0.6984919076624261,1.0,C,122116603523000
Raw,1676594612000,115836000000,,,-1360629714164356611,0.0,7.238859642051167,298.0,1.0,21,19,0.0,16431,434629923918793,24,35.64271545410156,596.840731416803,0.535412492822875,16,68873.01006898962,340282346638528860000000000000000000000,1575420030,,,,0,,1,,31.442716598510742,0.0,1.0,0.0,1.0,C,122116603523000
Raw,1676594612000,115836000000,,,-1360629714164356611,0.0,7.238859642051167,298.0,1.0,21,20,0.0,16431,434629923420008,13,42.82508850097656,-448.4698120132482,0.15,16,-51985.66280626613,340282346638528860000000000000000000000,1575420030,,,,0,,1,,38.62508773803711,0.0,1.0,0.0,1.0,C,122116603523000
Raw,1676594612000,115836000000,,,-1360629714164356611,0.0,7.238859642051167,298.0,1.0,21,24,0.0,16431,434629925687202,12,43.56056594848633,602.2163527894068,0.15,16,69232.08116049503,340282346638528860000000000000000000000,1575420030,,,,0,,1,,39.360565185546875,-0.20372681261465636,1.0,-0.20372681261465636,1.0,C,122116603523000
Raw,1676594612000,115836000000,,,-1360629714164356611,0.0,7.238859642051167,298.0,1.0,21,25,0.0,16431,434629926981276,23,36.33237838745117,-442.1556620353758,0.15,16,-51409.77255136027,340282346638528860000000000000000000000,1575420030,,,,0,,1,,32.13237762451172,-2.0372682255564105,1.0,-2.0372682255564105,1.0,C,122116603523000
Raw,1676594612000,115836000000,,,-1360629714164356611,0.0,7.238859642051167,298.0,1.0,21,29,0.0,16431,434629918909340,14,44.969810485839844,-407.2232572117996,0.15,16,-47154.91724953467,340282346638528860000000000000000000000,1575420030,,,,0,,1,,40.76980972290039,-0.6984919076624261,1.0,-0.6984919076624261,1.0,C,122116603523000
Raw,1676594612000,115836000000,,,-1360629714164356611,0.0,7.238859642051167,298.0,1.0,21,6,0.0,81921,434629928311032,7,40.45008087158203,548.5544793030244,0.15,16,64574.024309936045,340282346638528860000000000000000000000,1176450050,,,,0,,1,,36.35008239746094,1.9208527336454408,2.0418484990741383,1.9208527336454408,1.0,Q,122116603523000
Raw,1676594612000,115836000000,,,-1360629714164356611,0.0,7.238859642051167,298.0,1.0,21,11,0.0,81921,434629932362756,9,42.2745361328125,26.405159524926418,0.15,16,2315.426386141527,340282346638528860000000000000000000000,1176450050,,,,0,,1,,38.174537658691406,0.0,2.0418484990741383,0.0,1.0,Q,122116603523000
Raw,1676594612000,115836000000,,,-1360629714164356611,0.0,7.238859642051167,298.0,1.0,21,24,0.0,81921,434629925687733,8,39.72193908691406,602.1522096062308,0.15,16,71027.53935234419,340282346638528860000000000000000000000,1176450050,,,,0,,1,,35.62194061279297,3.5215636101095664,2.0418484990741383,3.5215636101095664,1.0,Q,122116603523000
Raw,1676594612000,115836000000,,,-1360629714164356611,0.0,7.238859642051167,298.0,1.0,21,25,0.0,81921,434629926981791,8,36.522666931152344,-442.4245726173408,0.15,16,-52772.88651820416,340282346638528860000000000000000000000,1176450050,,,,0,,1,,32.42266845703125,1.0186341127782053,2.0418484990741383,1.0186341127782053,1.0,Q,122116603523000
Raw,1676594612000,115836000000,,,-1360629714164356611,0.0,7.238859642051167,298.0,1.0,21,14,0.0,32867,13411931786178,45,36.559715270996094,659.2572973452866,0.15,16,76090.3109737687,340282346638528860000000000000000000000,1598062460,,,,0,,3,,32.35971450805664,50.29141902923584,2.0000000474974513,50.29141902923584,2.0000000474974513,C,122116603523000
Raw,1676594612000,115836000000,,,-1360629714164356611,0.0,7.238859642051167,298.0,1.0,21,18,0.0,32867,13411929681972,33,43.47827911376953,-404.6175852457177,0.15,16,-47638.0644432541,340282346638528860000000000000000000000,1600312450,,,,0,,3,,39.27827835083008,50.29141902923584,2.0000000474974513,50.29141902923584,2.0000000474974513,C,122116603523000
Raw,1676594612000,115836000000,,,-1360629714164356611,0.0,7.238859642051167,298.0,1.0,21,16,0.0,32995,13411925387059,55,34.05769348144531,-648.4676095891214,0.606953432948595,16,-74558.15906101571,340282346638528860000000000000000000000,1601437440,,,,0,,3,,29.85769271850586,50.29141902923584,2.0000000474974513,50.29141902923584,2.0000000474974513,C,122116603523000
Raw,1676594612000,115836000000,,,-1360629714164356611,0.0,7.238859642051167,298.0,1.0,21,15,0.0,32867,13411936132878,44,36.89976501464844,-79.69617541142344,0.15,16,-10160.16163717826,340282346638528860000000000000000000000,1602000000,,,,0,,3,,32.699764251708984,50.29141902923584,2.0000000474974513,50.29141902923584,2.0000000474974513,C,122116603523000
Raw,1676594612000,115836000000,,,-1360629714164356611,0.0,7.238859642051167,298.0,1.0,21,24,0.0,32995,13411928014807,37,39.138980865478516,727.0577326008524,0.15,16,83570.53809344824,340282346638528860000000000000000000000,1603124990,,,,0,,3,,34.93898010253906,50.29141902923584,2.0000000474974513,50.29141902923584,2.0000000474974513,C,122116603523000
Raw,1676594612000,115836000000,,,-1360629714164356611,0.0,7.238859642051167,298.0,1.0,21,17,0.0,32995,13411936333148,33,40.362640380859375,183.69426704467594,0.15,16,20647.52254013147,340282346638528860000000000000000000000,1604249980,,,,0,,3,,36.16263961791992,50.29141902923584,2.0000000474974513,50.29141902923584,2.0000000474974513,C,122116603523000
Raw,1676594612000,115836000000,,,-1360629714164356611,0.0,7.238859642051167,298.0,1.0,21,2,0.0,85026,434629922370578,17,40.095829010009766,180.49702588072762,0.15,16,20784.670627311567,340282346638528860000000000000000000000,1575420030,,,,0,,6,,35.89582824707031,-6.024492904543876,1.5000000237487257,-6.024492904543876,1.5000000237487257,C,122116603523000
Raw,1676594612000,115836000000,,,-1360629714164356611,0.0,7.238859642051167,298.0,1.0,21,11,0.0,85026,434629909765512,67,23.056678771972656,619.8841529315273,1.1017245933869555,16,71361.47640847022,340282346638528860000000000000000000000,1575420030,,,,1,,6,,18.856678009033203,-6.024492904543876,1.5000000237487257,-6.024492904543876,1.5000000237487257,C,122116603523000
Raw,1676594612000,115836000000,,,-1360629714164356611,0.0,7.238859642051167,298.0,1.0,21,25,0.0,85026,434629912026771,11,45.40581512451172,529.9461737731569,0.15,16,61136.69317837105,340282346638528860000000000000000000000,1575420030,,,,0,,6,,41.205814361572266,-6.024492904543876,1.5000000237487257,-6.024492904543876,1.5000000237487257,C,122116603523000
Raw,1676594612000,115836000000,,,-1360629714164356611,0.0,7.238859642051167,298.0,1.0,21,30,0.0,85026,434629916748286,19,38.590084075927734,-275.43755984260304,0.15,16,-31924.148481660937,340282346638528860000000000000000000000,1575420030,,,,0,,6,,34.39008331298828,-6.024492904543876,1.5000000237487257,-6.024492904543876,1.5000000237487257,C,122116603523000
Raw,1676594612000,115836000000,,,-1360629714164356611,0.0,7.238859642051167,298.0,1.0,21,34,0.0,85026,434629920460579,12,44.164981842041016,-219.4825845989095,0.15,16,-25861.578785304897,340282346638528860000000000000000000000,1575420030,,,,0,,6,,39.96498107910156,-6.024492904543876,1.5000000237487257,-6.024492904543876,1.5000000237487257,C,122116603523000
Raw,1676594612000,115836000000,,,-1360629714164356611,0.0,7.238859642051167,298.0,1.0,21,36,0.0,85026,434629920936447,22,36.613521575927734,312.3247469188168,0.15,16,35927.83434184228,340282346638528860000000000000000000000,1575420030,,,,0,,6,,32.41352081298828,-6.024492904543876,1.5000000237487257,-6.024492904543876,1.5000000237487257,C,122116603523000
Raw,1676594612000,115836000000,,,-1360629714164356611,0.0,7.238859642051167,298.0,1.0,21,2,0.0,84003,434629922371143,8,40.1855583190918,180.4510316056501,0.15,16,20671.70728316725,340282346638528860000000000000000000000,1176450050,,,,0,,6,,36.0855598449707,-4.362151958048344,2.541848522822864,-4.362151958048344,1.5000000237487257,Q,122116603523000
Raw,1676594612000,115836000000,,,-1360629714164356611,0.0,7.238859642051167,298.0,1.0,21,11,0.0,16384,434629909766069,1000000000,17.6129207611084,620.0527929264022,299792458,16,70768.56294952404,340282346638528860000000000000000000000,1176450050,,,,0,,6,,13.512920379638672,4.134257324039933,2.541848522822864,4.134257324039933,1.5000000237487257,Q,122116603523000
Raw,1676594612000,115836000000,,,-1360629714164356611,0.0,7.238859642051167,298.0,1.0,21,25,0.0,84003,434629912027304,9,42.321834564208984,529.8930392234379,0.15,16,62678.0419862295,340282346638528860000000000000000000000,1176450050,,,,0,,6,,38.22183609008789,-8.795061148703097,2.541848522822864,-8.795061148703097,1.5000000237487257,Q,122116603523000
Raw,1676594612000,115836000000,,,-1360629714164356611,0.0,7.238859642051167,298.0,1.0,21,30,0.0,84003,434629916748832,9,39.674808502197266,-275.4499317743208,0.15,16,-31681.58783763821,340282346638528860000000000000000000000,1176450050,,,,0,,6,,35.57481002807617,-8.425652049481869,2.541848522822864,-8.425652049481869,1.5000000237487257,Q,122116603523000
Raw,1676594612000,115836000000,,,-1360629714164356611,0.0,7.238859642051167,298.0,1.0,21,34,0.0,84003,434629920461136,13,38.94952392578125,-219.406734091918,0.15,16,-26301.418567565997,340282346638528860000000000000000000000,1176450050,,,,0,,6,,34.849525451660156,-11.011515744030472,2.541848522822864,-11.011515744030472,1.5000000237487257,Q,122116603523000
Raw,1676594612000,115836000000,,,-1360629714164356611,0.0,7.238859642051167,298.0,1.0,21,36,0.0,16384,434629920937030,1000000000,20.923749923706055,312.13940652024576,299792458,16,36271.81538751911,340282346638528860000000000000000000000,1176450050,,,,0,,6,,16.823749542236328,-11.011515744030472,2.541848522822864,-11.011515744030472,1.5000000237487257,Q,122116603523000
UncalGyro,1676594613081,122116712793712,-0.6818783,-0.46395215,0.86284715,0.0005811503,-0.0010014891,-0.003142264
UncalAccel,1676594613082,122116712793712,-0.09032906,2.3862424,10.603793,0.006110925,-0.043260336,-0.038735468
UncalMag,1676594613085,122116715867443,-29.646,-9.5648,-110.8492,-45.491467,0.31409264,-60.09035
UncalGyro,1676594613091,122116721772349,-0.7492262,-0.15485434,1.0410671,0.0005811503,-0.0010014891,-0.003142264
UncalAccel,1676594613091,122116721772349,0.38644084,2.6422744,10.04507,0.006110925,-0.043260336,-0.038735468
UncalMag,1676594613095,122116725867687,-31.414999,-9.6746,-111.7032,-45.491467,0.31409264,-60.09035
OrientationDeg,1676594613091,122116721772349,283.0,-3.0,-20.0
Status,0,30,0,3,15,1602000000,40.43,317.0,77.0,1,1,1,36.234467
Status,0,30,1,1,11,1176450050,43.05,123.0,76.0,1,1,1,38.94684
Status,0,30,2,1,11,1575420030,40.80,123.0,76.0,1,1,1,36.604076
Status,0,30,3,6,2,1176450050,40.19,107.0,76.0,1,1,1,36.08556
Status,0,30,4,6,2,1575420030,40.10,107.0,76.0,1,1,1,35.89583
Status,0,30,5,3,17,1604249980,41.13,320.0,73.0,1,1,1,36.927677
Status,0,30,6,1,12,1575420030,40.68,327.0,65.0,1,1,1,36.48404
Status,0,30,7,6,36,1575420030,38.90,51.0,63.0,1,1,1,34.70147
Status,0,30,8,6,36,1176450050,33.70,51.0,63.0,0,1,1,29.604324
Status,0,30,9,6,34,1575420030,45.14,207.0,59.0,1,1,1,40.939987
Status,0,30,10,6,34,1176450050,39.16,207.0,59.0,1,1,1,35.05571
Status,0,30,11,6,30,1176450050,40.18,315.0,46.0,1,1,1,36.07885
Status,0,30,12,6,30,1575420030,39.76,315.0,46.0,1,1,1,35.561954
Status,0,30,13,3,14,1598062460,42.75,153.0,45.0,1,1,1,38.547108
Status,0,30,14,1,6,1176450050,40.45,48.0,44.0,1,1,1,36.350082
Status,0,30,15,1,6,1575420030,38.75,48.0,44.0,1,1,1,34.54763
Status,0,30,16,1,24,1575420030,44.32,218.0,38.0,1,1,1,40.123905
Status,0,30,17,1,24,1176450050,40.22,218.0,38.0,1,1,1,36.120968
Status,0,30,18,3,18,1600312450,43.95,239.0,36.0,1,1,1,39.74625
Status,0,30,19,1,25,1176450050,38.74,312.0,35.0,1,1,1,34.64275
Status,0,30,20,1,25,1575420030,40.51,312.0,35.0,1,1,1,36.314346
Status,0,30,21,3,24,1603124990,40.55,34.0,30.0,1,1,1,36.35176
Status,0,30,22,1,20,1575420030,43.91,142.0,26.0,1,1,1,39.710857
Status,0,30,23,6,25,1575420030,45.41,126.0,25.0,1,1,1,41.205814
Status,0,30,24,1,19,1575420030,39.29,61.0,25.0,1,1,1,35.08967
Status,0,30,25,6,25,1176450050,43.26,126.0,25.0,1,1,1,39.161335
Status,0,30,26,3,16,1601437440,41.68,328.0,22.0,1,1,1,37.4848
Status,0,30,27,1,29,1575420030,45.73,265.0,15.0,1,1,1,41.532143
Status,0,30,28,6,11,1575420030,31.13,41.0,14.0,1,1,1,26.93249
Status,0,30,29,1,2,1575420030,41.66,217.0,11.0,1,1,1,37.462578
Fix,GPS,37.4311402387,-122.1551665773,-14.712020306155507,0.11820937,2.9804132,114.43112,1676594612000,0.10439312,180.0,122116603523000,3.0
Fix,FLP,37.4311419000,-122.1551757000,-16.5,0.1857015,5.174,42.55057,1676594612938,,,122116569124401,2.5797076
UncalGyro,1676594613100,122116730752269,-0.7449502,-0.0035124752,1.1782063,0.0005811503,-0.0010014891,-0.003142264
UncalAccel,1676594613100,122116730752269,1.1012967,2.6428726,9.98166,0.006110925,-0.043260336,-0.038735468
OrientationDeg,1676594613099,122116730752269,282.0,-3.0,-20.0
UncalMag,1676594613104,122116735867443,-30.7074,-10.1138,-112.300995,-45.491467,0.31409264,-60.09035
UncalGyro,1676594613109,122116739732860,-0.7107417,0.13103059,1.2777774,0.0005811503,-0.0010014891,-0.003142264
UncalAccel,1676594613108,122116739732860,1.599602,2.3904297,10.121041,0.006110925,-0.043260336,-0.038735468
OrientationDeg,1676594613108,122116739732860,282.0,-3.0,-20.0
UncalMag,1676594613115,122116745867687,-29.8046,-9.5648,-110.568596,-45.491467,0.31409264,-60.09035
UncalGyro,1676594613118,122116748699230,-0.6585127,0.24587326,1.3542882,0.0005811503,-0.0010014891,-0.003142264
UncalAccel,1676594613118,122116748699230,2.1391835,2.1954148,9.612567,0.006110925,-0.043260336,-0.038735468
OrientationDeg,1676594613117,122116748699230,281.0,-3.0,-19.0
UncalMag,1676594613125,122116755855968,-28.4504,-8.967,-108.6288,-45.491467,0.31409264,-60.09035
UncalGyro,1676594613127,122116757690380,-0.5888741,0.25366178,1.3935363,0.0005811503,-0.0010014891,-0.003142264
UncalAccel,1676594613127,122116757690380,2.097309,2.2337,9.460024,0.006110925,-0.043260336,-0.038735468
OrientationDeg,1676594613126,122116757690380,280.0,-3.0,-19.0
UncalMag,1676594613135,122116765855968,-26.437399,-8.7474,-108.714195,-45.491467,0.31409264,-60.09035
UncalGyro,1676594613136,122116766668712,-0.4989242,0.23151793,1.3906348,0.0005811503,-0.0010014891,-0.003142264
UncalAccel,1676594613135,122116766668712,2.4675984,2.4616163,9.195618,0.006110925,-0.043260336,-0.038735468
OrientationDeg,1676594613135,122116766668712,279.0,-4.0,-18.0
UncalGyro,1676594613144,122116775648571,-0.40561453,0.22815818,1.32909,0.0005811503,-0.0010014891,-0.003142264
UncalAccel,1676594613144,122116775648571,2.333002,2.9563324,9.230911,0.006110925,-0.043260336,-0.038735468
OrientationDeg,1676594613145,122116775648571,279.0,-4.0,-18.0
UncalMag,1676594613145,122116775864757,-27.7428,-8.967,-108.884995,-45.491467,0.31409264,-60.09035
UncalGyro,1676594613154,122116784629466,-0.32360587,0.16768251,1.218218,0.0005811503,-0.0010014891,-0.003142264
UncalAccel,1676594613154,122116784629466,2.2438695,3.5605202,8.790632,0.006110925,-0.043260336,-0.038735468
OrientationDeg,1676594613154,122116784629466,278.0,-4.0,-18.0
UncalMag,1676594613155,122116785867443,-26.986399,-9.333,-108.9338,-45.491467,0.31409264,-60.09035
UncalGyro,1676594613162,122116793607860,-0.24190263,-0.009010263,1.1059716,0.0005811503,-0.0010014891,-0.003142264
UncalAccel,1676594613162,122116793607860,1.8466609,3.7016966,8.408379,0.006110925,-0.043260336,-0.038735468
OrientationDeg,1676594613162,122116793607860,277.0,-4.0,-18.0
UncalMag,1676594613165,122116795867687,-28.2796,-9.3818,-108.4946,-45.491467,0.31409264,-60.09035
UncalGyro,1676594613172,122116802587108,-0.19272798,-0.25473082,0.9943359,0.0005811503,-0.0010014891,-0.003142264
UncalAccel,1676594613171,122116802587108,2.0488544,3.498905,7.7551384,0.006110925,-0.043260336,-0.038735468
OrientationDeg,1676594613171,122116802587108,277.0,-4.0,-18.0
UncalMag,1676594613174,122116805867687,-27.962399,-9.6868,-108.238396,-45.491467,0.31409264,-60.09035
UncalGyro,1676594613180,122116811566356,-0.1518,-0.56779927,0.93202764,0.0005811503,-0.0010014891,-0.003142264
UncalAccel,1676594613180,122116811566356,1.7940187,3.1076784,7.542177,0.006110925,-0.043260336,-0.038735468
OrientationDeg,1676594613180,122116811566356,276.0,-5.0,-18.0
UncalMag,1676594613185,122116815855480,-31.963999,-10.3944,-110.8126,-45.491467,0.31409264,-60.09035
UncalGyro,1676594613190,122116820537731,-0.12217305,-0.81107634,0.94225967,0.0005811503,-0.0010014891,-0.003142264
UncalAccel,1676594613190,122116820537731,1.358525,2.4819553,7.870592,0.006110925,-0.043260336,-0.038735468
OrientationDeg,1676594613190,122116820537731,276.0,-5.0,-17.0
UncalMag,1676594613194,122116825867443,-29.524,-9.3818,-111.4104,-45.491467,0.31409264,-60.09035
UncalGyro,1676594613199,122116829525097,-0.10064005,-0.9521862,1.0548116,0.0005811503,-0.0010014891,-0.003142264
UncalAccel,1676594613198,122116829525097,0.92243314,1.4679967,7.7204423,0.006110925,-0.043260336,-0.038735468
OrientationDeg,1676594613198,122116829525097,275.0,-6.0,-17.0
UncalMag,1676594613205,122116835867443,-30.9392,-10.223599,-111.142,-45.491467,0.31409264,-60.09035
UncalGyro,1676594613207,122116838504345,-0.1133155,-0.9993755,1.1979067,0.0005811503,-0.0010014891,-0.003142264
UncalAccel,1676594613208,122116838504345,1.5762719,1.8574286,8.273783,0.006110925,-0.043260336,-0.038735468
OrientationDeg,1676594613208,122116838504345,275.0,-7.0,-17.0
UncalMag,1676594613215,122116845867687,-28.9018,-9.271999,-109.1046,-45.491467,0.31409264,-60.09035
UncalGyro,1676594613216,122116847471751,-0.12660182,-0.9074403,1.2988522,0.0005811503,-0.0010014891,-0.003142264
UncalAccel,1676594613216,122116847471751,1.6301104,2.562115,9.025727,0.006110925,-0.043260336,-0.038735468
OrientationDeg,1676594613217,122116847471751,274.0,-7.0,-17.0
UncalMag,1676594613225,122116855867931,-30.9026,-10.2114,-110.1538,-45.491467,0.31409264,-60.09035
UncalGyro,1676594613225,122116856462841,-0.10873401,-0.7796168,1.3959798,0.0005811503,-0.0010014891,-0.003142264
UncalAccel,1676594613226,122116856462841,1.3082758,2.464009,9.305089,0.006110925,-0.043260336,-0.038735468
OrientationDeg,1676594613226,122116856462841,273.0,-8.0,-17.0
UncalGyro,1676594613234,122116865440746,-0.058337633,-0.63545257,1.4567609,0.0005811503,-0.0010014891,-0.003142264
UncalAccel,1676594613234,122116865440746,1.7665013,2.5950162,9.479167,0.006110925,-0.043260336,-0.038735468
UncalMag,1676594613234,122116865855968,-31.1588,-10.187,-110.7638,-45.491467,0.31409264,-60.09035
OrientationDeg,1676594613234,122116865440746,273.0,-9.0,-17.0
UncalGyro,1676594613244,122116874419444,-0.005192355,-0.48838675,1.4553864,0.0005811503,-0.0010014891,-0.003142264
UncalAccel,1676594613243,122116874419444,1.8771694,2.6422744,9.294321,0.006110925,-0.043260336,-0.038735468
OrientationDeg,1676594613243,122116874419444,272.0,-9.0,-17.0
UncalMag,1676594613244,122116875855968,-31.8786,-10.7238,-111.8008,-45.491467,0.31409264,-60.09035
UncalGyro,1676594613252,122116883402904,0.022602014,-0.37843102,1.4133894,0.0005811503,-0.0010014891,-0.003142264
UncalAccel,1676594613252,122116883402904,1.7210377,2.5232315,8.830712,0.006110925,-0.043260336,-0.038735468
OrientationDeg,1676594613252,122116883402904,271.0,-10.0,-17.0
UncalMag,1676594613255,122116885867443,-32.024998,-10.9312,-109.739,-45.491467,0.31409264,-60.09035
UncalGyro,1676594613262,122116892382335,0.0071776668,-0.2790127,1.3718506,0.0005811503,-0.0010014891,-0.003142264
UncalAccel,1676594613262,122116892382335,1.5960127,2.0590239,8.331808,0.006110925,-0.043260336,-0.038735468
OrientationDeg,1676594613261,122116892382335,270.0,-10.0,-16.0
UncalMag,1676594613265,122116895867687,-31.6468,-10.089399,-109.7268,-45.491467,0.31409264,-60.09035
UncalGyro,1676594613271,122116901359630,-0.04505131,-0.16783522,1.4078916,0.0005811503,-0.0010014891,-0.003142264
UncalAccel,1676594613271,122116901359630,1.4261223,1.4219348,8.032705,0.006110925,-0.043260336,-0.038735468
OrientationDeg,1676594613270,122116901359630,270.0,-10.0,-16.0
UncalMag,1676594613275,122116905858898,-33.4768,-11.163,-109.507195,-45.491467,0.31409264,-60.09035
UncalGyro,1676594613279,122116910338817,-0.11881329,-0.09315695,1.5497651,0.0005811503,-0.0010014891,-0.003142264
UncalAccel,1676594613280,122116910338817,1.4069797,0.9804591,7.4105716,0.006110925,-0.043260336,-0.038735468
OrientationDeg,1676594613280,122116910338817,269.0,-10.0,-16.0
UncalMag,1676594613285,122116915867687,-31.3906,-10.613999,-108.8972,-45.491467,0.31409264,-60.09035
OrientationDeg,1676594613289,122116919306956,268.0,-11.0,-16.0
UncalGyro,1676594613289,122116919306956,-0.2012801,-0.12782355,1.7240144,0.0005811503,-0.0010014891,-0.003142264
UncalAccel,1676594613288,122116919306956,1.6049858,1.4057833,6.5078793,0.006110925,-0.043260336,-0.038735468
UncalMag,1676594613295,122116925867443,-32.5374,-11.138599,-110.6906,-45.491467,0.31409264,-60.09035
UncalGyro,1676594613298,122116928297863,-0.31520647,-0.27076602,1.8159497,0.0005811503,-0.0010014891,-0.003142264
UncalAccel,1676594613298,122116928297863,1.814956,2.6602206,5.510072,0.006110925,-0.043260336,-0.038735468
OrientationDeg,1676594613298,122116928297863,267.0,-11.0,-15.0
UncalMag,1676594613305,122116935867443,-32.0494,-11.1142,-110.568596,-45.491467,0.31409264,-60.09035
UncalGyro,1676594613306,122116937270946,-0.48701233,-0.55665094,1.7542523,0.0005811503,-0.0010014891,-0.003142264
UncalAccel,1676594613306,122116937270946,1.9926231,4.049254,4.465007,0.006110925,-0.043260336,-0.038735468
OrientationDeg,1676594613307,122116937270946,266.0,-12.0,-15.0
UncalMag,1676594613314,122116945867443,-35.5386,-12.322,-110.532,-45.491467,0.31409264,-60.09035
UncalGyro,1676594613316,122116946255993,-0.7060075,-0.89858276,1.4937183,0.0005811503,-0.0010014891,-0.003142264
UncalAccel,1676594613316,122116946255993,2.39701,4.7282176,4.69412,0.006110925,-0.043260336,-0.038735468
OrientationDeg,1676594613316,122116946255993,265.0,-12.0,-14.0
UncalGyro,1676594613324,122116955234020,-0.9097311,-1.0239629,1.1427761,0.0005811503,-0.0010014891,-0.003142264
UncalAccel,1676594613324,122116955234020,2.6015964,4.161717,6.884151,0.006110925,-0.043260336,-0.038735468
UncalMag,1676594613324,122116955855968,-34.6968,-11.2972,-110.7638,-45.491467,0.31409264,-60.09035
OrientationDeg,1676594613325,122116955234020,265.0,-13.0,-14.0
UncalGyro,1676594613334,122116964214977,-1.048703,-0.82863873,0.91538155,0.0005811503,-0.0010014891,-0.003142264
UncalAccel,1676594613333,122116964214977,2.2354946,2.6255248,9.162118,0.006110925,-0.043260336,-0.038735468
UncalMag,1676594613334,122116965866955,-35.6728,-10.7604,-111.447,-45.491467,0.31409264,-60.09035
OrientationDeg,1676594613334,122116964214977,265.0,-14.0,-13.0
UncalGyro,1676594613343,122116973195750,-1.1284208,-0.56062156,0.8877399,0.0005811503,-0.0010014891,-0.003142264
UncalAccel,1676594613343,122116973195750,1.9262222,1.3956138,9.98824,0.006110925,-0.043260336,-0.038735468
OrientationDeg,1676594613342,122116973195750,264.0,-14.0,-13.0
UncalMag,1676594613344,122116975867443,-36.9538,-11.236199,-110.910194,-45.491467,0.31409264,-60.09035
UncalGyro,1676594613351,122116982173778,-1.1782063,-0.4014912,0.96486163,0.0005811503,-0.0010014891,-0.003142264
UncalAccel,1676594613352,122116982173778,1.7557336,0.97507524,10.052248,0.006110925,-0.043260336,-0.038735468
OrientationDeg,1676594613352,122116982173778,264.0,-14.0,-12.0
UncalMag,1676594613355,122116985867687,-36.2462,-10.748199,-111.5934,-45.491467,0.31409264,-60.09035
UncalGyro,1676594613360,122116991152843,-1.1662945,-0.29123,1.0257955,0.0005811503,-0.0010014891,-0.003142264
UncalAccel,1676594613360,122116991152843,1.7724833,0.88354975,10.461421,0.006110925,-0.043260336,-0.038735468
OrientationDeg,1676594613361,122116991152843,264.0,-14.0,-11.0
UncalMag,1676594613364,122116995857433,-36.612198,-10.1504,-111.935,-45.491467,0.31409264,-60.09035
UncalGyro,1676594613369,122117000132274,-1.0790935,-0.21838433,1.0299188,0.0005811503,-0.0010014891,-0.003142264
UncalAccel,1676594613370,122117000132274,2.1463618,1.1551352,10.412368,0.006110925,-0.043260336,-0.038735468
OrientationDeg,1676594613370,122117000132274,263.0,-15.0,-10.0
UncalMag,1676594613375,122117005867199,-36.6244,-10.1626,-112.0326,-45.491467,0.31409264,-60.09035
UncalGyro,1676594613379,122117009111705,-0.9257663,-0.33353242,0.97249746,0.0005811503,-0.0010014891,-0.003142264
UncalAccel,1676594613379,122117009111705,2.7003005,1.9280169,9.522836,0.006110925,-0.043260336,-0.038735468
OrientationDeg,1676594613379,122117009111705,263.0,-15.0,-10.0
UncalMag,1676594613385,122117015867443,-37.3686,-9.9674,-112.154594,-45.491467,0.31409264,-60.09035
UncalGyro,1676594613387,122117018090465,-0.75136423,-0.4746423,0.8857546,0.0005811503,-0.0010014891,-0.003142264
UncalAccel,1676594613387,122117018090465,2.6129622,1.9334008,9.836894,0.006110925,-0.043260336,-0.038735468
OrientationDeg,1676594613388,122117018090465,262.0,-15.0,-9.0
UncalMag,1676594613394,122117025867443,-37.9542,-9.821,-113.850395,-45.491467,0.31409264,-60.09035
UncalGyro,1676594613397,122117027070202,-0.61193424,-0.57925296,0.78542,0.0005811503,-0.0010014891,-0.003142264
UncalAccel,1676594613397,122117027070202,2.562115,1.9860427,9.546165,0.006110925,-0.043260336,-0.038735468
OrientationDeg,1676594613396,122117027070202,262.0,-15.0,-9.0
UncalMag,1676594613404,122117035867443,-37.1002,-8.967,-114.155396,-45.491467,0.31409264,-60.09035
UncalGyro,1676594613405,122117036044017,-0.5448918,-0.72097373,0.62995476,0.0005811503,-0.0010014891,-0.003142264
UncalAccel,1676594613405,122117036044017,2.609373,2.3312075,9.200403,0.006110925,-0.043260336,-0.038735468
OrientationDeg,1676594613405,122117036044017,262.0,-16.0,-9.0
UncalGyro,1676594613415,122117045028820,-0.5578727,-0.7635816,0.4783075,0.0005811503,-0.0010014891,-0.003142264
UncalAccel,1676594613415,122117045028820,2.2498515,2.251646,9.527023,0.006110925,-0.043260336,-0.038735468
UncalMag,1676594613415,122117045855968,-37.8932,-9.174399,-113.874794,-45.491467,0.31409264,-60.09035
OrientationDeg,1676594613415,122117045028820,262.0,-16.0,-8.0
UncalGyro,1676594613424,122117054008129,-0.6411031,-0.75502944,0.39706242,0.0005811503,-0.0010014891,-0.003142264
UncalAccel,1676594613424,122117054008129,2.219343,2.0554347,9.597611,0.006110925,-0.043260336,-0.038735468
OrientationDeg,1676594613424,122117054008129,262.0,-17.0,-8.0
UncalMag,1676594613424,122117055859142,-38.2836,-9.0036,-111.4226,-45.491467,0.31409264,-60.09035
UncalGyro,1676594613432,122117062987133,-0.74464476,-0.6934848,0.35964692,0.0005811503,-0.0010014891,-0.003142264
UncalAccel,1676594613432,122117062987133,2.143969,1.8981066,10.101899,0.006110925,-0.043260336,-0.038735468
OrientationDeg,1676594613431,122117062987133,262.0,-17.0,-8.0
UncalMag,1676594613434,122117065865490,-38.918,-8.7474,-113.1428,-45.491467,0.31409264,-60.09035
UncalGyro,1676594613441,122117071957713,-0.8333729,-0.55848354,0.36025777,0.0005811503,-0.0010014891,-0.003142264
UncalAccel,1676594613441,122117071957713,2.0416758,1.8795621,10.539785,0.006110925,-0.043260336,-0.038735468
OrientationDeg,1676594613440,122117071957713,262.0,-17.0,-7.0
UncalMag,1676594613444,122117075867443,-38.8082,-8.1374,-113.582,-45.491467,0.31409264,-60.09035
UncalGyro,1676594613450,122117080946056,-0.9083566,-0.42302418,0.35338554,0.0005811503,-0.0010014891,-0.003142264
UncalAccel,1676594613449,122117080946056,2.1110678,2.1092732,10.388439,0.006110925,-0.043260336,-0.038735468
OrientationDeg,1676594613449,122117080946056,262.0,-18.0,-7.0
UncalMag,1676594613455,122117085855968,-38.6618,-7.9788,-111.520195,-45.491467,0.31409264,-60.09035
UncalGyro,1676594613458,122117089925670,-0.97326106,-0.36392298,0.28695396,0.0005811503,-0.0010014891,-0.003142264
OrientationDeg,1676594613459,122117089925670,262.0,-18.0,-6.0
UncalAccel,1676594613459,122117089925670,2.178665,2.6315067,9.94816,0.006110925,-0.043260336,-0.038735468
UncalMag,1676594613465,122117095867687,-38.8082,-7.4175997,-112.0082,-45.491467,0.31409264,-60.09035
UncalGyro,1676594613467,122117098901683,-1.022283,-0.36987892,0.17180584,0.0005811503,-0.0010014891,-0.003142264
UncalAccel,1676594613467,122117098901683,2.1397817,2.928815,9.635299,0.006110925,-0.043260336,-0.038735468
OrientationDeg,1676594613468,122117098901683,262.0,-18.0,-6.0
UncalMag,1676594613475,122117105867687,-39.3816,-7.1492,-112.6426,-45.491467,0.31409264,-60.09035
UncalGyro,1676594613476,122117107884166,-1.0703887,-0.4195117,0.048563786,0.0005811503,-0.0010014891,-0.003142264
UncalAccel,1676594613477,122117107884166,2.0291135,2.7565317,9.571889,0.006110925,-0.043260336,-0.038735468
OrientationDeg,1676594613477,122117107884166,262.0,-18.0,-5.0
UncalMag,1676594613484,122117115867443,-38.186,-5.5632,-110.8614,-45.491467,0.31409264,-60.09035
UncalGyro,1676594613485,122117116866404,-1.1224649,-0.45738536,-0.06337727,0.0005811503,-0.0010014891,-0.003142264
UncalAccel,1676594613486,122117116866404,1.8011973,2.3940191,9.845269,0.006110925,-0.043260336,-0.038735468
OrientationDeg,1676594613486,122117116866404,262.0,-18.0,-4.0
UncalGyro,1676594613494,122117125843883,-1.1640037,-0.48548517,-0.13622294,0.0005811503,-0.0010014891,-0.003142264
UncalAccel,1676594613494,122117125843883,1.4063815,2.1278176,10.166505,0.006110925,-0.043260336,-0.038735468
UncalMag,1676594613494,122117125872326,-38.6862,-5.0141997,-111.8618,-45.491467,0.31409264,-60.09035
OrientationDeg,1676594613494,122117125843883,262.0,-18.0,-4.0
UncalGyro,1676594613503,122117134821727,-1.190729,-0.51923543,-0.16203201,0.0005811503,-0.0010014891,-0.003142264
UncalAccel,1676594613503,122117134821727,1.1874382,1.7455641,10.491929,0.006110925,-0.043260336,-0.038735468
UncalMag,1676594613505,122117135855724,-40.6382,-5.3802,-113.033,-45.491467,0.31409264,-60.09035
OrientationDeg,1676594613504,122117134821727,263.0,-19.0,-3.0
UncalGyro,1676594613513,122117143798839,-1.1882856,-0.547488,-0.1470658,0.0005811503,-0.0010014891,-0.003142264
UncalAccel,1676594613513,122117143798839,1.1641082,1.0606186,11.322239,0.006110925,-0.043260336,-0.038735468
OrientationDeg,1676594613512,122117143798839,263.0,-19.0,-3.0
UncalMag,1676594613515,122117145867931,-38.7716,-3.9162,-113.533195,-45.491467,0.31409264,-60.09035
UncalGyro,1676594613521,122117152781139,-1.1346822,-0.4802928,-0.12690726,0.0005811503,-0.0010014891,-0.003142264
UncalAccel,1676594613522,122117152781139,1.2017952,0.49950173,12.420544,0.006110925,-0.043260336,-0.038735468
OrientationDeg,1676594613522,122117152781139,263.0,-19.0,-2.0
UncalMag,1676594613524,122117155867687,-40.443,-4.0504,-113.716194,-45.491467,0.31409264,-60.09035
UncalGyro,1676594613530,122117161762584,-1.0253373,-0.3390302,-0.13194689,0.0005811503,-0.0010014891,-0.003142264
UncalAccel,1676594613531,122117161762584,1.3639089,0.38404804,13.207185,0.006110925,-0.043260336,-0.038735468
OrientationDeg,1676594613530,122117161762584,263.0,-19.0,-2.0
UncalMag,1676594613534,122117165867199,-39.4548,-3.6478,-112.8012,-45.491467,0.31409264,-60.09035
UncalGyro,1676594613540,122117170726024,-0.86086184,-0.1684461,-0.17837265,0.0005811503,-0.0010014891,-0.003142264
UncalAccel,1676594613540,122117170726024,1.6241283,0.44985065,13.77548,0.006110925,-0.043260336,-0.038735468
OrientationDeg,1676594613540,122117170726024,264.0,-19.0,-1.0
UncalMag,1676594613545,122117175867443,-39.9916,-3.0012,-113.838196,-45.491467,0.31409264,-60.09035
UncalGyro,1676594613548,122117179718761,-0.67057735,-0.045662176,-0.21655174,0.0005811503,-0.0010014891,-0.003142264
UncalAccel,1676594613549,122117179718761,1.6408781,0.6556334,13.567305,0.006110925,-0.043260336,-0.038735468
OrientationDeg,1676594613549,122117179718761,264.0,-19.0,-1.0
UncalMag,1676594613554,122117185867443,-40.6504,-3.416,-112.4962,-45.491467,0.31409264,-60.09035
UncalGyro,1676594613557,122117188695079,-0.49739704,-0.022602014,-0.24587326,0.0005811503,-0.0010014891,-0.003142264
UncalAccel,1676594613557,122117188695079,1.66361,0.8039884,12.986446,0.006110925,-0.043260336,-0.038735468
OrientationDeg,1676594613557,122117188695079,264.0,-19.0,-1.0
UncalMag,1676594613565,122117195867443,-42.1754,-3.2208,-113.7894,-45.491467,0.31409264,-60.09035
UncalGyro,1676594613567,122117197676891,-0.35811976,-0.043218717,-0.28619036,0.0005811503,-0.0010014891,-0.003142264
