# 
# Header Description:
# 
# Version: v3.0.5.6 Platform: 13 Manufacturer: Google Model: Pixel 6
# 
# Raw,utcTimeMillis,TimeNanos,LeapSecond,TimeUncertaintyNanos,FullBiasNanos,BiasNanos,BiasUncertaintyNanos,DriftNanosPerSecond,DriftUncertaintyNanosPerSecond,HardwareClockDiscontinuityCount,Svid,TimeOffsetNanos,State,ReceivedSvTimeNanos,ReceivedSvTimeUncertaintyNanos,Cn0DbHz,PseudorangeRateMetersPerSecond,PseudorangeRateUncertaintyMetersPerSecond,AccumulatedDeltaRangeState,AccumulatedDeltaRangeMeters,AccumulatedDeltaRangeUncertaintyMeters,CarrierFrequencyHz,CarrierCycles,CarrierPhase,CarrierPhaseUncertainty,MultipathIndicator,SnrInDb,ConstellationType,AgcDb,BasebandCn0DbHz,FullInterSignalBiasNanos,FullInterSignalBiasUncertaintyNanos,SatelliteInterSignalBiasNanos,SatelliteInterSignalBiasUncertaintyNanos,CodeType,ChipsetElapsedRealtimeNanos
# 
# UncalAccel,utcTimeMillis,elapsedRealtimeNanos,UncalAccelXMps2,UncalAccelYMps2,UncalAccelZMps2,BiasXMps2,BiasYMps2,BiasZMps2
# 
# Accel,utcTimeMillis,elapsedRealtimeNanos,AccelXMps2,AccelYMps2,AccelZMps2
# 
# UncalGyro,utcTimeMillis,elapsedRealtimeNanos,UncalGyroXRadPerSec,UncalGyroYRadPerSec,UncalGyroZRadPerSec,DriftXRadPerSec,DriftYRadPerSec,DriftZRadPerSec
# 
# Gyro,utcTimeMillis,elapsedRealtimeNanos,GyroXRadPerSec,GyroYRadPerSec,GyroZRadPerSec
# 
# UncalMag,utcTimeMillis,elapsedRealtimeNanos,UncalMagXMicroT,UncalMagYMicroT,UncalMagZMicroT,BiasXMicroT,BiasYMicroT,BiasZMicroT
# 
# Mag,utcTimeMillis,elapsedRealtimeNanos,MagXMicroT,MagYMicroT,MagZMicroT
# 
# OrientationDeg,utcTimeMillis,elapsedRealtimeNanos,yawDeg,rollDeg,pitchDeg
# 
# Fix,Provider,LatitudeDegrees,LongitudeDegrees,AltitudeMeters,SpeedMps,AccuracyMeters,BearingDegrees,UnixTimeMillis,SpeedAccuracyMps,BearingAccuracyDegrees,elapsedRealtimeNanos,VerticalAccuracyMeters
# 
# Nav,Svid,Type,Status,MessageId,Sub-messageId,Data(Bytes)
# 
# Status,UnixTimeMillis,SignalCount,SignalIndex,ConstellationType,Svid,CarrierFrequencyHz,Cn0DbHz,AzimuthDegrees,ElevationDegrees,UsedInFix,HasAlmanacData,HasEphemerisData,BasebandCn0DbHz
# 
UncalAccel,1676594518387,122022018241283,2.4999015,3.0580273,9.97508,0.006110925,-0.043260336,-0.038735468
UncalGyro,1676594518397,122022027218212,-0.37888917,0.17256944,-0.07452556,0.0006394251,-0.0011606845,-0.0033014715
UncalAccel,1676594518397,122022027218212,2.7074788,2.9132617,10.218549,0.006110925,-0.043260336,-0.038735468
UncalMag,1676594518395,122022025855968,-34.9408,-11.651,-109.665794,-45.491467,0.31409264,-60.09035
UncalMag,1676594518405,122022035855724,-34.9408,-11.651,-109.665794,-45.491467,0.31409264,-60.09035
UncalGyro,1676594518406,122022036183665,-0.30589077,0.27550024,-0.04520403,0.0006394251,-0.0011606845,-0.0033014715
UncalAccel,1676594518406,122022036183665,2.7314072,3.028117,10.386046,0.006110925,-0.043260336,-0.038735468
Fix,FLP,37.4311298000,-122.1551472000,-16.5,0.061274614,4.005,,1676594518117,,,122021748873912,2.4843786
OrientationDeg,1676594518397,122022027218212,277.0,-15.0,-22.0
OrientationDeg,1676594518406,122022036183665,277.0,-14.0,-22.0
OrientationDeg,1676594518415,122022045167186,277.0,-14.0,-22.0
UncalGyro,1676594518414,122022045167186,-0.24877487,0.41508293,-0.025045475,0.0006394251,-0.0011606845,-0.0033014715
UncalAccel,1676594518414,122022045167186,2.6362925,3.1244283,10.433305,0.006110925,-0.043260336,-0.038735468
UncalMag,1676594518414,122022045855968,-33.0864,-10.9556,-107.726,-45.491467,0.31409264,-60.09035
UncalGyro,1676594518424,122022054146068,-0.22342396,0.57711494,-0.013591751,0.0006394251,-0.0011606845,-0.0033014715
UncalAccel,1676594518424,122022054146068,2.5896323,3.182454,10.357333,0.006110925,-0.043260336,-0.038735468
OrientationDeg,1676594518424,122022054146068,277.0,-14.0,-22.0
UncalMag,1676594518425,122022055856701,-32.208,-10.5286,-107.7138,-45.491467,0.31409264,-60.09035
UncalGyro,1676594518432,122022063125865,-0.21471913,0.6937902,-0.0106901415,0.0006394251,-0.0011606845,-0.0033014715
UncalAccel,1676594518432,122022063125865,2.6021945,3.3690944,10.019945,0.006110925,-0.043260336,-0.038735468
OrientationDeg,1676594518433,122022063125865,277.0,-14.0,-22.0
UncalMag,1676594518434,122022065855968,-32.9278,-10.7726,-107.5186,-45.491467,0.31409264,-60.09035
UncalGyro,1676594518442,122022072104076,-0.20219639,0.7296785,-0.01160644,0.0006394251,-0.0011606845,-0.0033014715
UncalAccel,1676594518441,122022072104076,2.4675984,3.6335013,9.6682,0.006110925,-0.043260336,-0.038735468
OrientationDeg,1676594518441,122022072104076,277.0,-13.0,-22.0
UncalMag,1676594518445,122022075855724,-32.0494,-10.3456,-107.3844,-45.491467,0.31409264,-60.09035
UncalGyro,1676594518451,122022081083690,-0.14553864,0.6940956,0.06291912,0.0006394251,-0.0011606845,-0.0033014715
UncalAccel,1676594518451,122022081083690,2.1254246,3.769892,9.753145,0.006110925,-0.043260336,-0.038735468
OrientationDeg,1676594518451,122022081083690,277.0,-13.0,-22.0
UncalMag,1676594518455,122022085855724,-29.3776,-9.308599,-106.628,-45.491467,0.31409264,-60.09035
UncalGyro,1676594518459,122022090061840,-0.036957346,0.67073005,0.10751228,0.0006394251,-0.0011606845,-0.0033014715
UncalAccel,1676594518460,122022090061840,2.0739791,4.1922255,10.145568,0.006110925,-0.043260336,-0.038735468
OrientationDeg,1676594518460,122022090061840,277.0,-12.0,-22.0
UncalMag,1676594518465,122022095856701,-32.098198,-10.736,-107.311195,-45.491467,0.31409264,-60.09035
UncalGyro,1676594518468,122022099041210,0.117744274,0.66645396,0.030085113,0.0006394251,-0.0011606845,-0.0033014715
UncalAccel,1676594518469,122022099041210,2.5028925,4.2759743,10.295717,0.006110925,-0.043260336,-0.038735468
OrientationDeg,1676594518469,122022099041210,277.0,-12.0,-22.0
UncalMag,1676594518475,122022105857189,-31.378399,-10.5042,-107.616196,-45.491467,0.31409264,-60.09035
UncalGyro,1676594518477,122022108020457,0.33673948,0.69226307,-0.17577648,0.0006394251,-0.0011606845,-0.0033014715
UncalAccel,1676594518478,122022108020457,2.9778678,4.28734,10.612766,0.006110925,-0.043260336,-0.038735468
OrientationDeg,1676594518478,122022108020457,277.0,-12.0,-22.0
UncalMag,1676594518484,122022115860851,-31.0124,-10.613999,-105.6642,-45.491467,0.31409264,-60.09035
UncalGyro,1676594518486,122022116999645,0.6565274,0.7257079,-0.4465425,0.0006394251,-0.0011606845,-0.0033014715
UncalAccel,1676594518485,122022116999645,3.3200414,4.2951164,10.909476,0.006110925,-0.043260336,-0.038735468
OrientationDeg,1676594518485,122022116999645,277.0,-11.0,-22.0
UncalMag,1676594518495,122022125857677,-29.2312,-10.2968,-106.1522,-45.491467,0.31409264,-60.09035
UncalGyro,1676594518494,122022125978100,1.0592403,0.74479747,-0.68844515,0.0006394251,-0.0011606845,-0.0033014715
UncalAccel,1676594518494,122022125978100,3.333202,4.208975,10.96152,0.006110925,-0.043260336,-0.038735468
OrientationDeg,1676594518495,122022125978100,277.0,-11.0,-23.0
UncalGyro,1676594518504,122022134956493,1.450805,0.7883216,-0.8019133,0.0006394251,-0.0011606845,-0.0033014715
UncalAccel,1676594518504,122022134956493,3.0161529,3.7124643,10.786246,0.006110925,-0.043260336,-0.038735468
UncalMag,1676594518505,122022135855968,-29.9266,-11.333799,-106.530396,-45.491467,0.31409264,-60.09035
OrientationDeg,1676594518503,122022134956493,278.0,-10.0,-24.0
UncalGyro,1676594518512,122022143941417,1.6210836,0.8720101,-0.6719518,0.0006394251,-0.0011606845,-0.0033014715
UncalAccel,1676594518512,122022143941417,2.4089742,1.5960127,9.819546,0.006110925,-0.043260336,-0.038735468
UncalMag,1676594518514,122022145856212,-30.6098,-12.1268,-110.1904,-45.491467,0.31409264,-60.09035
OrientationDeg,1676594518512,122022143941417,278.0,-10.0,-24.0
UncalGyro,1676594518521,122022152914745,1.5334245,0.8078693,-0.30207285,0.0006394251,-0.0011606845,-0.0033014715
UncalAccel,1676594518521,122022152914745,1.6540387,0.18065812,8.002197,0.006110925,-0.043260336,-0.038735468
OrientationDeg,1676594518522,122022152914745,278.0,-9.0,-25.0
UncalMag,1676594518525,122022155855236,-30.524399,-13.3468,-109.5804,-45.491467,0.31409264,-60.09035
UncalGyro,1676594518530,122022161895702,1.3994923,0.5491679,0.0047342055,0.0006394251,-0.0011606845,-0.0033014715
UncalAccel,1676594518530,122022161895702,2.1750758,2.277369,7.048059,0.006110925,-0.043260336,-0.038735468
OrientationDeg,1676594518531,122022161895702,278.0,-9.0,-26.0
UncalMag,1676594518535,122022165856456,-28.0478,-12.3586,-104.9566,-45.491467,0.31409264,-60.09035
UncalGyro,1676594518539,122022170873424,1.210735,0.13973543,-0.099571034,0.0006394251,-0.0011606845,-0.0033014715
UncalAccel,1676594518540,122022170873424,3.5790644,4.833502,5.671588,0.006110925,-0.043260336,-0.038735468
OrientationDeg,1676594518540,122022170873424,278.0,-9.0,-27.0
UncalMag,1676594518544,122022175855724,-31.2442,-14.2374,-105.6642,-45.491467,0.31409264,-60.09035
UncalGyro,1676594518548,122022179857493,0.9127854,-0.49235737,-0.5355761,0.0006394251,-0.0011606845,-0.0033014715
UncalAccel,1676594518548,122022179857493,3.6520455,5.973682,4.1383867,0.006110925,-0.043260336,-0.038735468
OrientationDeg,1676594518549,122022179857493,278.0,-9.0,-27.0
UncalMag,1676594518554,122022185852306,-29.6948,-13.603,-104.8834,-45.491467,0.31409264,-60.09035
UncalGyro,1676594518558,122022188831310,0.5723807,-1.3316863,-1.0306823,0.0006394251,-0.0011606845,-0.0033014715
UncalAccel,1676594518558,122022188831310,3.6107693,5.599803,3.2356944,0.006110925,-0.043260336,-0.038735468
OrientationDeg,1676594518557,122022188831310,279.0,-10.0,-28.0
UncalMag,1676594518565,122022195856945,-30.987999,-13.9446,-105.8838,-45.491467,0.31409264,-60.09035
UncalGyro,1676594518566,122022197813610,0.28023443,-2.1056526,-1.4479034,0.0006394251,-0.0011606845,-0.0033014715
UncalAccel,1676594518566,122022197813610,3.694518,5.163113,3.9768713,0.006110925,-0.043260336,-0.038735468
OrientationDeg,1676594518566,122022197813610,279.0,-11.0,-28.0
UncalMag,1676594518575,122022205856701,-29.8046,-13.102799,-104.1514,-45.491467,0.31409264,-60.09035
UncalGyro,1676594518575,122022206794567,0.077579886,-2.628095,-1.7502817,0.0006394251,-0.0011606845,-0.0033014715
UncalAccel,1676594518575,122022206794567,3.938586,4.145565,5.102096,0.006110925,-0.043260336,-0.038735468
OrientationDeg,1676594518576,122022206794567,280.0,-12.0,-28.0
UncalGyro,1676594518584,122022215767284,0.019394971,-2.8539624,-1.9098701,0.0006394251,-0.0011606845,-0.0033014715
UncalAccel,1676594518584,122022215767284,3.7387853,3.2889347,6.6125655,0.006110925,-0.043260336,-0.038735468
UncalMag,1676594518584,122022215857433,-30.622,-13.0418,-106.75,-45.491467,0.31409264,-60.09035
OrientationDeg,1676594518585,122022215767284,281.0,-13.0,-28.0
UncalGyro,1676594518594,122022224746532,0.10338894,-2.7565293,-1.9738584,0.0006394251,-0.0011606845,-0.0033014715
UncalAccel,1676594518593,122022224746532,3.054438,2.929413,8.485547,0.006110925,-0.043260336,-0.038735468
OrientationDeg,1676594518594,122022224746532,283.0,-13.0,-29.0
UncalMag,1676594518595,122022225856212,-30.255999,-11.955999,-107.116,-45.491467,0.31409264,-60.09035
UncalGyro,1676594518602,122022233725475,0.25870144,-2.3984096,-1.9895881,0.0006394251,-0.0011606845,-0.0033014715
UncalAccel,1676594518603,122022233725475,2.341377,2.891128,10.01157,0.006110925,-0.043260336,-0.038735468
OrientationDeg,1676594518602,122022233725475,284.0,-14.0,-29.0
UncalMag,1676594518605,122022235856701,-32.647198,-12.382999,-108.4946,-45.491467,0.31409264,-60.09035
UncalGyro,1676594518612,122022242710949,0.43508878,-1.8799378,-1.997224,0.0006394251,-0.0011606845,-0.0033014715
UncalAccel,1676594518611,122022242710949,1.7892331,3.196811,11.240284,0.006110925,-0.043260336,-0.038735468
OrientationDeg,1676594518611,122022242710949,285.0,-15.0,-29.0
UncalMag,1676594518615,122022245867687,-31.6468,-11.9804,-107.469795,-45.491467,0.31409264,-60.09035
UncalGyro,1676594518621,122022251697032,0.59803706,-1.3347405,-2.0158553,0.0006394251,-0.0011606845,-0.0033014715
UncalAccel,1676594518620,122022251697032,1.1437693,3.699902,11.459228,0.006110925,-0.043260336,-0.038735468
OrientationDeg,1676594518621,122022251697032,286.0,-15.0,-30.0
UncalMag,1676594518624,122022255867687,-32.8912,-12.4928,-107.665,-45.491467,0.31409264,-60.09035
UncalGyro,1676594518630,122022260679698,0.69806623,-0.7635816,-1.9194913,0.0006394251,-0.0011606845,-0.0033014715
UncalAccel,1676594518629,122022260679698,-1.3992031,4.208377,10.788041,0.006110925,-0.043260336,-0.038735468
OrientationDeg,1676594518629,122022260679698,287.0,-14.0,-31.0
UncalMag,1676594518634,122022265867443,-31.9762,-12.3708,-106.054596,-45.491467,0.31409264,-60.09035
UncalGyro,1676594518638,122022269652843,0.6962337,-0.27382034,-1.566564,0.0006394251,-0.0011606845,-0.0033014715
UncalAccel,1676594518638,122022269652843,-3.99063,4.6881375,9.115458,0.006110925,-0.043260336,-0.038735468
OrientationDeg,1676594518639,122022269652843,288.0,-14.0,-31.0
UncalMag,1676594518645,122022275871837,-32.488598,-12.3342,-107.164795,-45.491467,0.31409264,-60.09035
UncalGyro,1676594518647,122022278631846,0.5503896,0.03573562,-0.9309586,0.0006394251,-0.0011606845,-0.0033014715
UncalAccel,1676594518648,122022278631846,-5.8420763,4.9286165,7.0115685,0.006110925,-0.043260336,-0.038735468
OrientationDeg,1676594518648,122022278631846,288.0,-14.0,-31.0
UncalMag,1676594518654,122022285867443,-31.5492,-13.066199,-105.469,-45.491467,0.31409264,-60.09035
UncalGyro,1676594518657,122022287599132,0.30680707,0.10919216,-0.14492778,0.0006394251,-0.0011606845,-0.0033014715
UncalAccel,1676594518657,122022287599132,-5.404788,4.930411,5.388038,0.006110925,-0.043260336,-0.038735468
OrientationDeg,1676594518656,122022287599132,288.0,-14.0,-32.0
UncalMag,1676594518664,122022295867687,-31.4882,-12.4928,-104.9322,-45.491467,0.31409264,-60.09035
UncalGyro,1676594518666,122022296589855,0.07971791,0.034055736,0.35033122,0.0006394251,-0.0011606845,-0.0033014715
UncalAccel,1676594518665,122022296589855,-1.2137593,4.2388854,5.155935,0.006110925,-0.043260336,-0.038735468
OrientationDeg,1676594518665,122022296589855,288.0,-14.0,-32.0
UncalGyro,1676594518675,122022305568797,-0.16417004,0.069027774,0.39354995,0.0006394251,-0.0011606845,-0.0033014715
UncalAccel,1676594518675,122022305568797,1.6103697,3.9918263,6.2775702,0.006110925,-0.043260336,-0.038735468
UncalMag,1676594518674,122022305855724,-32.5862,-13.1882,-106.237595,-45.491467,0.31409264,-60.09035
OrientationDeg,1676594518674,122022305568797,288.0,-14.0,-32.0
UncalGyro,1676594518684,122022314547496,-0.32543847,0.2666427,0.2733622,0.0006394251,-0.0011606845,-0.0033014715
UncalAccel,1676594518684,122022314547496,2.1517458,3.534199,7.917252,0.006110925,-0.043260336,-0.038735468
OrientationDeg,1676594518683,122022314547496,288.0,-14.0,-31.0
UncalMag,1676594518684,122022315867687,-32.1714,-12.7246,-103.9684,-45.491467,0.31409264,-60.09035
UncalGyro,1676594518692,122022323526867,-0.3286455,0.56306505,0.21319197,0.0006394251,-0.0011606845,-0.0033014715
UncalAccel,1676594518693,122022323526867,1.7730815,3.6329029,9.407382,0.006110925,-0.043260336,-0.038735468
OrientationDeg,1676594518693,122022323526867,288.0,-13.0,-31.0
UncalMag,1676594518694,122022325867443,-32.1348,-13.2369995,-106.3352,-45.491467,0.31409264,-60.09035
UncalGyro,1676594518701,122022332506237,-0.24037547,0.7600691,0.25259277,0.0006394251,-0.0011606845,-0.0033014715
UncalAccel,1676594518701,122022332506237,1.4392828,3.955934,9.016754,0.006110925,-0.043260336,-0.038735468
OrientationDeg,1676594518702,122022332506237,287.0,-13.0,-31.0
UncalMag,1676594518705,122022335867443,-32.3422,-12.9564,-106.018,-45.491467,0.31409264,-60.09035
UncalGyro,1676594518711,122022341484630,-0.1470658,0.8425359,0.34284812,0.0006394251,-0.0011606845,-0.0033014715
UncalAccel,1676594518710,122022341484630,1.2849457,4.134199,8.588439,0.006110925,-0.043260336,-0.038735468
OrientationDeg,1676594518711,122022341484630,287.0,-13.0,-31.0
UncalMag,1676594518715,122022345867687,-32.5252,-12.7856,-106.201,-45.491467,0.31409264,-60.09035
UncalGyro,1676594518720,122022350451609,-0.10186178,0.9042333,0.43249258,0.0006394251,-0.0011606845,-0.0033014715
UncalAccel,1676594518720,122022350451609,1.2000005,3.9332023,8.124829,0.006110925,-0.043260336,-0.038735468
OrientationDeg,1676594518720,122022350451609,287.0,-12.0,-31.0
UncalMag,1676594518724,122022355867443,-33.7696,-13.847,-107.6894,-45.491467,0.31409264,-60.09035
UncalGyro,1676594518729,122022359442943,-0.11636983,0.93034774,0.52855116,0.0006394251,-0.0011606845,-0.0033014715
UncalAccel,1676594518728,122022359442943,1.174876,3.2949169,7.4919276,0.006110925,-0.043260336,-0.038735468
OrientationDeg,1676594518728,122022359442943,287.0,-12.0,-31.0
UncalMag,1676594518734,122022365867687,-31.6224,-13.6518,-106.1156,-45.491467,0.31409264,-60.09035
UncalGyro,1676594518737,122022368421398,-0.18692477,0.95478237,0.70646566,0.0006394251,-0.0011606845,-0.0033014715
UncalAccel,1676594518738,122022368421398,0.9409775,2.3276181,6.9858456,0.006110925,-0.043260336,-0.038735468
OrientationDeg,1676594518738,122022368421398,286.0,-12.0,-30.0
UncalMag,1676594518744,122022375863781,-31.0856,-12.9442,-105.0542,-45.491467,0.31409264,-60.09035
UncalGyro,1676594518747,122022377400646,-0.29749137,0.9482156,1.0086912,0.0006394251,-0.0011606845,-0.0033014715
UncalAccel,1676594518746,122022377400646,0.41874397,1.012164,6.437889,0.006110925,-0.043260336,-0.038735468
OrientationDeg,1676594518746,122022377400646,286.0,-12.0,-30.0
UncalMag,1676594518755,122022385869152,-28.816399,-12.566,-104.346596,-45.491467,0.31409264,-60.09035
UncalGyro,1676594518756,122022386379283,-0.4250095,0.85062987,1.4019357,0.0006394251,-0.0011606845,-0.0033014715
UncalAccel,1676594518755,122022386379283,0.19920248,0.5766702,5.8390856,0.006110925,-0.043260336,-0.038735468
OrientationDeg,1676594518756,122022386379283,285.0,-11.0,-30.0
UncalGyro,1676594518764,122022395358592,-0.56505036,0.713796,1.758681,0.0006394251,-0.0011606845,-0.0033014715
UncalAccel,1676594518764,122022395358592,0.42951167,1.4147564,5.9204416,0.006110925,-0.043260336,-0.038735468
UncalMag,1676594518765,122022395855968,-29.975399,-12.1146,-104.8468,-45.491467,0.31409264,-60.09035
OrientationDeg,1676594518765,122022395358592,284.0,-12.0,-29.0
UncalGyro,1676594518773,122022404335216,-0.713796,0.6722572,1.9688187,0.0006394251,-0.0011606845,-0.0033014715
UncalAccel,1676594518773,122022404335216,1.1820544,2.9545379,6.437291,0.006110925,-0.043260336,-0.038735468
UncalMag,1676594518775,122022405857433,-28.7188,-12.0414,-102.3824,-45.491467,0.31409264,-60.09035
OrientationDeg,1676594518773,122022404335216,283.0,-12.0,-29.0
UncalGyro,1676594518783,122022413316478,-0.82726425,0.66966105,2.0120375,0.0006394251,-0.0011606845,-0.0033014715
UncalAccel,1676594518783,122022413316478,1.4171492,3.993621,6.7962146,0.006110925,-0.043260336,-0.038735468
OrientationDeg,1676594518783,122022413316478,282.0,-12.0,-28.0
UncalMag,1676594518785,122022415867443,-29.89,-12.053599,-107.335594,-45.491467,0.31409264,-60.09035
UncalGyro,1676594518792,122022422298473,-0.8790351,0.72127914,1.9469802,0.0006394251,-0.0011606845,-0.0033014715
UncalAccel,1676594518792,122022422298473,1.7096717,4.7210393,7.468598,0.006110925,-0.043260336,-0.038735468
OrientationDeg,1676594518792,122022422298473,281.0,-12.0,-27.0
UncalMag,1676594518795,122022425867687,-31.732199,-12.5171995,-106.8232,-45.491467,0.31409264,-60.09035
UncalGyro,1676594518801,122022431275340,-0.8538369,0.77121735,1.7854064,0.0006394251,-0.0011606845,-0.0033014715
UncalAccel,1676594518801,122022431275340,1.9483558,5.572884,7.735996,0.006110925,-0.043260336,-0.038735468
OrientationDeg,1676594518801,122022431275340,280.0,-12.0,-27.0
UncalMag,1676594518804,122022435855724,-31.171,-12.6636,-105.7862,-45.491467,0.31409264,-60.09035
UncalGyro,1676594518810,122022440253611,-0.74021596,0.7163922,1.5668694,0.0006394251,-0.0011606845,-0.0033014715
UncalAccel,1676594518809,122022440253611,1.8406788,5.899504,7.8945203,0.006110925,-0.043260336,-0.038735468
OrientationDeg,1676594518809,122022440253611,279.0,-12.0,-26.0
UncalMag,1676594518814,122022445867443,-30.560999,-12.4684,-106.213196,-45.491467,0.31409264,-60.09035
UncalGyro,1676594518819,122022449231761,-0.5670357,0.6290385,1.3049608,0.0006394251,-0.0011606845,-0.0033014715
UncalAccel,1676594518819,122022449231761,2.1391835,5.7924256,8.124231,0.006110925,-0.043260336,-0.038735468
OrientationDeg,1676594518819,122022449231761,279.0,-12.0,-26.0
UncalMag,1676594518825,122022455867687,-29.9144,-12.3952,-104.993195,-45.491467,0.31409264,-60.09035
UncalGyro,1676594518828,122022458197277,-0.3622431,0.5647449,1.0413725,0.0006394251,-0.0011606845,-0.0033014715
UncalAccel,1676594518828,122022458197277,2.4197419,5.1678987,8.241479,0.006110925,-0.043260336,-0.038735468
OrientationDeg,1676594518828,122022458197277,278.0,-12.0,-25.0
UncalMag,1676594518834,122022465867687,-29.8778,-11.9316,-106.054596,-45.491467,0.31409264,-60.09035
UncalGyro,1676594518837,122022467188609,-0.14767668,0.48899764,0.8367327,0.0006394251,-0.0011606845,-0.0033014715
UncalAccel,1676594518837,122022467188609,2.6004,4.3322053,7.990233,0.006110925,-0.043260336,-0.038735468
OrientationDeg,1676594518837,122022467188609,278.0,-12.0,-25.0
UncalMag,1676594518844,122022475851574,-30.866,-12.285399,-105.3592,-45.491467,0.31409264,-60.09035
UncalGyro,1676594518846,122022476167247,0.047494773,0.38041633,0.7191411,0.0006394251,-0.0011606845,-0.0033014715
UncalAccel,1676594518846,122022476167247,2.7391837,3.501896,7.6624165,0.006110925,-0.043260336,-0.038735468
OrientationDeg,1676594518845,122022476167247,277.0,-12.0,-25.0
UncalGyro,1676594518855,122022485150646,0.2096795,0.23609942,0.71944654,0.0006394251,-0.0011606845,-0.0033014715
UncalAccel,1676594518854,122022485150646,2.4245276,2.7218359,7.351948,0.006110925,-0.043260336,-0.038735468
UncalMag,1676594518854,122022485855968,-31.378399,-12.8832,-104.810196,-45.491467,0.31409264,-60.09035
OrientationDeg,1676594518854,122022485150646,277.0,-12.0,-25.0
UncalGyro,1676594518864,122022494130382,0.34468073,0.07452556,0.83367836,0.0006394251,-0.0011606845,-0.0033014715
UncalAccel,1676594518864,122022494130382,1.9298115,2.1589243,7.2849483,0.006110925,-0.043260336,-0.038735468
UncalMag,1676594518865,122022495855724,-32.0494,-13.3345995,-105.53,-45.491467,0.31409264,-60.09035
OrientationDeg,1676594518863,122022494130382,276.0,-12.0,-25.0
UncalGyro,1676594518873,122022503106762,0.45066583,-0.12156218,0.9960158,0.0006394251,-0.0011606845,-0.0033014715
UncalAccel,1676594518873,122022503106762,1.707279,2.169692,7.012167,0.006110925,-0.043260336,-0.038735468
OrientationDeg,1676594518872,122022503106762,276.0,-13.0,-25.0
UncalMag,1676594518875,122022505867687,-31.8786,-13.395599,-104.7126,-45.491467,0.31409264,-60.09035
UncalGyro,1676594518881,122022512085521,0.5306892,-0.34147367,1.1386528,0.0006394251,-0.0011606845,-0.0033014715
UncalAccel,1676594518882,122022512085521,1.5990037,2.4245276,7.0606213,0.006110925,-0.043260336,-0.038735468
OrientationDeg,1676594518881,122022512085521,275.0,-13.0,-26.0
UncalMag,1676594518885,122022515867443,-32.9034,-14.3716,-105.7374,-45.491467,0.31409264,-60.09035
UncalGyro,1676594518890,122022521064525,0.57925296,-0.50808716,1.2592987,0.0006394251,-0.0011606845,-0.0033014715
UncalAccel,1676594518891,122022521064525,1.5756737,2.5591238,7.185048,0.006110925,-0.043260336,-0.038735468
OrientationDeg,1676594518891,122022521064525,274.0,-14.0,-26.0
UncalMag,1676594518894,122022525855724,-33.964798,-15.127999,-105.285995,-45.491467,0.31409264,-60.09035
UncalGyro,1676594518899,122022530043162,0.59650993,-0.64766985,1.387275,0.0006394251,-0.0011606845,-0.0033014715
UncalAccel,1676594518900,122022530043162,1.8831514,2.6243281,6.8721867,0.006110925,-0.043260336,-0.038735468
OrientationDeg,1676594518900,122022530043162,273.0,-14.0,-26.0
UncalMag,1676594518905,122022535867443,-34.5626,-15.372,-105.920395,-45.491467,0.31409264,-60.09035
UncalGyro,1676594518908,122022539022716,0.57360244,-0.75640386,1.5150986,0.0006394251,-0.0011606845,-0.0033014715
UncalAccel,1676594518908,122022539022716,2.2319052,2.6267211,6.664011,0.006110925,-0.043260336,-0.038735468
OrientationDeg,1676594518909,122022539022716,272.0,-15.0,-26.0
UncalMag,1676594518915,122022545867443,-34.5016,-15.786799,-104.8468,-45.491467,0.31409264,-60.09035
UncalGyro,1676594518918,122022548002025,0.4970916,-0.8352055,1.6189456,0.0006394251,-0.0011606845,-0.0033014715
UncalAccel,1676594518917,122022548002025,2.8193433,2.3784657,6.108278,0.006110925,-0.043260336,-0.038735468
OrientationDeg,1676594518918,122022548002025,271.0,-16.0,-26.0
UncalMag,1676594518925,122022555867687,-34.953,-15.921,-104.9322,-45.491467,0.31409264,-60.09035
UncalGyro,1676594518925,122022556980419,0.3463606,-1.0158689,1.680643,0.0006394251,-0.0011606845,-0.0033014715
UncalAccel,1676594518926,122022556980419,3.5048869,2.306681,5.186443,0.006110925,-0.043260336,-0.038735468
OrientationDeg,1676594518926,122022556980419,270.0,-17.0,-26.0
UncalMag,1676594518934,122022565867931,-36.1242,-16.0308,-104.7614,-45.491467,0.31409264,-60.09035
UncalGyro,1676594518934,122022565956981,0.15210545,-1.2774719,1.7224873,0.0006394251,-0.0011606845,-0.0033014715
UncalAccel,1676594518935,122022565956981,4.1671004,2.0775683,4.959125,0.006110925,-0.043260336,-0.038735468
OrientationDeg,1676594518935,122022565956981,269.0,-18.0,-25.0
UncalGyro,1676594518943,122022574936717,-0.05421429,-1.4822645,1.7939585,0.0006394251,-0.0011606845,-0.0033014715
UncalAccel,1676594518943,122022574936717,4.6875396,1.4464613,5.6877394,0.006110925,-0.043260336,-0.038735468
UncalMag,1676594518944,122022575855480,-37.1856,-16.3968,-105.8106,-45.491467,0.31409264,-60.09035
OrientationDeg,1676594518943,122022574936717,268.0,-19.0,-25.0
UncalGyro,1676594518952,122022583919933,-0.27015516,-1.5366315,1.947133,0.0006394251,-0.0011606845,-0.0033014715
UncalAccel,1676594518953,122022583919933,4.9178486,0.9661021,6.6299133,0.006110925,-0.043260336,-0.038735468
UncalMag,1676594518954,122022585873302,-37.2466,-16.0064,-104.834595,-45.491467,0.31409264,-60.09035
OrientationDeg,1676594518953,122022583919933,267.0,-21.0,-25.0
UncalGyro,1676594518961,122022592898510,-0.50823987,-1.4921911,2.1704042,0.0006394251,-0.0011606845,-0.0033014715
UncalAccel,1676594518961,122022592898510,4.3561335,0.6873383,7.945966,0.006110925,-0.043260336,-0.038735468
OrientationDeg,1676594518961,122022592898510,266.0,-22.0,-24.0
UncalMag,1676594518964,122022595867443,-39.406,-16.5432,-103.748795,-45.491467,0.31409264,-60.09035
UncalGyro,1676594518970,122022601875010,-0.7108944,-1.1997393,2.365423,0.0006394251,-0.0011606845,-0.0033014715
UncalAccel,1676594518971,122022601875010,4.0498524,0.60358953,10.050453,0.006110925,-0.043260336,-0.038735468
OrientationDeg,1676594518971,122022601875010,265.0,-23.0,-23.0
UncalMag,1676594518975,122022605867443,-39.3572,-15.6282,-106.3108,-45.491467,0.31409264,-60.09035
UncalGyro,1676594518979,122022610854503,-0.80939645,-0.7130325,2.4839308,0.0006394251,-0.0011606845,-0.0033014715
UncalAccel,1676594518980,122022610854503,4.478766,0.5724828,10.943574,0.006110925,-0.043260336,-0.038735468
OrientationDeg,1676594518980,122022610854503,264.0,-24.0,-22.0
UncalMag,1676594518984,122022615861583,-42.760998,-16.8482,-107.762596,-45.491467,0.31409264,-60.09035
UncalGyro,1676594518988,122022619829478,-0.79275036,-0.310625,2.559678,0.0006394251,-0.0011606845,-0.0033014715
UncalAccel,1676594518988,122022619829478,4.7216372,0.22073789,10.480563,0.006110925,-0.043260336,-0.038735468
OrientationDeg,1676594518989,122022619829478,263.0,-24.0,-21.0
UncalMag,1676594518995,122022625867199,-41.419,-15.6038,-107.481995,-45.491467,0.31409264,-60.09035
UncalGyro,1676594518998,122022628812511,-0.70402217,-0.12568553,2.6439774,0.0006394251,-0.0011606845,-0.0033014715
UncalAccel,1676594518998,122022628812511,4.872385,-0.35114673,8.915059,0.006110925,-0.043260336,-0.038735468
OrientationDeg,1676594518997,122022628812511,262.0,-25.0,-20.0
UncalMag,1676594519005,122022635867199,-42.9074,-15.6648,-107.848,-45.491467,0.31409264,-60.09035
UncalGyro,1676594519006,122022637795787,-0.5694791,-0.25350907,2.7991374,0.0006394251,-0.0011606845,-0.0033014715
UncalAccel,1676594519006,122022637795787,5.006383,-1.1581261,7.6917286,0.006110925,-0.043260336,-0.038735468
OrientationDeg,1676594519007,122022637795787,261.0,-25.0,-19.0
UncalMag,1676594519015,122022645867687,-44.078598,-16.1528,-108.579994,-45.491467,0.31409264,-60.09035
UncalGyro,1676594519016,122022646768078,-0.39736784,-0.51159966,3.0285172,0.0006394251,-0.0011606845,-0.0033014715
UncalAccel,1676594519015,122022646768078,5.361717,-1.8747765,7.0223365,0.006110925,-0.043260336,-0.038735468
OrientationDeg,1676594519016,122022646768078,259.0,-26.0,-18.0
UncalGyro,1676594519025,122022655749584,-0.23625213,-0.8678868,3.18215,0.0006394251,-0.0011606845,-0.0033014715
UncalAccel,1676594519025,122022655749584,5.968298,-1.4620147,5.42094,0.006110925,-0.043260336,-0.038735468
UncalMag,1676594519025,122022655853283,-46.2502,-16.4212,-109.812195,-45.491467,0.31409264,-60.09035
OrientationDeg,1676594519024,122022655749584,258.0,-27.0,-17.0
UncalGyro,1676594519033,122022664724010,-0.08659015,-1.347416,3.2362113,0.0006394251,-0.0011606845,-0.0033014715
UncalAccel,1676594519034,122022664724010,6.2697935,-1.4261223,4.2981076,0.006110925,-0.043260336,-0.038735468
UncalMag,1676594519035,122022665855724,-44.554398,-15.554999,-107.640594,-45.491467,0.31409264,-60.09035
OrientationDeg,1676594519033,122022664724010,256.0,-28.0,-17.0
UncalGyro,1676594519042,122022673707408,0.056963183,-1.8380935,3.3455563,0.0006394251,-0.0011606845,-0.0033014715
UncalAccel,1676594519042,122022673707408,6.2925253,-2.3659034,4.016951,0.006110925,-0.043260336,-0.038735468
OrientationDeg,1676594519043,122022673707408,255.0,-30.0,-16.0
UncalMag,1676594519045,122022675865001,-47.5678,-16.128399,-107.1892,-45.491467,0.31409264,-60.09035
UncalGyro,1676594519052,122022682691234,0.12965615,-2.26631,3.5369098,0.0006394251,-0.0011606845,-0.0033014715
UncalAccel,1676594519052,122022682691234,6.7387867,-3.5389848,3.635894,0.006110925,-0.043260336,-0.038735468
OrientationDeg,1676594519052,122022682691234,253.0,-31.0,-15.0
UncalMag,1676594519055,122022685867443,-48.446198,-16.0186,-105.920395,-45.491467,0.31409264,-60.09035
UncalGyro,1676594519060,122022691654430,0.0795652,-2.6039658,3.7922513,0.0006394251,-0.0011606845,-0.0033014715
UncalAccel,1676594519061,122022691654430,7.1677003,-5.133801,3.1106694,0.006110925,-0.043260336,-0.038735468
OrientationDeg,1676594519060,122022691654430,251.0,-33.0,-14.0
UncalMag,1676594519064,122022695867687,-50.0444,-15.677,-106.2864,-45.491467,0.31409264,-60.09035
UncalGyro,1676594519069,122022700632885,-0.08475755,-2.8060095,4.1341834,0.0006394251,-0.0011606845,-0.0033014715
UncalAccel,1676594519069,122022700632885,7.5678997,-6.943373,3.3409786,0.006110925,-0.043260336,-0.038735468
OrientationDeg,1676594519069,122022700632885,249.0,-35.0,-12.0
UncalMag,1676594519074,122022705867443,-52.9968,-15.7746,-108.519,-45.491467,0.31409264,-60.09035
UncalGyro,1676594519078,122022709623485,-0.30390546,-2.6849055,4.501619,0.0006394251,-0.0011606845,-0.0033014715
UncalAccel,1676594519078,122022709623485,8.158329,-7.8813596,4.9118667,0.006110925,-0.043260336,-0.038735468
OrientationDeg,1676594519079,122022709623485,248.0,-37.0,-11.0
UncalMag,1676594519084,122022715867687,-55.4368,-15.750199,-106.859795,-45.491467,0.31409264,-60.09035
UncalGyro,1676594519088,122022718602489,-0.5355761,-2.340683,4.7241263,0.0006394251,-0.0011606845,-0.0033014715
UncalAccel,1676594519087,122022718602489,9.250054,-7.259824,4.901099,0.006110925,-0.043260336,-0.038735468
OrientationDeg,1676594519087,122022718602489,246.0,-38.0,-9.0
UncalMag,1676594519095,122022725867443,-57.1082,-14.7132,-107.4088,-45.491467,0.31409264,-60.09035
UncalGyro,1676594519096,122022727579600,-0.76067996,-2.1012237,4.7558913,0.0006394251,-0.0011606845,-0.0033014715
UncalAccel,1676594519096,122022727579600,9.8727865,-5.998208,4.2999024,0.006110925,-0.043260336,-0.038735468
OrientationDeg,1676594519096,122022727579600,244.0,-40.0,-7.0
UncalMag,1676594519104,122022735867443,-59.353,-14.017799,-108.9948,-45.491467,0.31409264,-60.09035
UncalGyro,1676594519106,122022736550060,-0.8950703,-2.0233383,4.7135887,0.0006394251,-0.0011606845,-0.0033014715
UncalAccel,1676594519105,122022736550060,9.951151,-5.015356,4.415356,0.006110925,-0.043260336,-0.038735468
Nav,14,769,1,-1,14,117,-96,46,-57,53,-111,24,-96,37,9,-120
OrientationDeg,1676594519105,122022736550060,243.0,-41.0,-5.0
Nav,18,769,1,-1,14,117,-96,46,-57,53,-111,24,-96,37,9,-120
Nav,16,769,1,-1,14,117,-96,46,-57,53,-111,24,-96,37,9,-120
Nav,15,769,1,-1,14,117,-96,46,-57,53,-111,24,-96,37,9,-120
Nav,24,769,1,-1,14,117,-96,46,-57,53,-111,24,-96,37,9,-120
Nav,17,769,1,-1,14,117,-96,46,-57,53,-111,24,-96,37,9,-120
UncalGyro,1676594519115,122022745539318,-0.93431836,-2.02624,4.6621237,0.0006394251,-0.0011606845,-0.0033014715
UncalAccel,1676594519115,122022745539318,9.499506,-5.1421757,4.831707,0.006110925,-0.043260336,-0.038735468
UncalMag,1676594519114,122022745862560,-61.975998,-13.8958,-106.9696,-45.491467,0.31409264,-60.09035
OrientationDeg,1676594519114,122022745539318,241.0,-42.0,-3.0
UncalGyro,1676594519124,122022754518627,-0.93737274,-2.070375,4.631122,0.0006394251,-0.0011606845,-0.0033014715
UncalAccel,1676594519123,122022754518627,9.035298,-5.503492,4.642076,0.006110925,-0.043260336,-0.038735468
UncalMag,1676594519125,122022755867687,-62.7934,-12.9442,-105.3348,-45.491467,0.31409264,-60.09035
OrientationDeg,1676594519124,122022754518627,240.0,-43.0,-1.0
UncalGyro,1676594519132,122022763497753,-0.97295564,-2.1615467,4.6418123,0.0006394251,-0.0011606845,-0.0033014715
UncalAccel,1676594519132,122022763497753,8.916255,-5.8630137,4.091727,0.006110925,-0.043260336,-0.038735468
OrientationDeg,1676594519133,122022763497753,238.0,-44.0,0.0
UncalMag,1676594519134,122022765871349,-64.172,-11.7852,-105.7252,-45.491467,0.31409264,-60.09035
UncalGyro,1676594519141,122022772476512,-1.0424415,-2.289065,4.689154,0.0006394251,-0.0011606845,-0.0033014715
UncalAccel,1676594519141,122022772476512,9.075378,-6.410372,3.9176488,0.006110925,-0.043260336,-0.038735468
UncalMag,1676594519144,122022775855724,-66.978,-11.224,-106.1278,-45.491467,0.31409264,-60.09035
OrientationDeg,1676594519141,122022772476512,237.0,-46.0,2.0
Raw,1676594518000,21836000000,,,-1360629714164384507,0.0,8.600263181979658,,,21,2,0.0,16431,434535918811512,30,33.09962844848633,-561.9493618708802,0.6524511159838227,25,-12181.706172863402,0.0030747377313673496,1575420030,,,,0,,1,,28.899627685546875,0.0,1.0,0.0,1.0,C,122022601970000
Raw,1676594518000,21836000000,,,-1360629714164384507,0.0,8.600263181979658,,,21,6,0.0,16431,434535928481237,23,36.03357696533203,541.849505796205,0.15,17,11696.598217209958,0.0973401997825948,1575420030,,,,0,,1,,31.83357810974121,0.320142130558394,1.0,0.320142130558394,1.0,C,122022601970000
Raw,1676594518000,21836000000,,,-1360629714164384507,0.0,8.600263181979658,,,21,11,0.0,16431,434535932368697,25,35.083988189697266,15.550692734755764,0.5620577845555399,25,298.1827511240679,0.002446752740070224,1575420030,,,,0,,1,,30.883987426757812,-0.20372681261465636,1.0,-0.20372681261465636,1.0,C,122022601970000
Raw,1676594518000,21836000000,,,-1360629714164384507,0.0,8.600263181979658,,,21,12,0.0,16431,434535931754661,15,41.256591796875,-182.4308985462884,0.15,25,-3956.105179383009,0.00127507618162781,1575420030,,,,0,,1,,37.05659103393555,-0.6984919076624261,1.0,-0.6984919076624261,1.0,C,122022601970000
Raw,1676594518000,21836000000,,,-1360629714164384507,0.0,8.600263181979658,,,21,19,0.0,16431,434535924105571,18,39.21803665161133,595.6746342493316,0.15,17,12824.185847116783,0.09675920327481603,1575420030,,,,0,,1,,35.018035888671875,0.0,1.0,0.0,1.0,C,122022601970000
Raw,1676594518000,21836000000,,,-1360629714164384507,0.0,8.600263181979658,,,21,20,0.0,16431,434535923278757,20,37.94017028808594,-452.0262481864904,0.15,25,-9679.122600476974,0.001867915503680706,1575420030,,,,0,,1,,33.740169525146484,0.0,1.0,0.0,1.0,C,122022601970000
Raw,1676594518000,21836000000,,,-1360629714164384507,0.0,8.600263181979658,,,21,24,0.0,16431,434535925874954,28,33.97264099121094,596.072785506431,0.6108657261805455,25,12894.734019037356,0.0027807215228676796,1575420030,,,,0,,1,,29.772640228271484,-0.20372681261465636,1.0,-0.20372681261465636,1.0,C,122022601970000
Raw,1676594518000,21836000000,,,-1360629714164384507,0.0,8.600263181979658,,,21,25,0.0,16431,434535926841933,16,40.67527389526367,-445.50457013085065,0.15,25,-9684.303201552782,0.0013633334310725331,1575420030,,,,0,,1,,36.47527313232422,-2.0372682255564105,1.0,-2.0372682255564105,1.0,C,122022601970000
Raw,1676594518000,21836000000,,,-1360629714164384507,0.0,8.600263181979658,,,21,29,0.0,16431,434535918781241,15,40.96134567260742,-409.02499219342144,0.15,25,-8825.550949339638,0.001319162780418992,1575420030,,,,0,,1,,36.76134490966797,-0.6984919076624261,1.0,-0.6984919076624261,1.0,C,122022601970000
Raw,1676594518000,21836000000,,,-1360629714164384507,0.0,8.600263181979658,,,21,6,0.0,81921,434535928481805,13,30.932226181030273,541.5379239786735,0.743561776614234,25,13337.637765629219,0.005223974585533142,1176450050,,,,0,,1,,26.832225799560547,1.9208527336454408,7.671281903963041,1.9208527336454408,1.0,Q,122022601970000
Raw,1676594518000,21836000000,,,-1360629714164384507,0.0,8.600263181979658,,,21,11,0.0,81921,434535932369230,8,37.570247650146484,16.178379750845465,0.15,25,337.68675136015565,0.0024327633436769247,1176450050,,,,0,,1,,33.47024917602539,0.0,7.671281903963041,0.0,1.0,Q,122022601970000
Raw,1676594518000,21836000000,,,-1360629714164384507,0.0,8.600263181979658,,,21,24,0.0,81921,434535925875492,22,29.43761444091797,595.8541124653807,0.810304013369219,25,14706.92938580719,0.006204854231327772,1176450050,,,,0,,1,,25.337614059448242,3.5215636101095664,7.671281903963041,3.5215636101095664,1.0,Q,122022601970000
Raw,1676594518000,21836000000,,,-1360629714164384507,0.0,8.600263181979658,,,21,25,0.0,81921,434535926842471,7,38.27294158935547,-445.6635988729861,0.15,25,-11056.39771010624,0.0023798055481165648,1176450050,,,,0,,1,,34.172943115234375,1.0186341127782053,7.671281903963041,1.0186341127782053,1.0,Q,122022601970000
Raw,1676594518000,21836000000,,,-1360629714164384507,0.0,8.600263181979658,,,21,14,0.0,32867,13317931991203,33,45.19570541381836,649.2371914574064,0.15,17,14571.0483077245,0.09459742661838474,1598062460,,,,0,,3,,40.995704650878906,50.29141902923584,2.0000000474974513,50.29141902923584,2.0000000474974513,C,122022601970000
Raw,1676594518000,21836000000,,,-1360629714164384507,0.0,8.600263181979658,,,21,18,0.0,32867,13317929553663,33,42.146976470947266,-413.1299855043983,0.15,17,-9206.21068541021,0.09479979295172282,1600312450,,,,0,,3,,37.94697570800781,50.29141902923584,2.0000000474974513,50.29141902923584,2.0000000474974513,C,122022601970000
Raw,1676594518000,21836000000,,,-1360629714164384507,0.0,8.600263181979658,,,21,16,0.0,32867,13317925183969,33,40.61388397216797,-651.2504421642088,0.15,17,-13488.960210979225,0.09495174533018262,1601437440,,,,0,,3,,36.413883209228516,50.29141902923584,2.0000000474974513,50.29141902923584,2.0000000474974513,C,122022601970000
Raw,1676594518000,21836000000,,,-1360629714164384507,0.0,8.600263181979658,,,21,15,0.0,32867,13317936105780,36,39.40598678588867,-92.73588469985503,0.15,17,-2044.083825448768,0.09511985629473269,1602000000,,,,0,,3,,35.20598602294922,50.29141902923584,2.0000000474974513,50.29141902923584,2.0000000474974513,C,122022601970000
Raw,1676594518000,21836000000,,,-1360629714164384507,0.0,8.600263181979658,,,21,24,0.0,32867,13317928242993,36,39.31247329711914,725.2761744334921,0.15,17,15314.192660724886,0.09506988964210242,1603124990,,,,0,,3,,35.11247253417969,50.29141902923584,2.0000000474974513,50.29141902923584,2.0000000474974513,C,122022601970000
Raw,1676594518000,21836000000,,,-1360629714164384507,0.0,8.600263181979658,,,21,17,0.0,32867,13317936389638,36,39.23274230957031,173.66214709087149,0.15,17,3861.593870939648,0.09501766372520404,1604249980,,,,0,,3,,35.03274154663086,50.29141902923584,2.0000000474974513,50.29141902923584,2.0000000474974513,C,122022601970000
Raw,1676594518000,21836000000,,,-1360629714164384507,0.0,8.600263181979658,,,21,2,0.0,85026,434535922426220,30,32.769596099853516,175.110395874667,0.665064487291072,16,4067.351587287169,340282346638528860000000000000000000000,1575420030,,,,0,,6,,28.569595336914062,-6.024492904543876,1.5000000237487257,-6.024492904543876,1.5000000237487257,C,122022601970000
Raw,1676594518000,21836000000,,,-1360629714164384507,0.0,8.600263181979658,,,21,11,0.0,85026,434535909959757,30,32.906494140625,619.0481784379358,0.6588244687862903,25,13170.64346255964,0.003143871435895562,1575420030,,,,1,,6,,28.706493377685547,-6.024492904543876,1.5000000237487257,-6.024492904543876,1.5000000237487257,C,122022601970000
Raw,1676594518000,21836000000,,,-1360629714164384507,0.0,8.600263181979658,,,21,25,0.0,85026,434535912192339,22,36.83058166503906,526.7595322531872,0.15,25,11445.269805638947,0.0020010611042380333,1575420030,,,,0,,6,,32.63058090209961,-6.024492904543876,1.5000000237487257,-6.024492904543876,1.5000000237487257,C,122022601970000
Raw,1676594518000,21836000000,,,-1360629714164384507,0.0,8.600263181979658,,,21,30,0.0,85026,434535916661435,22,36.66826629638672,-277.13435494059115,0.15,25,-5933.788315921398,0.002162481425330043,1575420030,,,,1,,6,,32.468265533447266,-6.024492904543876,1.5000000237487257,-6.024492904543876,1.5000000237487257,C,122022601970000
Raw,1676594518000,21836000000,,,-1360629714164384507,0.0,8.600263181979658,,,21,34,0.0,85026,434535920390665,19,38.48188018798828,-225.19771836216523,0.15,25,-4895.146385709298,0.0016546096885576844,1575420030,,,,0,,6,,34.28187942504883,-6.024492904543876,1.5000000237487257,-6.024492904543876,1.5000000237487257,C,122022601970000
Raw,1676594518000,21836000000,,,-1360629714164384507,0.0,8.600263181979658,,,21,36,0.0,85026,434535921033350,23,35.928287506103516,305.73527885715316,0.5227711299668603,25,6880.125131558026,0.0022201132960617542,1575420030,,,,0,,6,,31.728286743164062,-6.024492904543876,1.5000000237487257,-6.024492904543876,1.5000000237487257,C,122022601970000
Raw,1676594518000,21836000000,,,-1360629714164384507,0.0,8.600263181979658,,,21,2,0.0,84003,434535922426777,15,31.36434555053711,175.35089872912022,0.7266382393355091,25,3945.9393174342463,0.004970442969352007,1176450050,,,,0,,6,,27.264345169067383,-4.362151958048344,8.171281927711767,-4.362151958048344,1.5000000237487257,Q,122022601970000
Raw,1676594518000,21836000000,,,-1360629714164384507,0.0,8.600263181979658,,,21,11,0.0,16384,434535909960301,1000000000,23.032047271728516,618.9622224825853,299792458,16,12555.136191680795,340282346638528860000000000000000000000,1176450050,,,,0,,6,,18.93204689025879,4.134257324039933,8.171281927711767,4.134257324039933,1.5000000237487257,Q,122022601970000
Raw,1676594518000,21836000000,,,-1360629714164384507,0.0,8.600263181979658,,,21,25,0.0,84003,434535912192863,8,39.96764373779297,526.2262781384313,0.15,25,13000.80549137058,0.0019579711370170116,1176450050,,,,0,,6,,35.867645263671875,-8.795061148703097,8.171281927711767,-8.795061148703097,1.5000000237487257,Q,122022601970000
Raw,1676594518000,21836000000,,,-1360629714164384507,0.0,8.600263181979658,,,21,30,0.0,84003,434535916661959,23,28.99683952331543,-277.7096668066962,0.8320653290225439,16,-5664.920239841224,340282346638528860000000000000000000000,1176450050,,,,0,,6,,24.896839141845703,-8.425652049481869,8.171281927711767,-8.425652049481869,1.5000000237487257,Q,122022601970000
Raw,1676594518000,21836000000,,,-1360629714164384507,0.0,8.600263181979658,,,21,34,0.0,84003,434535920391212,30,28.128162384033203,-225.90302071744827,0.8717995488386281,16,-5392.954049570745,340282346638528860000000000000000000000,1176450050,,,,0,,6,,24.028162002563477,-10.0879929959774,8.171281927711767,-10.0879929959774,1.5000000237487257,Q,122022601970000
Raw,1676594518000,21836000000,,,-1360629714164384507,0.0,8.600263181979658,,,21,36,0.0,84003,434535921033886,9,34.8989372253418,305.82580186167775,0.5674410153691007,25,7221.963182416623,0.003308761166408658,1176450050,,,,0,,6,,30.798938751220703,-11.011515744030472,8.171281927711767,-11.011515744030472,1.5000000237487257,Q,122022601970000
UncalGyro,1676594519151,122022781455822,-1.1032226,-2.4401011,4.76704,0.0006394251,-0.0011606845,-0.0033014715
UncalAccel,1676594519151,122022781455822,9.175877,-6.823134,4.188038,0.006110925,-0.043260336,-0.038735468
UncalMag,1676594519155,122022785867687,-68.5762,-10.028399,-105.920395,-45.491467,0.31409264,-60.09035
UncalGyro,1676594519159,122022790420727,-1.1137601,-2.6751316,4.9217415,0.0006394251,-0.0011606845,-0.0033014715
UncalAccel,1676594519159,122022790420727,9.21476,-7.2550383,4.252644,0.006110925,-0.043260336,-0.038735468
OrientationDeg,1676594519150,122022781455822,236.0,-47.0,4.0
OrientationDeg,1676594519159,122022790420727,235.0,-48.0,7.0
Status,0,31,0,1,11,1176450050,40.79,126.0,76.0,1,1,1,36.686134
Status,0,31,1,6,2,1176450050,34.72,105.0,76.0,1,1,1,30.615322
Status,0,31,2,3,15,1602000000,39.77,319.0,76.0,1,1,1,35.565075
Status,0,31,3,1,11,1575420030,39.89,126.0,76.0,1,1,1,35.691273
Status,0,31,4,6,2,1575420030,37.77,105.0,76.0,1,1,1,33.569904
Status,0,31,5,3,17,1604249980,39.28,317.0,73.0,1,1,1,35.07556
Status,0,31,6,1,12,1575420030,42.21,327.0,64.0,1,1,1,38.00911
Status,0,31,7,6,36,1176450050,36.33,52.0,63.0,1,1,1,32.23019
Status,0,31,8,6,36,1575420030,37.99,52.0,63.0,0,1,1,33.79418
Status,0,31,9,6,34,1575420030,43.25,206.0,59.0,1,1,1,39.053432
Status,0,31,10,6,34,1176450050,34.52,206.0,59.0,1,1,1,30.415062
Status,0,31,11,3,14,1598062460,46.64,152.0,46.0,1,1,1,42.443256
Status,0,31,12,6,30,1575420030,37.75,315.0,45.0,1,1,1,33.55128
Status,0,31,13,1,6,1575420030,39.15,48.0,45.0,1,1,1,34.953976
Status,0,31,14,1,6,1176450050,38.25,48.0,45.0,1,1,1,34.14811
Status,0,31,15,6,30,1176450050,32.24,315.0,45.0,1,1,1,28.136461
Status,0,31,16,1,24,1575420030,40.29,219.0,39.0,1,1,1,36.09251
Status,0,31,17,1,24,1176450050,34.11,219.0,39.0,1,1,1,30.00797
Status,0,31,18,3,18,1600312450,42.74,238.0,35.0,1,1,1,38.535133
Status,0,31,19,1,25,1176450050,40.58,312.0,34.0,1,1,1,36.47827
Status,0,31,20,1,25,1575420030,42.56,312.0,34.0,1,1,1,38.36171
Status,0,31,21,3,24,1603124990,39.31,34.0,31.0,1,1,1,35.112473
Status,0,31,22,1,20,1575420030,42.72,142.0,26.0,1,1,1,38.52332
Status,0,31,23,6,25,1176450050,43.39,126.0,26.0,1,1,1,39.293827
Status,0,31,24,6,25,1575420030,43.15,126.0,26.0,1,1,1,38.945534
Status,0,31,25,1,19,1575420030,39.22,60.0,25.0,1,1,1,35.018036
Status,0,31,26,3,16,1601437440,40.69,328.0,21.0,1,1,1,36.49116
Status,0,31,27,6,11,1575420030,33.33,41.0,14.0,1,1,1,29.134884
Status,0,31,28,1,29,1575420030,43.14,264.0,14.0,1,1,1,38.94037
Status,0,31,29,6,11,1176450050,23.03,41.0,14.0,0,1,1,18.932047
Status,0,31,30,1,2,1575420030,38.04,217.0,11.0,1,1,1,33.84112
Fix,GPS,37.4311261217,-122.1551568502,-7.954323217588517,0.0,4.5055895,288.6553,1676594518000,0.0137195075,38.19206,122022601970000,3.0
Fix,FLP,37.4311294000,-122.1551481000,-16.5,0.02287122,3.994,,1676594518656,,,122022287599132,2.499987
UncalMag,1676594519165,122022795867443,-70.7844,-8.54,-105.6276,-45.491467,0.31409264,-60.09035
UncalGyro,1676594519169,122022799413891,-1.033584,-2.9561296,5.101794,0.0006394251,-0.0011606845,-0.0033014715
UncalAccel,1676594519168,122022799413891,9.205189,-8.060223,5.0344987,0.006110925,-0.043260336,-0.038735468
OrientationDeg,1676594519168,122022799413891,233.0,-49.0,9.0
UncalMag,1676594519175,122022805867443,-72.529,-6.7344,-104.4076,-45.491467,0.31409264,-60.09035
UncalGyro,1676594519178,122022808389293,-0.91354895,-3.173445,5.332548,0.0006394251,-0.0011606845,-0.0033014715
UncalAccel,1676594519178,122022808389293,8.548359,-8.82832,5.5854464,0.006110925,-0.043260336,-0.038735468
OrientationDeg,1676594519177,122022808389293,232.0,-51.0,12.0
UncalMag,1676594519184,122022815867443,-75.8474,-5.6242,-106.14,-45.491467,0.31409264,-60.09035
UncalGyro,1676594519187,122022817371287,-0.7994699,-3.4352007,5.697387,0.0006394251,-0.0011606845,-0.0033014715
UncalAccel,1676594519187,122022817371287,7.920243,-9.534202,5.1786666,0.006110925,-0.043260336,-0.038735468
OrientationDeg,1676594519187,122022817371287,230.0,-52.0,14.0
UncalMag,1676594519195,122022825867687,-75.554596,-3.5502,-102.955795,-45.491467,0.31409264,-60.09035
UncalGyro,1676594519195,122022826353648,-0.6420194,-3.829056,6.1144557,0.0006394251,-0.0011606845,-0.0033014715
UncalAccel,1676594519195,122022826353648,8.138588,-10.4464655,4.912465,0.006110925,-0.043260336,-0.038735468
OrientationDeg,1676594519196,122022826353648,229.0,-54.0,17.0
UncalGyro,1676594519205,122022835329662,-0.4436409,-4.0908117,6.420652,0.0006394251,-0.0011606845,-0.0033014715
UncalAccel,1676594519205,122022835329662,9.177671,-11.569298,6.1938214,0.006110925,-0.043260336,-0.038735468
UncalMag,1676594519204,122022835855968,-77.9946,-2.0374,-102.724,-45.491467,0.31409264,-60.09035
OrientationDeg,1676594519205,122022835329662,227.0,-55.0,20.0
UncalGyro,1676594519213,122022844308543,-0.25900686,-3.9883392,6.5845165,0.0006394251,-0.0011606845,-0.0033014715
UncalAccel,1676594519214,122022844308543,10.056436,-13.074383,8.3013,0.006110925,-0.043260336,-0.038735468
UncalMag,1676594519215,122022845855968,-81.6058,-0.7686,-100.9916,-45.491467,0.31409264,-60.09035
OrientationDeg,1676594519214,122022844308543,225.0,-57.0,23.0
UncalGyro,1676594519222,122022853283336,-0.13637567,-3.5242343,6.7505193,0.0006394251,-0.0011606845,-0.0033014715
UncalAccel,1676594519222,122022853283336,10.276575,-15.170496,10.712069,0.006110925,-0.043260336,-0.038735468
OrientationDeg,1676594519223,122022853283336,223.0,-58.0,26.0
UncalMag,1676594519225,122022855867687,-83.1552,1.1589999,-98.3442,-45.491467,0.31409264,-60.09035
UncalGyro,1676594519232,122022862266918,-0.05222898,-2.8217392,7.0600753,0.0006394251,-0.0011606845,-0.0033014715
UncalAccel,1676594519231,122022862266918,10.468599,-17.140985,13.304692,0.006110925,-0.043260336,-0.038735468
OrientationDeg,1676594519231,122022862266918,221.0,-58.0,29.0
UncalMag,1676594519235,122022865867687,-85.7294,2.1715999,-102.6874,-45.491467,0.31409264,-60.09035
UncalGyro,1676594519241,122022871249889,0.079870634,-2.1552854,7.5761037,0.0006394251,-0.0011606845,-0.0033014715
UncalAccel,1676594519240,122022871249889,10.582856,-17.318651,15.005989,0.006110925,-0.043260336,-0.038735468
OrientationDeg,1676594519241,122022871249889,218.0,-58.0,32.0
UncalMag,1676594519244,122022875849621,-83.0942,6.6124,-96.416595,-45.491467,0.31409264,-60.09035
UncalGyro,1676594519249,122022880219494,0.33017266,-1.6710218,8.096103,0.0006394251,-0.0011606845,-0.0033014715
UncalAccel,1676594519249,122022880219494,12.050853,-17.19243,16.152151,0.006110925,-0.043260336,-0.038735468
OrientationDeg,1676594519249,122022880219494,215.0,-57.0,36.0
UncalMag,1676594519255,122022885867443,-83.7652,8.9426,-97.0998,-45.491467,0.31409264,-60.09035
UncalGyro,1676594519258,122022889203135,0.69898254,-1.2246321,8.388402,0.0006394251,-0.0011606845,-0.0033014715
UncalAccel,1676594519258,122022889203135,14.154742,-16.744375,17.479568,0.006110925,-0.043260336,-0.038735468
OrientationDeg,1676594519259,122022889203135,211.0,-55.0,39.0
UncalMag,1676594519265,122022895867443,-85.363396,11.3826,-97.831795,-45.491467,0.31409264,-60.09035
UncalGyro,1676594519267,122022898182017,1.1119275,-0.7626653,8.502786,0.0006394251,-0.0011606845,-0.0033014715
UncalAccel,1676594519267,122022898182017,15.057435,-16.150356,18.04906,0.006110925,-0.043260336,-0.038735468
OrientationDeg,1676594519267,122022898182017,207.0,-53.0,42.0
UncalMag,1676594519275,122022905867687,-83.3138,14.1276,-95.221,-45.491467,0.31409264,-60.09035
UncalGyro,1676594519277,122022907149913,1.557401,-0.46105054,8.571814,0.0006394251,-0.0011606845,-0.0033014715
UncalAccel,1676594519277,122022907149913,15.610775,-15.918851,17.404196,0.006110925,-0.043260336,-0.038735468
OrientationDeg,1676594519276,122022907149913,202.0,-50.0,45.0
UncalMag,1676594519285,122022915867443,-82.4964,16.6896,-95.3796,-45.491467,0.31409264,-60.09035
UncalGyro,1676594519286,122022916138255,2.006387,-0.41386122,8.575785,0.0006394251,-0.0011606845,-0.0033014715
UncalAccel,1676594519285,122022916138255,16.268204,-15.43909,16.252052,0.006110925,-0.043260336,-0.038735468
OrientationDeg,1676594519286,122022916138255,197.0,-46.0,48.0
UncalGyro,1676594519295,122022925107920,2.459038,-0.6785186,8.486903,0.0006394251,-0.0011606845,-0.0033014715
UncalAccel,1676594519295,122022925107920,17.336,-14.544174,14.740984,0.006110925,-0.043260336,-0.038735468
UncalMag,1676594519295,122022925855968,-80.3248,18.7514,-93.781395,-45.491467,0.31409264,-60.09035
OrientationDeg,1676594519294,122022925107920,190.0,-42.0,50.0
UncalGyro,1676594519303,122022934101634,2.966056,-1.208597,8.29051,0.0006394251,-0.0011606845,-0.0033014715
UncalAccel,1676594519303,122022934101634,18.096918,-13.551751,13.767703,0.006110925,-0.043260336,-0.038735468
OrientationDeg,1676594519304,122022934101634,183.0,-37.0,52.0
UncalMag,1676594519304,122022935867687,-80.1418,20.7644,-94.611,-45.491467,0.31409264,-60.09035
UncalGyro,1676594519312,122022943077587,3.5225544,-1.7693712,8.031961,0.0006394251,-0.0011606845,-0.0033014715
UncalAccel,1676594519312,122022943077587,18.447466,-13.036098,13.981861,0.006110925,-0.043260336,-0.038735468
OrientationDeg,1676594519313,122022943077587,176.0,-32.0,52.0
UncalMag,1676594519314,122022945867199,-79.361,22.0088,-94.1474,-45.491467,0.31409264,-60.09035
UncalGyro,1676594519322,122022952056652,4.074471,-2.147955,7.765472,0.0006394251,-0.0011606845,-0.0033014715
UncalAccel,1676594519322,122022952056652,18.368504,-12.613765,14.226527,0.006110925,-0.043260336,-0.038735468
OrientationDeg,1676594519321,122022952056652,168.0,-27.0,53.0
UncalMag,1676594519325,122022955867687,-78.446,23.326399,-94.977,-45.491467,0.31409264,-60.09035
UncalGyro,1676594519331,122022961035411,4.585002,-2.3176227,7.5244856,0.0006394251,-0.0011606845,-0.0033014715
UncalAccel,1676594519331,122022961035411,18.376879,-12.326028,13.956737,0.006110925,-0.043260336,-0.038735468
OrientationDeg,1676594519330,122022961035411,161.0,-23.0,52.0
UncalMag,1676594519335,122022965855724,-78.043396,24.5586,-95.6846,-45.491467,0.31409264,-60.09035
UncalGyro,1676594519339,122022970017466,4.9883256,-2.2901337,7.400174,0.0006394251,-0.0011606845,-0.0033014715
UncalAccel,1676594519339,122022970017466,17.821144,-11.038091,13.569697,0.006110925,-0.043260336,-0.038735468
OrientationDeg,1676594519340,122022970017466,153.0,-18.0,51.0
UncalMag,1676594519345,122022975853771,-75.566795,25.2662,-94.6842,-45.491467,0.31409264,-60.09035
UncalGyro,1676594519347,122022978994030,5.294216,-2.0030272,7.294342,0.0006394251,-0.0011606845,-0.0033014715
UncalAccel,1676594519347,122022978994030,18.343378,-9.262616,12.838092,0.006110925,-0.043260336,-0.038735468
OrientationDeg,1676594519347,122022978994030,146.0,-14.0,49.0
UncalMag,1676594519355,122022985867443,-74.163795,25.6078,-94.9526,-45.491467,0.31409264,-60.09035
UncalGyro,1676594519357,122022987973522,5.490762,-1.5245669,7.021285,0.0006394251,-0.0011606845,-0.0033014715
UncalAccel,1676594519357,122022987973522,19.644476,-7.7365937,11.426925,0.006110925,-0.043260336,-0.038735468
OrientationDeg,1676594519356,122022987973522,139.0,-10.0,47.0
UncalMag,1676594519365,122022995867199,-73.0902,25.1442,-96.0872,-45.491467,0.31409264,-60.09035
UncalGyro,1676594519365,122022996951855,5.464495,-0.9091202,6.6011624,0.0006394251,-0.0011606845,-0.0033014715
UncalAccel,1676594519365,122022996951855,19.28914,-5.793622,9.052048,0.006110925,-0.043260336,-0.038735468
OrientationDeg,1676594519366,122022996951855,134.0,-7.0,45.0
UncalMag,1676594519375,122023005867199,-71.2602,25.4126,-97.197395,-45.491467,0.31409264,-60.09035
UncalGyro,1676594519375,122023005925853,5.1853294,-0.3911065,6.039014,0.0006394251,-0.0011606845,-0.0033014715
UncalAccel,1676594519375,122023005925853,18.89313,-4.3441696,6.5228343,0.006110925,-0.043260336,-0.038735468
OrientationDeg,1676594519374,122023005925853,129.0,-4.0,43.0
UncalGyro,1676594519384,122023014909740,4.7934594,0.02275473,5.2855115,0.0006394251,-0.0011606845,-0.0033014715
UncalAccel,1676594519383,122023014909740,18.89971,-3.3667014,4.7880383,0.006110925,-0.043260336,-0.038735468
UncalMag,1676594519384,122023015855724,-70.284195,25.3394,-98.3442,-45.491467,0.31409264,-60.09035
OrientationDeg,1676594519383,122023014909740,125.0,-1.0,41.0
UncalGyro,1676594519393,122023023897166,4.347986,0.32330042,4.360814,0.0006394251,-0.0011606845,-0.0033014715
UncalAccel,1676594519393,122023023897166,18.397217,-2.7505496,3.226123,0.006110925,-0.043260336,-0.038735468
OrientationDeg,1676594519392,122023023897166,122.0,0.0,38.0
UncalMag,1676594519394,122023025867199,-69.7352,24.6684,-100.9794,-45.491467,0.31409264,-60.09035
UncalGyro,1676594519402,122023032868113,3.9205332,0.44700065,3.2856915,0.0006394251,-0.0011606845,-0.0033014715
UncalAccel,1676594519401,122023032868113,17.577078,-2.3288147,1.9567307,0.006110925,-0.043260336,-0.038735468
UncalMag,1676594519404,122023035867443,-69.039795,24.2658,-100.174194,-45.491467,0.31409264,-60.09035
OrientationDeg,1676594519401,122023032868113,120.0,1.0,36.0
UncalGyro,1676594519410,122023041846629,3.5726454,0.4335616,2.0868683,0.0006394251,-0.0011606845,-0.0033014715
UncalAccel,1676594519410,122023041846629,16.490137,-2.082952,1.3908281,0.006110925,-0.043260336,-0.038735468
OrientationDeg,1676594519410,122023041846629,119.0,2.0,35.0
UncalMag,1676594519414,122023045867443,-71.5408,21.9478,-101.687,-45.491467,0.31409264,-60.09035
UncalGyro,1676594519420,122023050814525,3.3191364,0.2742785,0.860251,0.0006394251,-0.0011606845,-0.0033014715
UncalAccel,1676594519419,122023050814525,14.416159,-1.9411774,0.7435696,0.006110925,-0.043260336,-0.038735468
OrientationDeg,1676594519419,122023050814525,118.0,2.0,33.0
UncalMag,1676594519424,122023055855236,-68.100395,22.2528,-101.4308,-45.491467,0.31409264,-60.09035
UncalGyro,1676594519428,122023059804760,3.0705142,-0.23991732,-0.0018325958,0.0006394251,-0.0011606845,-0.0033014715
UncalAccel,1676594519428,122023059804760,9.782457,-0.6771688,-0.18604197,0.006110925,-0.043260336,-0.038735468
OrientationDeg,1676594519429,122023059804760,118.0,2.0,31.0
UncalMag,1676594519434,122023065867687,-69.0032,20.4594,-102.016396,-45.491467,0.31409264,-60.09035
UncalGyro,1676594519438,122023068778271,2.9210048,-0.8174904,-0.47876564,0.0006394251,-0.0011606845,-0.0033014715
UncalAccel,1676594519437,122023068778271,6.5982084,-1.146162,0.9936196,0.006110925,-0.043260336,-0.038735468
OrientationDeg,1676594519437,122023068778271,118.0,1.0,30.0
UncalMag,1676594519445,122023075864757,-69.637596,19.1906,-100.8208,-45.491467,0.31409264,-60.09035
UncalGyro,1676594519447,122023077762707,2.9110782,-1.273654,-0.7475463,0.0006394251,-0.0011606845,-0.0033014715
UncalAccel,1676594519447,122023077762707,6.000003,-3.1657043,2.1714866,0.006110925,-0.043260336,-0.038735468
OrientationDeg,1676594519446,122023077762707,118.0,0.0,28.0
UncalMag,1676594519454,122023085867199,-69.7596,18.226799,-101.2722,-45.491467,0.31409264,-60.09035
UncalGyro,1676594519456,122023086740794,2.8860328,-1.7272215,-0.91736686,0.0006394251,-0.0011606845,-0.0033014715
UncalAccel,1676594519456,122023086740794,5.901897,-4.7377887,2.3347967,0.006110925,-0.043260336,-0.038735468
OrientationDeg,1676594519455,122023086740794,118.0,0.0,27.0
UncalGyro,1676594519465,122023095720897,2.8399124,-2.132225,-1.0520626,0.0006394251,-0.0011606845,-0.0033014715
UncalAccel,1676594519465,122023095720897,5.676972,-5.4987063,3.2446675,0.006110925,-0.043260336,-0.038735468
UncalMag,1676594519465,122023095855724,-70.9796,16.787199,-101.0404,-45.491467,0.31409264,-60.09035
OrientationDeg,1676594519465,122023095720897,119.0,-1.0,25.0
UncalGyro,1676594519473,122023104700633,2.8200593,-2.4063509,-1.1667526,0.0006394251,-0.0011606845,-0.0033014715
UncalAccel,1676594519473,122023104700633,5.348557,-5.6063833,4.009773,0.006110925,-0.043260336,-0.038735468
OrientationDeg,1676594519473,122023104700633,120.0,-3.0,24.0
UncalMag,1676594519474,122023105867443,-73.8954,15.2866,-104.1514,-45.491467,0.31409264,-60.09035
