# 
# Header Description:
# 
# Version: v3.0.5.6 Platform: 13 Manufacturer: Google Model: Pixel 7
# 
# Raw,utcTimeMillis,TimeNanos,LeapSecond,TimeUncertaintyNanos,FullBiasNanos,BiasNanos,BiasUncertaintyNanos,DriftNanosPerSecond,DriftUncertaintyNanosPerSecond,HardwareClockDiscontinuityCount,Svid,TimeOffsetNanos,State,ReceivedSvTimeNanos,ReceivedSvTimeUncertaintyNanos,Cn0DbHz,PseudorangeRateMetersPerSecond,PseudorangeRateUncertaintyMetersPerSecond,AccumulatedDeltaRangeState,AccumulatedDeltaRangeMeters,AccumulatedDeltaRangeUncertaintyMeters,CarrierFrequencyHz,CarrierCycles,CarrierPhase,CarrierPhaseUncertainty,MultipathIndicator,SnrInDb,ConstellationType,AgcDb,BasebandCn0DbHz,FullInterSignalBiasNanos,FullInterSignalBiasUncertaintyNanos,SatelliteInterSignalBiasNanos,SatelliteInterSignalBiasUncertaintyNanos,CodeType,ChipsetElapsedRealtimeNanos
# 
# UncalAccel,utcTimeMillis,elapsedRealtimeNanos,UncalAccelXMps2,UncalAccelYMps2,UncalAccelZMps2,BiasXMps2,BiasYMps2,BiasZMps2
# 
# Accel,utcTimeMillis,elapsedRealtimeNanos,AccelXMps2,AccelYMps2,AccelZMps2
# 
# UncalGyro,utcTimeMillis,elapsedRealtimeNanos,UncalGyroXRadPerSec,UncalGyroYRadPerSec,UncalGyroZRadPerSec,DriftXRadPerSec,DriftYRadPerSec,DriftZRadPerSec
# 
# Gyro,utcTimeMillis,elapsedRealtimeNanos,GyroXRadPerSec,GyroYRadPerSec,GyroZRadPerSec
# 
# UncalMag,utcTimeMillis,elapsedRealtimeNanos,UncalMagXMicroT,UncalMagYMicroT,UncalMagZMicroT,BiasXMicroT,BiasYMicroT,BiasZMicroT
# 
# Mag,utcTimeMillis,elapsedRealtimeNanos,MagXMicroT,MagYMicroT,MagZMicroT
# 
# OrientationDeg,utcTimeMillis,elapsedRealtimeNanos,yawDeg,rollDeg,pitchDeg
# 
# Fix,Provider,LatitudeDegrees,LongitudeDegrees,AltitudeMeters,SpeedMps,AccuracyMeters,BearingDegrees,UnixTimeMillis,SpeedAccuracyMps,BearingAccuracyDegrees,elapsedRealtimeNanos,VerticalAccuracyMeters
# 
# Nav,Svid,Type,Status,MessageId,Sub-messageId,Data(Bytes)
# 
# Status,UnixTimeMillis,SignalCount,SignalIndex,ConstellationType,Svid,CarrierFrequencyHz,Cn0DbHz,AzimuthDegrees,ElevationDegrees,UsedInFix,HasAlmanacData,HasEphemerisData,BasebandCn0DbHz
# 
UncalAccel,1676593893080,30949902668911,-4.5726843,1.6755741,17.798412,0.037048545,-0.031444572,0.0098014325
UncalAccel,1676593893089,30949911148240,-4.173083,1.4494523,16.947765,0.037048545,-0.031444572,0.0098014325
UncalMag,1676593893092,30949914602546,-181.8532,775.859,386.82538,-174.57417,771.0116,430.86337
UncalGyro,1676593893093,30949915384172,-0.73471814,-0.52366424,0.0852157,0.00072278245,-0.0013356609,-0.00032360601
UncalAccel,1676593893097,30949919634975,-3.7525442,1.4009976,15.790834,0.037048545,-0.031444572,0.0098014325
UncalGyro,1676593893101,30949923876094,-0.23869559,-0.7530441,0.08811731,0.00072278245,-0.0013356609,-0.00032360601
UncalMag,1676593893102,30949924591803,-182.756,776.5544,387.25238,-174.57417,771.0116,430.86337
UncalAccel,1676593893106,30949928116735,-3.3565319,1.1850454,14.744574,0.037048545,-0.031444572,0.0098014325
OrientationDeg,1676593893089,30949911148240,53.0,13.0,-9.0
OrientationDeg,1676593893097,30949919634975,53.0,12.0,-9.0
OrientationDeg,1676593893106,30949928116735,53.0,12.0,-9.0
Fix,GPS,37.4312954061,-122.1550226717,-8.117905325858919,0.19175526,2.9525788,92.89488,1676593892999,0.087601475,180.0,30949818269000,3.0
Raw,1676593892999,649043000000,,,-1360628461956706707,0.0,7.631243827980481,162.0,1.0,56,6,0.0,16431,433910928688826,11,44.05718994140625,445.24963335606003,0.15,16,269533.5727271134,340282346638528860000000000000000000000,1575420030,,,,0,,1,,40.457191467285156,0.320142130558394,1.0,0.320142130558394,1.0,C,30949818269000
Raw,1676593892999,649043000000,,,-1360628461956706707,0.0,7.631243827980481,162.0,1.0,56,11,0.0,16431,433910931458009,17,39.07317352294922,-100.46259912954355,0.15,16,-89167.80641568248,340282346638528860000000000000000000000,1575420030,,,,0,,1,,35.473175048828125,-0.20372681261465636,1.0,-0.20372681261465636,1.0,C,30949818269000
Raw,1676593892999,649043000000,,,-1360628461956706707,0.0,7.631243827980481,162.0,1.0,56,12,0.0,16431,433910930460962,11,44.13846969604492,-269.10001225832775,0.15,16,-186933.45206661295,340282346638528860000000000000000000000,1575420030,,,,0,,1,,40.53847122192383,-0.6984919076624261,1.0,-0.6984919076624261,1.0,C,30949818269000
Raw,1676593892999,649043000000,,,-1360628461956706707,0.0,7.631243827980481,162.0,1.0,56,19,0.0,16431,433910924471509,10,47.86835861206055,543.4008710522103,0.15,16,349490.8344893618,340282346638528860000000000000000000000,1575420030,,,,0,,1,,44.26836013793945,0.0,1.0,0.0,1.0,C,30949818269000
Raw,1676593892999,649043000000,,,-1360628461956706707,0.0,7.631243827980481,162.0,1.0,56,20,0.0,16431,433910921450086,18,38.74593734741211,-511.99054728570127,0.15,16,-335582.8950308532,340282346638528860000000000000000000000,1575420030,,,,0,,1,,35.145938873291016,0.0,1.0,0.0,1.0,C,30949818269000
Raw,1676593892999,649043000000,,,-1360628461956706707,0.0,7.631243827980481,162.0,1.0,56,24,0.0,16431,433910926206846,32,31.619613647460938,510.19511755853614,0.6897570939072524,16,314171.83434082847,340282346638528860000000000000000000000,1575420030,,,,0,,1,,28.01961326599121,-0.20372681261465636,1.0,-0.20372681261465636,1.0,C,30949818269000
Raw,1676593892999,649043000000,,,-1360628461956706707,0.0,7.631243827980481,162.0,1.0,56,25,0.0,16431,433910925022188,14,41.43585968017578,-510.5493024467212,0.15,16,-336512.61811672826,340282346638528860000000000000000000000,1575420030,,,,0,,1,,37.83586120605469,-2.0372682255564105,1.0,-2.0372682255564105,1.0,C,30949818269000
Raw,1676593892999,649043000000,,,-1360628461956706707,0.0,7.631243827980481,162.0,1.0,56,29,0.0,16419,433910917049192,12,43.30389404296875,-463.8177215872306,0.15,16,-167252.23986076054,340282346638528860000000000000000000000,1575420030,,,,0,,1,,39.703895568847656,-0.6984919076624261,1.0,-0.6984919076624261,1.0,C,30949818269000
Raw,1676593892999,649043000000,,,-1360628461956706707,0.0,7.631243827980481,162.0,1.0,56,6,0.0,81921,433910928689347,6,33.634281158447266,445.73673982468404,0.599606333712503,16,270758.30354672973,340282346638528860000000000000000000000,1176450050,,,,0,,1,,30.03428077697754,1.9208527336454408,1.3916991526734956,1.9208527336454408,1.0,Q,30949818269000
Raw,1676593892999,649043000000,,,-1360628461956706707,0.0,7.631243827980481,162.0,1.0,56,11,0.0,81921,433910931458449,11,33.722320556640625,-100.57916965146569,0.5961453667602883,16,-89740.97007257519,340282346638528860000000000000000000000,1176450050,,,,0,,1,,30.1223201751709,0.0,1.3916991526734956,0.0,1.0,Q,30949818269000
Raw,1676593892999,649043000000,,,-1360628461956706707,0.0,7.631243827980481,162.0,1.0,56,24,0.0,81921,433910926207346,9,36.29752731323242,509.3341606243134,0.15,16,314139.6111523103,340282346638528860000000000000000000000,1176450050,,,,0,,1,,32.69752883911133,3.5215636101095664,1.3916991526734956,3.5215636101095664,1.0,Q,30949818269000
Raw,1676593892999,649043000000,,,-1360628461956706707,0.0,7.631243827980481,162.0,1.0,56,25,0.0,81921,433910925022706,7,42.33228302001953,-510.5964044016357,0.15,16,-338039.7048678224,340282346638528860000000000000000000000,1176450050,,,,0,,1,,38.73228454589844,1.0186341127782053,1.3916991526734956,1.0186341127782053,1.0,Q,30949818269000
Raw,1676593892999,649043000000,,,-1360628461956706707,0.0,7.631243827980481,162.0,1.0,56,14,0.0,32995,12692932405535,33,45.07622528076172,536.0137371780868,0.15,16,323195.5936838715,340282346638528860000000000000000000000,1598062460,,,,0,,3,,41.476226806640625,52.1540641784668,2.0000000474974513,52.1540641784668,2.0000000474974513,C,30949818269000
Raw,1676593892999,649043000000,,,-1360628461956706707,0.0,7.631243827980481,162.0,1.0,56,18,0.0,32995,12692927768497,43,36.499549865722656,-509.37216256333636,0.15,16,-346610.45845576155,340282346638528860000000000000000000000,1600312450,,,,0,,3,,32.89955139160156,52.1540641784668,2.0000000474974513,52.1540641784668,2.0000000474974513,C,30949818269000
Raw,1676593892999,649043000000,,,-1360628461956706707,0.0,7.631243827980481,162.0,1.0,56,16,0.0,32867,12692922939037,33,45.84782409667969,-712.342495667303,0.15,16,-464325.92001160193,340282346638528860000000000000000000000,1601437440,,,,0,,3,,42.247825622558594,52.1540641784668,2.0000000474974513,52.1540641784668,2.0000000474974513,C,30949818269000
Raw,1676593892999,649043000000,,,-1360628461956706707,0.0,7.631243827980481,162.0,1.0,56,15,0.0,32995,12692934954706,33,43.41615295410156,-220.8677467556813,0.15,16,-169148.22424036928,340282346638528860000000000000000000000,1602000000,,,,0,,3,,39.81615447998047,52.1540641784668,2.0000000474974513,52.1540641784668,2.0000000474974513,C,30949818269000
Raw,1676593892999,649043000000,,,-1360628461956706707,0.0,7.631243827980481,162.0,1.0,56,24,0.0,32995,12692928867824,33,43.313777923583984,662.237194683989,0.15,16,421655.0756548946,340282346638528860000000000000000000000,1603124990,,,,0,,3,,39.71377944946289,52.1540641784668,2.0000000474974513,52.1540641784668,2.0000000474974513,C,30949818269000
Raw,1676593892999,649043000000,,,-1360628461956706707,0.0,7.631243827980481,162.0,1.0,56,17,0.0,32995,12692935810682,33,40.41789627075195,59.54796485155646,0.15,16,13886.441270795563,340282346638528860000000000000000000000,1604249980,,,,0,,3,,36.81789779663086,52.1540641784668,2.0000000474974513,52.1540641784668,2.0000000474974513,C,30949818269000
Raw,1676593892999,649043000000,,,-1360628461956706707,0.0,7.631243827980481,162.0,1.0,56,2,0.0,85026,433910921887172,13,42.77344512939453,96.71639183838232,0.15,16,52007.452806498375,340282346638528860000000000000000000000,1575420030,,,,0,,6,,39.17344665527344,-5.878973752260207,1.5000000237487257,-5.878973752260207,1.5000000237487257,C,30949818269000
Raw,1676593892999,649043000000,,,-1360628461956706707,0.0,7.631243827980481,162.0,1.0,56,11,0.0,85026,433910910375308,20,37.41193389892578,566.8313670256641,0.15,16,364634.1294291822,340282346638528860000000000000000000000,1575420030,,,,0,,6,,33.81193542480469,-5.878973752260207,1.5000000237487257,-5.878973752260207,1.5000000237487257,C,30949818269000
Raw,1676593892999,649043000000,,,-1360628461956706707,0.0,7.631243827980481,162.0,1.0,56,25,0.0,85026,433910912400631,12,43.84996032714844,461.5778225445515,0.15,16,292559.1813674231,340282346638528860000000000000000000000,1575420030,,,,0,,6,,40.249961853027344,-5.878973752260207,1.5000000237487257,-5.878973752260207,1.5000000237487257,C,30949818269000
Raw,1676593892999,649043000000,,,-1360628461956706707,0.0,7.631243827980481,162.0,1.0,56,30,0.0,85026,433910915199171,14,41.276702880859375,-335.76676276257535,0.15,16,-221519.12438326972,340282346638528860000000000000000000000,1575420030,,,,0,,6,,37.67670440673828,-5.878973752260207,1.5000000237487257,-5.878973752260207,1.5000000237487257,C,30949818269000
Raw,1676593892999,649043000000,,,-1360628461956706707,0.0,7.631243827980481,162.0,1.0,56,34,0.0,85026,433910919009975,30,32.42646408081055,-310.0518219757671,0.6528989141967698,16,-213992.60886860627,340282346638528860000000000000000000000,1575420030,,,,0,,6,,28.82646369934082,-5.878973752260207,1.5000000237487257,-5.878973752260207,1.5000000237487257,C,30949818269000
Raw,1676593892999,649043000000,,,-1360628461956706707,0.0,7.631243827980481,162.0,1.0,56,36,0.0,85026,433910920760740,13,42.735809326171875,220.1930334051275,0.15,16,128000.83703277232,340282346638528860000000000000000000000,1575420030,,,,0,,6,,39.13581085205078,-5.878973752260207,1.5000000237487257,-5.878973752260207,1.5000000237487257,C,30949818269000
Raw,1676593892999,649043000000,,,-1360628461956706707,0.0,7.631243827980481,162.0,1.0,56,2,0.0,84003,433910921887698,24,30.421371459960938,96.78315085009638,0.7464613149759929,16,51936.334822899764,340282346638528860000000000000000000000,1176450050,,,,0,,6,,26.82137107849121,-4.216632805764675,1.8916991764222213,-4.216632805764675,1.5000000237487257,Q,30949818269000
Raw,1676593892999,649043000000,,,-1360628461956706707,0.0,7.631243827980481,162.0,1.0,56,11,0.0,84003,433910910375815,21,28.800676345825195,566.9318080250368,0.8172714127381115,16,367471.8123282866,340282346638528860000000000000000000000,1176450050,,,,0,,6,,25.20067596435547,4.279776476323602,1.8916991764222213,4.279776476323602,1.5000000237487257,Q,30949818269000
Raw,1676593892999,649043000000,,,-1360628461956706707,0.0,7.631243827980481,162.0,1.0,56,25,0.0,84003,433910912401150,8,35.76521682739258,461.37302106330594,0.5044481483844654,16,293046.0276806466,340282346638528860000000000000000000000,1176450050,,,,0,,6,,32.165218353271484,-8.649541996419428,1.8916991764222213,-8.649541996419428,1.5000000237487257,Q,30949818269000
Raw,1676593892999,649043000000,,,-1360628461956706707,0.0,7.631243827980481,162.0,1.0,56,30,0.0,84003,433910915199671,13,32.387542724609375,-335.7429391254659,0.6568416952511567,16,-221984.89549962254,340282346638528860000000000000000000000,1176450050,,,,0,,6,,28.78754425048828,-8.2801328971982,1.8916991764222213,-8.2801328971982,1.5000000237487257,Q,30949818269000
Raw,1676593892999,649043000000,,,-1360628461956706707,0.0,7.631243827980481,162.0,1.0,56,34,0.0,84003,433910919010431,7,39.758731842041016,-310.1036613921383,0.15,16,-214748.07882585103,340282346638528860000000000000000000000,1176450050,,,,0,,6,,36.15873336791992,-9.942473843693731,1.8916991764222213,-9.942473843693731,1.5000000237487257,Q,30949818269000
Raw,1676593892999,649043000000,,,-1360628461956706707,0.0,7.631243827980481,162.0,1.0,56,36,0.0,84003,433910920761231,9,38.04408264160156,220.0251091418396,0.15,16,128205.71121737272,340282346638528860000000000000000000000,1176450050,,,,0,,6,,34.44408416748047,-10.865996591746804,1.8916991764222213,-10.865996591746804,1.5000000237487257,Q,30949818269000
UncalGyro,1676593893110,30949932352910,0.28099802,-0.8912524,0.0888809,0.00072278245,-0.0013356609,-0.00032360601
UncalMag,1676593893112,30949934602707,-183.19519,776.1762,386.6912,-174.57417,771.0116,430.86337
UncalAccel,1676593893114,30949936584833,-2.8695927,0.92662054,13.750954,0.037048545,-0.031444572,0.0098014325
OrientationDeg,1676593893114,30949936584833,53.0,11.0,-9.0
UncalGyro,1676593893119,30949940837803,0.7504479,-0.9611965,0.11453723,0.00072278245,-0.0013356609,-0.00032360601
UncalMag,1676593893122,30949944602584,-182.9146,775.6028,387.63058,-174.57417,771.0116,430.86337
UncalAccel,1676593893123,30949945074121,-2.3754747,0.69092757,13.125829,0.037048545,-0.031444572,0.0098014325
OrientationDeg,1676593893123,30949945074121,53.0,11.0,-9.0
Fix,FLP,37.4313054000,-122.1550148000,-16.5,0.32783416,4.795,49.704315,1676593893034,,,30949856024557,1.6719326
UncalGyro,1676593893127,30949949310621,1.086882,-0.9663888,0.17211129,0.00072278245,-0.0013356609,-0.00032360601
UncalAccel,1676593893131,30949953553368,-2.0835502,0.7082755,12.416357,0.037048545,-0.031444572,0.0098014325
UncalMag,1676593893132,30949954591923,-183.21959,775.859,387.5818,-174.57417,771.0116,430.86337
OrientationDeg,1676593893131,30949953553368,53.0,11.0,-10.0
UncalGyro,1676593893135,30949957796074,1.2883148,-0.93615097,0.22296582,0.00072278245,-0.0013356609,-0.00032360601
UncalAccel,1676593893140,30949962041129,-2.009971,0.86859465,11.461022,0.037048545,-0.031444572,0.0098014325
OrientationDeg,1676593893140,30949962041129,53.0,10.0,-11.0
UncalMag,1676593893142,30949964602501,-184.6104,775.2978,387.1182,-174.57417,771.0116,430.86337
UncalGyro,1676593893144,30949966279758,1.3736832,-0.92087936,0.23060162,0.00072278245,-0.0013356609,-0.00032360601
UncalAccel,1676593893148,30949970515902,-2.0171494,0.9182457,10.420743,0.037048545,-0.031444572,0.0098014325
OrientationDeg,1676593893148,30949970515902,53.0,10.0,-11.0
UncalMag,1676593893152,30949974602663,-184.8544,774.7,387.8258,-174.57417,771.0116,430.86337
UncalGyro,1676593893152,30949974762463,1.3639094,-0.9390526,0.19394971,0.00072278245,-0.0013356609,-0.00032360601
UncalAccel,1676593893157,30949979002962,-1.9034904,0.80997044,9.438489,0.037048545,-0.031444572,0.0098014325
OrientationDeg,1676593893157,30949979002962,53.0,9.0,-12.0
UncalGyro,1676593893161,30949983251222,1.2866349,-0.9810496,0.13545936,0.00072278245,-0.0013356609,-0.00032360601
UncalMag,1676593893162,30949984602378,-185.4278,773.98016,387.30118,-174.57417,771.0116,430.86337
UncalAccel,1676593893165,30949987482229,-1.6336997,0.6693921,8.6345005,0.037048545,-0.031444572,0.0098014325
OrientationDeg,1676593893165,30949987482229,53.0,9.0,-12.0
UncalGyro,1676593893169,30949991723817,1.1687379,-1.0181596,0.06811147,0.00072278245,-0.0013356609,-0.00032360601
UncalMag,1676593893172,30949994602377,-185.5376,773.8094,387.5086,-174.57417,771.0116,430.86337
UncalAccel,1676593893173,30949995961874,-1.288535,0.552742,7.9686975,0.037048545,-0.031444572,0.0098014325
OrientationDeg,1676593893173,30949995961874,53.0,8.0,-13.0
UncalGyro,1676593893178,30950000205312,1.0348058,-1.0329732,-0.00061086525,0.00072278245,-0.0013356609,-0.00032360601
UncalAccel,1676593893182,30950004445160,-0.9493524,0.51266223,7.4129643,0.037048545,-0.031444572,0.0098014325
UncalMag,1676593893182,30950004601684,-186.172,773.6996,387.25238,-174.57417,771.0116,430.86337
OrientationDeg,1676593893182,30950004445160,53.0,8.0,-13.0
UncalGyro,1676593893186,30950008686695,0.9077458,-1.0154108,-0.077121735,0.00072278245,-0.0013356609,-0.00032360601
UncalAccel,1676593893190,30950012922759,-0.69332033,0.4863412,7.042077,0.037048545,-0.031444572,0.0098014325
OrientationDeg,1676593893190,30950012922759,54.0,7.0,-14.0
UncalMag,1676593893192,30950014591796,-186.8308,773.0652,387.0084,-174.57417,771.0116,430.86337
UncalGyro,1676593893195,30950017165586,0.79336125,-0.9494373,-0.15897769,0.00072278245,-0.0013356609,-0.00032360601
UncalAccel,1676593893199,30950021407967,-0.5096712,0.4636094,6.8428745,0.037048545,-0.031444572,0.0098014325
OrientationDeg,1676593893199,30950021407967,54.0,7.0,-14.0
UncalMag,1676593893202,30950024602456,-187.06259,772.80896,387.3134,-174.57417,771.0116,430.86337
UncalGyro,1676593893203,30950025652952,0.68936145,-0.8384125,-0.24358252,0.00072278245,-0.0013356609,-0.00032360601
UncalAccel,1676593893207,30950029888954,-0.4319045,0.46959144,6.681359,0.037048545,-0.031444572,0.0098014325
OrientationDeg,1676593893207,30950029888954,54.0,7.0,-14.0
UncalGyro,1676593893212,30950034129860,0.5910121,-0.7118107,-0.33353242,0.00072278245,-0.0013356609,-0.00032360601
UncalMag,1676593893212,30950034588783,-187.6848,772.7968,387.4476,-174.57417,771.0116,430.86337
UncalAccel,1676593893216,30950038368914,-0.46899325,0.503091,6.518647,0.037048545,-0.031444572,0.0098014325
OrientationDeg,1676593893216,30950038368914,54.0,6.0,-15.0
UncalGyro,1676593893220,30950042609748,0.50335294,-0.59391373,-0.4250095,0.00072278245,-0.0013356609,-0.00032360601
UncalMag,1676593893222,30950044602495,-188.0752,771.6866,388.15518,-174.57417,771.0116,430.86337
UncalAccel,1676593893224,30950046840706,-0.5778667,0.51206404,6.341578,0.037048545,-0.031444572,0.0098014325
OrientationDeg,1676593893224,30950046840706,54.0,6.0,-15.0
UncalGyro,1676593893229,30950051090369,0.4288274,-0.50747633,-0.50900346,0.00072278245,-0.0013356609,-0.00032360601
UncalMag,1676593893232,30950054595008,-187.941,772.138,388.6188,-174.57417,771.0116,430.86337
UncalAccel,1676593893233,30950055323065,-0.7106683,0.46839502,6.202196,0.037048545,-0.031444572,0.0098014325
OrientationDeg,1676593893233,30950055323065,55.0,6.0,-15.0
UncalGyro,1676593893237,30950059576340,0.36896262,-0.4512767,-0.57344973,0.00072278245,-0.0013356609,-0.00032360601
UncalAccel,1676593893241,30950063812973,-0.85842514,0.40079778,6.1824555,0.037048545,-0.031444572,0.0098014325
UncalMag,1676593893242,30950064596594,-188.5998,771.4792,387.6428,-174.57417,771.0116,430.86337
OrientationDeg,1676593893241,30950063812973,55.0,6.0,-15.0
UncalGyro,1676593893247,30950068056930,0.32528573,-0.41813725,-0.61666846,0.00072278245,-0.0013356609,-0.00032360601
UncalAccel,1676593893250,30950072293888,-1.0157533,0.35174492,6.172286,0.037048545,-0.031444572,0.0098014325
OrientationDeg,1676593893250,30950072293888,55.0,6.0,-15.0
UncalMag,1676593893252,30950074602574,-188.5266,771.1498,388.15518,-174.57417,771.0116,430.86337
UncalGyro,1676593893254,30950076530797,0.30024028,-0.40515637,-0.6421721,0.00072278245,-0.0013356609,-0.00032360601
UncalAccel,1676593893258,30950080763910,-1.1210374,0.33200413,6.1621165,0.037048545,-0.031444572,0.0098014325
OrientationDeg,1676593893258,30950080763910,56.0,6.0,-15.0
UncalMag,1676593893262,30950084602411,-188.185,771.6012,388.3748,-174.57417,771.0116,430.86337
UncalGyro,1676593893263,30950085016086,0.28878653,-0.398895,-0.65286225,0.00072278245,-0.0013356609,-0.00032360601
UncalAccel,1676593893267,30950089247511,-1.1790633,0.2739782,6.3194447,0.037048545,-0.031444572,0.0098014325
OrientationDeg,1676593893267,30950089247511,56.0,6.0,-15.0
UncalGyro,1676593893271,30950093501661,0.28893927,-0.38224894,-0.65209866,0.00072278245,-0.0013356609,-0.00032360601
UncalMag,1676593893272,30950094599887,-188.6608,770.5398,388.387,-174.57417,771.0116,430.86337
UncalAccel,1676593893275,30950097737847,-1.2089736,0.28773692,6.476773,0.037048545,-0.031444572,0.0098014325
OrientationDeg,1676593893275,30950097737847,56.0,6.0,-15.0
UncalGyro,1676593893279,30950101982200,0.29031372,-0.36819902,-0.64934975,0.00072278245,-0.0013356609,-0.00032360601
UncalMag,1676593893282,30950104602369,-188.6608,770.552,388.509,-174.57417,771.0116,430.86337
UncalAccel,1676593893284,30950106219291,-1.1670992,0.27816564,6.6155562,0.037048545,-0.031444572,0.0098014325
OrientationDeg,1676593893284,30950106219291,57.0,5.0,-15.0
UncalGyro,1676593893288,30950110462079,0.28115073,-0.35934147,-0.64675355,0.00072278245,-0.0013356609,-0.00032360601
UncalMag,1676593893292,30950114602327,-188.6608,770.5642,389.119,-174.57417,771.0116,430.86337
UncalAccel,1676593893292,30950114700533,-1.0588241,0.19680966,6.9170523,0.037048545,-0.031444572,0.0098014325
OrientationDeg,1676593893292,30950114700533,57.0,5.0,-16.0
UncalGyro,1676593893296,30950118942007,0.24724771,-0.33765575,-0.6444628,0.00072278245,-0.0013356609,-0.00032360601
UncalAccel,1676593893301,30950123181407,-0.9415757,0.11066805,7.314859,0.037048545,-0.031444572,0.0098014325
UncalMag,1676593893302,30950124591747,-189.09999,770.2104,389.15558,-174.57417,771.0116,430.86337
OrientationDeg,1676593893301,30950123181407,57.0,5.0,-16.0
UncalGyro,1676593893305,30950127423055,0.18692477,-0.3109304,-0.64721173,0.00072278245,-0.0013356609,-0.00032360601
UncalAccel,1676593893309,30950131662863,-0.8386843,0.06759724,7.62114,0.037048545,-0.031444572,0.0098014325
OrientationDeg,1676593893309,30950131662863,58.0,5.0,-16.0
UncalMag,1676593893312,30950134602488,-189.12439,769.94196,389.0946,-174.57417,771.0116,430.86337
UncalGyro,1676593893313,30950135904256,0.10170906,-0.29733866,-0.6649268,0.00072278245,-0.0013356609,-0.00032360601
UncalAccel,1676593893318,30950140143494,-0.73579293,0.07238288,7.960323,0.037048545,-0.031444572,0.0098014325
OrientationDeg,1676593893318,30950140143494,58.0,5.0,-16.0
UncalGyro,1676593893322,30950144383351,-0.0018325958,-0.301462,-0.70509124,0.00072278245,-0.0013356609,-0.00032360601
UncalMag,1676593893322,30950144590484,-189.23419,769.8322,388.3504,-174.57417,771.0116,430.86337
UncalAccel,1676593893326,30950148625670,-0.76689965,0.023928227,8.275578,0.037048545,-0.031444572,0.0098014325
OrientationDeg,1676593893326,30950148625670,58.0,5.0,-15.0
UncalGyro,1676593893330,30950152867959,-0.11652254,-0.3297145,-0.7690793,0.00072278245,-0.0013356609,-0.00032360601
UncalMag,1676593893332,30950154586903,-189.649,769.9054,388.1308,-174.57417,771.0116,430.86337
UncalAccel,1676593893335,30950157107084,-0.8117651,0.0041874396,8.547761,0.037048545,-0.031444572,0.0098014325
OrientationDeg,1676593893336,30950157107084,59.0,5.0,-15.0
UncalGyro,1676593893339,30950161348174,-0.22617286,-0.36835176,-0.8544478,0.00072278245,-0.0013356609,-0.00032360601
UncalMag,1676593893342,30950164608468,-190.18579,769.5516,388.3016,-174.57417,771.0116,430.86337
UncalAccel,1676593893343,30950165587430,-0.87158567,0.0077766734,8.8905325,0.037048545,-0.031444572,0.0098014325
OrientationDeg,1676593893343,30950165587430,59.0,5.0,-15.0
UncalGyro,1676593893347,30950169829068,-0.32330042,-0.40439278,-0.95829487,0.00072278245,-0.0013356609,-0.00032360601
UncalAccel,1676593893352,30950174069170,-0.9846465,0.020937199,9.229117,0.037048545,-0.031444572,0.0098014325
OrientationDeg,1676593893352,30950174069170,60.0,5.0,-15.0
UncalMag,1676593893352,30950174602567,-190.2834,769.63696,388.082,-174.57417,771.0116,430.86337
UncalGyro,1676593893356,30950178308306,-0.3979787,-0.4202753,-1.0662653,0.00072278245,-0.0013356609,-0.00032360601
UncalAccel,1676593893360,30950182537675,-1.1647065,0.09092726,9.613763,0.037048545,-0.031444572,0.0098014325
OrientationDeg,1676593893360,30950182537675,60.0,5.0,-15.0
UncalMag,1676593893362,30950184602485,-190.2834,769.63696,388.082,-174.57417,771.0116,430.86337
UncalGyro,1676593893364,30950186791734,-0.43860126,-0.40591997,-1.1695015,0.00072278245,-0.0013356609,-0.00032360601
UncalAccel,1676593893369,30950191032080,-1.3627125,0.25722843,9.72144,0.037048545,-0.031444572,0.0098014325
OrientationDeg,1676593893369,30950191032080,61.0,5.0,-14.0
UncalMag,1676593893372,30950194602484,-190.2712,769.8932,388.26498,-174.57417,771.0116,430.86337
UncalGyro,1676593893373,30950195275915,-0.43554693,-0.4025602,-1.2620476,0.00072278245,-0.0013356609,-0.00032360601
UncalAccel,1676593893377,30950199511775,-1.4344971,0.38644084,9.629914,0.037048545,-0.031444572,0.0098014325
OrientationDeg,1676593893377,30950199511775,62.0,5.0,-14.0
UncalGyro,1676593893381,30950203750879,-0.39660427,-0.4363105,-1.3289373,0.00072278245,-0.0013356609,-0.00032360601
UncalMag,1676593893382,30950204591904,-190.2834,769.759,389.4484,-174.57417,771.0116,430.86337
UncalAccel,1676593893385,30950207994216,-1.3806586,0.38703907,9.510872,0.037048545,-0.031444572,0.0098014325
OrientationDeg,1676593893385,30950207994216,62.0,5.0,-14.0
UncalGyro,1676593893390,30950212236413,-0.3387248,-0.50625455,-1.358717,0.00072278245,-0.0013356609,-0.00032360601
UncalMag,1676593893392,30950214602320,-190.2834,769.759,389.4484,-174.57417,771.0116,430.86337
UncalAccel,1676593893394,30950216475997,-1.2795619,0.3924229,9.391829,0.037048545,-0.031444572,0.0098014325
OrientationDeg,1676593893394,30950216475997,63.0,5.0,-13.0
UncalGyro,1676593893398,30950220721012,-0.27580565,-0.5991061,-1.3556627,0.00072278245,-0.0013356609,-0.00032360601
UncalMag,1676593893402,30950224602319,-190.4298,769.1246,388.814,-174.57417,771.0116,430.86337
UncalAccel,1676593893402,30950224966902,-1.125823,0.45104706,9.287741,0.037048545,-0.031444572,0.0098014325
OrientationDeg,1676593893403,30950224966902,64.0,5.0,-13.0
UncalGyro,1676593893407,30950229187076,-0.22464569,-0.6916522,-1.3284792,0.00072278245,-0.0013356609,-0.00032360601
UncalAccel,1676593893411,30950233437075,-0.9314062,0.61016977,9.369097,0.037048545,-0.031444572,0.0098014325
UncalMag,1676593893412,30950234592064,-190.9422,769.30756,389.47278,-174.57417,771.0116,430.86337
OrientationDeg,1676593893411,30950233437075,64.0,4.0,-13.0
UncalGyro,1676593893415,30950237675518,-0.1956296,-0.7510588,-1.2866349,0.00072278245,-0.0013356609,-0.00032360601
UncalAccel,1676593893419,30950241921602,-0.8279166,0.88414794,9.406784,0.037048545,-0.031444572,0.0098014325
OrientationDeg,1676593893419,30950241921602,65.0,4.0,-13.0
UncalMag,1676593893422,30950244602399,-192.1866,769.3686,389.3996,-174.57417,771.0116,430.86337
UncalGyro,1676593893424,30950246161003,-0.18509217,-0.7689266,-1.244027,0.00072278245,-0.0013356609,-0.00032360601
UncalAccel,1676593893428,30950250402304,-0.8243274,1.1856437,9.367303,0.037048545,-0.031444572,0.0098014325
OrientationDeg,1676593893428,30950250402304,65.0,4.0,-13.0
UncalMag,1676593893432,30950254602520,-191.5766,769.2344,390.32678,-174.57417,771.0116,430.86337
UncalGyro,1676593893432,30950254649233,-0.19226983,-0.75609845,-1.1991285,0.00072278245,-0.0013356609,-0.00032360601
UncalAccel,1676593893436,30950258871084,-0.8488538,1.439881,9.28475,0.037048545,-0.031444572,0.0098014325
OrientationDeg,1676593893436,30950258871084,66.0,4.0,-13.0
UncalGyro,1676593893441,30950263116425,-0.21563543,-0.7254025,-1.155299,0.00072278245,-0.0013356609,-0.00032360601
UncalMag,1676593893442,30950264591614,-192.3086,769.1978,389.607,-174.57417,771.0116,430.86337
UncalAccel,1676593893445,30950267359710,-0.8967103,1.6313069,9.18784,0.037048545,-0.031444572,0.0098014325
OrientationDeg,1676593893445,30950267359710,67.0,3.0,-12.0
UncalGyro,1676593893449,30950271605164,-0.2509129,-0.6995934,-1.1096367,0.00072278245,-0.0013356609,-0.00032360601
UncalMag,1676593893452,30950274602519,-192.22319,768.89276,390.8636,-174.57417,771.0116,430.86337
UncalAccel,1676593893453,30950275842010,-0.991825,1.80359,8.985647,0.037048545,-0.031444572,0.0098014325
OrientationDeg,1676593893453,30950275842010,67.0,3.0,-12.0
UncalGyro,1676593893458,30950280085815,-0.2948952,-0.68294734,-1.0719157,0.00072278245,-0.0013356609,-0.00032360601
UncalAccel,1676593893462,30950284324879,-1.0875379,1.9561325,8.850452,0.037048545,-0.031444572,0.0098014325
UncalMag,1676593893462,30950284612161,-192.7722,768.417,389.78998,-174.57417,771.0116,430.86337
OrientationDeg,1676593893462,30950284324879,68.0,3.0,-12.0
UncalGyro,1676593893466,30950288567961,-0.34513888,-0.66416323,-1.047023,0.00072278245,-0.0013356609,-0.00032360601
UncalAccel,1676593893470,30950292805346,-1.1312069,2.1188445,8.873184,0.037048545,-0.031444572,0.0098014325
OrientationDeg,1676593893470,30950292805346,68.0,3.0,-12.0
UncalMag,1676593893472,30950294602395,-193.187,768.4902,389.8266,-174.57417,771.0116,430.86337
UncalGyro,1676593893475,30950297047270,-0.4017966,-0.63499445,-1.035722,0.00072278245,-0.0013356609,-0.00032360601
UncalAccel,1676593893479,30950301283832,-1.189831,2.2671995,8.910274,0.037048545,-0.031444572,0.0098014325
OrientationDeg,1676593893479,30950301283832,69.0,3.0,-12.0
UncalMag,1676593893482,30950304602516,-193.4798,768.8562,390.27798,-174.57417,771.0116,430.86337
UncalGyro,1676593893483,30950305517932,-0.45921794,-0.5804747,-1.0366384,0.00072278245,-0.0013356609,-0.00032360601
UncalAccel,1676593893487,30950309767972,-1.2933207,2.3856442,9.190832,0.037048545,-0.031444572,0.0098014325
OrientationDeg,1676593893487,30950309767972,69.0,2.0,-11.0
UncalGyro,1676593893492,30950314006975,-0.5166393,-0.45631635,-1.0387764,0.00072278245,-0.0013356609,-0.00032360601
UncalMag,1676593893492,30950314591692,-193.6872,768.8196,389.546,-174.57417,771.0116,430.86337
UncalAccel,1676593893496,30950318241268,-1.4596218,2.5322046,9.580264,0.037048545,-0.031444572,0.0098014325
OrientationDeg,1676593893496,30950318241268,70.0,2.0,-11.0
UncalGyro,1676593893500,30950322491135,-0.5676465,-0.2666427,-1.0421361,0.00072278245,-0.0013356609,-0.00032360601
UncalMag,1676593893502,30950324602393,-193.9922,768.9294,390.3146,-174.57417,771.0116,430.86337
UncalAccel,1676593893504,30950326730740,-1.6528423,2.7128627,9.707084,0.037048545,-0.031444572,0.0098014325
OrientationDeg,1676593893504,30950326730740,70.0,2.0,-11.0
UncalGyro,1676593893508,30950330974076,-0.59895337,-0.07360926,-1.0419834,0.00072278245,-0.0013356609,-0.00032360601
UncalMag,1676593893512,30950334602433,-193.98,769.1856,390.1316,-174.57417,771.0116,430.86337
UncalAccel,1676593893513,30950335208400,-1.8346968,2.784049,9.710672,0.037048545,-0.031444572,0.0098014325
OrientationDeg,1676593893513,30950335208400,71.0,3.0,-11.0
UncalGyro,1676593893517,30950339449631,-0.6114761,0.08323039,-1.0209086,0.00072278245,-0.0013356609,-0.00032360601
UncalAccel,1676593893521,30950343677871,-1.9501505,2.7445676,9.829117,0.037048545,-0.031444572,0.0098014325
OrientationDeg,1676593893521,30950343677871,71.0,3.0,-10.0
UncalMag,1676593893522,30950344591649,-193.8702,769.1856,390.1194,-174.57417,771.0116,430.86337
UncalGyro,1676593893525,30950347936629,-0.61361414,0.19792034,-0.9628763,0.00072278245,-0.0013356609,-0.00032360601
UncalAccel,1676593893530,30950352174523,-2.0422742,2.6333013,10.024731,0.037048545,-0.031444572,0.0098014325
OrientationDeg,1676593893530,30950352174523,72.0,3.0,-10.0
UncalMag,1676593893532,30950354612238,-193.01619,769.4784,390.6562,-174.57417,771.0116,430.86337
UncalGyro,1676593893534,30950356420893,-0.6114761,0.26633725,-0.8689558,0.00072278245,-0.0013356609,-0.00032360601
UncalAccel,1676593893538,30950360655186,-2.1714866,2.5268207,10.143773,0.037048545,-0.031444572,0.0098014325
OrientationDeg,1676593893538,30950360655186,72.0,3.0,-10.0
UncalMag,1676593893542,30950364592584,-193.3578,769.088,389.363,-174.57417,771.0116,430.86337
UncalGyro,1676593893542,30950364897607,-0.602924,0.28008172,-0.75411314,0.00072278245,-0.0013356609,-0.00032360601
UncalAccel,1676593893547,30950369139702,-2.2618155,2.5172493,10.105488,0.037048545,-0.031444572,0.0098014325
OrientationDeg,1676593893547,30950369139702,72.0,3.0,-9.0
UncalGyro,1676593893551,30950373378441,-0.58123827,0.22785273,-0.6374379,0.00072278245,-0.0013356609,-0.00032360601
UncalMag,1676593893552,30950374602389,-193.1382,769.30756,390.6196,-174.57417,771.0116,430.86337
UncalAccel,1676593893555,30950377616915,-2.2857437,2.5022943,10.08156,0.037048545,-0.031444572,0.0098014325
OrientationDeg,1676593893555,30950377616915,73.0,4.0,-9.0
UncalGyro,1676593893559,30950381854137,-0.5545129,0.13332134,-0.52732944,0.00072278245,-0.0013356609,-0.00032360601
UncalMag,1676593893562,30950384602307,-193.33339,769.4662,390.5464,-174.57417,771.0116,430.86337
UncalAccel,1676593893564,30950386099062,-2.295315,2.440081,10.124631,0.037048545,-0.031444572,0.0098014325
OrientationDeg,1676593893564,30950386099062,73.0,4.0,-9.0
UncalGyro,1676593893568,30950390339845,-0.53038377,0.026572637,-0.43172902,0.00072278245,-0.0013356609,-0.00032360601
UncalAccel,1676593893572,30950394578054,-2.3234308,2.3874388,10.0576315,0.037048545,-0.031444572,0.0098014325
OrientationDeg,1676593893572,30950394578054,73.0,4.0,-8.0
UncalMag,1676593893572,30950394593802,-193.2236,769.5516,390.0706,-174.57417,771.0116,430.86337
UncalGyro,1676593893576,30950398821930,-0.50900346,-0.08093964,-0.35979962,0.00072278245,-0.0013356609,-0.00032360601
UncalAccel,1676593893581,30950403061614,-2.3174486,2.4065814,9.905089,0.037048545,-0.031444572,0.0098014325
UncalMag,1676593893582,30950404591726,-193.3212,769.7224,390.1194,-174.57417,771.0116,430.86337
OrientationDeg,1676593893581,30950403061614,73.0,4.0,-8.0
UncalGyro,1676593893585,30950407304117,-0.49189925,-0.17363845,-0.31749722,0.00072278245,-0.0013356609,-0.00032360601
UncalAccel,1676593893589,30950411542968,-2.2498515,2.46042,9.776475,0.037048545,-0.031444572,0.0098014325
OrientationDeg,1676593893589,30950411542968,73.0,4.0,-8.0
UncalMag,1676593893592,30950414602223,-193.28459,770.308,389.4118,-174.57417,771.0116,430.86337
UncalGyro,1676593893593,30950415782765,-0.49373183,-0.23884831,-0.30405816,0.00072278245,-0.0013356609,-0.00032360601
UncalAccel,1676593893598,30950420013793,-2.1445673,2.4993033,9.734002,0.037048545,-0.031444572,0.0098014325
OrientationDeg,1676593893598,30950420013793,73.0,3.0,-8.0
UncalGyro,1676593893602,30950424270710,-0.52519137,-0.26358834,-0.3136793,0.00072278245,-0.0013356609,-0.00032360601
UncalMag,1676593893602,30950424591765,-193.7116,770.1372,389.8632,-174.57417,771.0116,430.86337
UncalAccel,1676593893606,30950428518614,-2.0542383,2.5088747,9.796814,0.037048545,-0.031444572,0.0098014325
OrientationDeg,1676593893606,30950428518614,73.0,3.0,-7.0
UncalGyro,1676593893610,30950432749285,-0.5896377,-0.24938573,-0.3303254,0.00072278245,-0.0013356609,-0.00032360601
UncalMag,1676593893612,30950434602344,-193.6872,770.57635,389.973,-174.57417,771.0116,430.86337
UncalAccel,1676593893614,30950436985643,-2.015953,2.4562325,9.873384,0.037048545,-0.031444572,0.0098014325
OrientationDeg,1676593893614,30950436985643,74.0,3.0,-7.0
UncalGyro,1676593893619,30950441223641,-0.68493265,-0.2182316,-0.34483343,0.00072278245,-0.0013356609,-0.00032360601
UncalMag,1676593893622,30950444602587,-193.065,770.3934,389.302,-174.57417,771.0116,430.86337
UncalAccel,1676593893623,30950445464648,-2.0057836,2.3754747,9.8117695,0.037048545,-0.031444572,0.0098014325
OrientationDeg,1676593893623,30950445464648,74.0,3.0,-7.0
UncalGyro,1676593893627,30950449710314,-0.8031351,-0.19257528,-0.34437528,0.00072278245,-0.0013356609,-0.00032360601
UncalAccel,1676593893631,30950453946041,-2.0386848,2.3318057,9.749556,0.037048545,-0.031444572,0.0098014325
OrientationDeg,1676593893631,30950453946041,74.0,3.0,-6.0
UncalMag,1676593893632,30950454591804,-193.8824,770.8448,390.27798,-174.57417,771.0116,430.86337
UncalGyro,1676593893636,30950458180293,-0.9334021,-0.15393804,-0.31902438,0.00072278245,-0.0013356609,-0.00032360601
UncalAccel,1676593893640,30950462428859,-2.0285153,2.3611178,9.697512,0.037048545,-0.031444572,0.0098014325
OrientationDeg,1676593893640,30950462428859,74.0,3.0,-6.0
UncalMag,1676593893642,30950464602220,-193.98,770.91797,389.9364,-174.57417,771.0116,430.86337
UncalGyro,1676593893644,30950466668127,-1.0425943,-0.0421497,-0.2603813,0.00072278245,-0.0013356609,-0.00032360601
UncalAccel,1676593893648,30950470913580,-1.8394824,2.43709,16.336996,0.037048545,-0.031444572,0.0098014325
OrientationDeg,1676593893648,30950470913580,74.0,3.0,-5.0
UncalMag,1676593893652,30950474602463,-194.468,771.5036,389.485,-174.57417,771.0116,430.86337
UncalGyro,1676593893653,30950475149826,-0.63713247,1.0801625,-0.07422013,0.00072278245,-0.0013356609,-0.00032360601
UncalAccel,1676593893657,30950479382919,-0.7896315,2.7062824,11.349756,0.037048545,-0.031444572,0.0098014325
OrientationDeg,1676593893657,30950479382919,74.0,4.0,-5.0
UncalGyro,1676593893661,30950483635116,-0.25152376,1.1753048,0.14187345,0.00072278245,-0.0013356609,-0.00032360601
UncalMag,1676593893662,30950484592534,-192.54039,772.0526,388.9604,-174.57417,771.0116,430.86337
UncalAccel,1676593893665,30950487873875,-1.7784654,1.9585253,7.881958,0.037048545,-0.031444572,0.0098014325
OrientationDeg,1676593893665,30950487873875,74.0,5.0,-5.0
UncalGyro,1676593893670,30950492118717,0.0,0.96745783,0.35811976,0.00072278245,-0.0013356609,-0.00032360601
UncalMag,1676593893672,30950494602299,-192.67459,771.7232,389.607,-174.57417,771.0116,430.86337
UncalAccel,1676593893674,30950496354536,-1.9579271,1.1611172,11.302498,0.037048545,-0.031444572,0.0098014325
OrientationDeg,1676593893674,30950496354536,74.0,5.0,-5.0
UncalGyro,1676593893678,30950500596154,0.19318613,1.1391109,0.5928447,0.00072278245,-0.0013356609,-0.00032360601
UncalMag,1676593893682,30950504602339,-192.1256,772.138,388.6066,-174.57417,771.0116,430.86337
UncalAccel,1676593893682,30950504834862,-1.2723835,2.126621,12.337394,0.037048545,-0.031444572,0.0098014325
OrientationDeg,1676593893683,30950504834862,73.0,6.0,-6.0
UncalGyro,1676593893687,30950509070264,0.30970868,1.4240797,0.73761976,0.00072278245,-0.0013356609,-0.00032360601
UncalAccel,1676593893691,30950513302706,-1.6564314,2.3150558,9.8428755,0.037048545,-0.031444572,0.0098014325
OrientationDeg,1676593893691,30950513302706,73.0,6.0,-6.0
UncalMag,1676593893692,30950514592043,-191.61319,771.95496,388.0698,-174.57417,771.0116,430.86337
UncalGyro,1676593893695,30950517559735,0.30176744,1.3535247,0.8142834,0.00072278245,-0.0013356609,-0.00032360601
UncalAccel,1676593893699,30950521798484,-3.263212,1.9268204,6.9278197,0.037048545,-0.031444572,0.0098014325
OrientationDeg,1676593893699,30950521798484,73.0,7.0,-6.0
UncalMag,1676593893702,30950524602703,-190.7714,772.1014,389.1678,-174.57417,771.0116,430.86337
UncalGyro,1676593893704,30950526040457,0.47143525,0.6441574,1.1759156,0.00072278245,-0.0013356609,-0.00032360601
UncalAccel,1676593893708,30950530279216,-5.282156,0.8063812,7.765906,0.037048545,-0.031444572,0.0098014325
OrientationDeg,1676593893708,30950530279216,72.0,7.0,-6.0
UncalGyro,1676593893712,30950534520976,0.8371908,-0.0035124752,1.7015651,0.00072278245,-0.0013356609,-0.00032360601
UncalMag,1676593893712,30950534603150,-190.8812,771.9794,388.1796,-174.57417,771.0116,430.86337
UncalAccel,1676593893716,30950538758952,-2.5411777,1.5828521,9.096315,0.037048545,-0.031444572,0.0098014325
OrientationDeg,1676593893716,30950538758952,71.0,7.0,-7.0
UncalGyro,1676593893720,30950542992197,0.8081747,-0.24144448,1.6158913,0.00072278245,-0.0013356609,-0.00032360601
UncalMag,1676593893722,30950544602336,-191.1862,771.96716,388.0576,-174.57417,771.0116,430.86337
UncalAccel,1676593893725,30950547242258,-1.3441681,2.0919251,9.793225,0.037048545,-0.031444572,0.0098014325
OrientationDeg,1676593893725,30950547242258,70.0,6.0,-7.0
UncalGyro,1676593893729,30950551484670,0.6427829,-0.22128594,1.2108877,0.00072278245,-0.0013356609,-0.00032360601
UncalMag,1676593893732,30950554602498,-190.869,772.1624,388.4602,-174.57417,771.0116,430.86337
UncalAccel,1676593893733,30950555725951,-1.6588243,2.3431716,10.133604,0.037048545,-0.031444572,0.0098014325
OrientationDeg,1676593893733,30950555725951,70.0,6.0,-8.0
UncalGyro,1676593893737,30950559965788,0.5216789,-0.17363845,0.7492262,0.00072278245,-0.0013356609,-0.00032360601
UncalAccel,1676593893742,30950564201536,-1.6671991,3.455236,9.865608,0.037048545,-0.031444572,0.0098014325
UncalMag,1676593893742,30950564593830,-191.2838,772.138,388.2284,-174.57417,771.0116,430.86337
OrientationDeg,1676593893742,30950564201536,70.0,6.0,-8.0
UncalGyro,1676593893746,30950568436308,0.47433686,-0.20082195,0.22495113,0.00072278245,-0.0013356609,-0.00032360601
UncalAccel,1676593893750,30950572685219,-1.6983058,4.475775,9.45464,0.037048545,-0.031444572,0.0098014325
OrientationDeg,1676593893750,30950572685219,70.0,6.0,-8.0
UncalMag,1676593893752,30950574602618,-191.7352,771.6256,388.5944,-174.57417,771.0116,430.86337
UncalGyro,1676593893754,30950576927131,0.46944994,-0.30741793,-0.38759398,0.00072278245,-0.0013356609,-0.00032360601
UncalAccel,1676593893759,30950581169441,-1.5744773,4.831707,9.262616,0.037048545,-0.031444572,0.0098014325
OrientationDeg,1676593893759,30950581169441,70.0,6.0,-8.0
UncalMag,1676593893762,30950584602618,-192.06459,771.4548,389.1678,-174.57417,771.0116,430.86337
UncalGyro,1676593893763,30950585409217,0.45448375,-0.4364632,-1.1065824,0.00072278245,-0.0013356609,-0.00032360601
UncalAccel,1676593893767,30950589647285,-1.0857433,4.6235313,9.309875,0.037048545,-0.031444572,0.0098014325
OrientationDeg,1676593893767,30950589647285,71.0,6.0,-9.0
UncalGyro,1676593893771,30950593886410,0.39187005,-0.5500842,-1.9095647,0.00072278245,-0.0013356609,-0.00032360601
UncalMag,1676593893772,30950594591712,-192.1622,771.54016,389.1922,-174.57417,771.0116,430.86337
UncalAccel,1676593893776,30950598126715,-1.035494,4.025326,9.375079,0.037048545,-0.031444572,0.0098014325
OrientationDeg,1676593893776,30950598126715,72.0,6.0,-9.0
UncalGyro,1676593893780,30950602360529,0.2680171,-0.6751588,-2.7027733,0.00072278245,-0.0013356609,-0.00032360601
UncalMag,1676593893782,30950604602372,-192.24759,770.05176,388.83838,-174.57417,771.0116,430.86337
UncalAccel,1676593893784,30950606611151,-1.3908281,2.8917263,9.779466,0.037048545,-0.031444572,0.0098014325
OrientationDeg,1676593893784,30950606611151,74.0,6.0,-9.0
UncalGyro,1676593893788,30950610851741,0.025961773,-0.6444628,-3.2227724,0.00072278245,-0.0013356609,-0.00032360601
UncalMag,1676593893792,30950614602208,-192.56479,770.06396,389.4606,-174.57417,771.0116,430.86337
UncalAccel,1676593893793,30950615091903,-3.4366915,-0.029910283,10.373485,0.037048545,-0.031444572,0.0098014325
OrientationDeg,1676593893793,30950615091903,75.0,6.0,-8.0
UncalGyro,1676593893797,30950619322941,-0.33017266,-0.46410486,-2.9533808,0.00072278245,-0.0013356609,-0.00032360601
UncalAccel,1676593893801,30950623568699,-2.3670998,0.9056834,10.613963,0.037048545,-0.031444572,0.0098014325
UncalMag,1676593893802,30950624591872,-192.1256,768.7708,389.4972,-174.57417,771.0116,430.86337
OrientationDeg,1676593893802,30950623568699,77.0,6.0,-8.0
UncalGyro,1676593893805,30950627815586,-0.31306845,-0.09086621,-2.8683178,0.00072278245,-0.0013356609,-0.00032360601
UncalAccel,1676593893810,30950632056287,-1.3854443,-0.13579269,9.909277,0.037048545,-0.031444572,0.0098014325
OrientationDeg,1676593893810,30950632056287,78.0,6.0,-8.0
UncalMag,1676593893812,30950634602410,-192.7478,768.661,389.363,-174.57417,771.0116,430.86337
UncalGyro,1676593893814,30950636296614,-0.24113905,0.122478485,-2.5379925,0.00072278245,-0.0013356609,-0.00032360601
UncalAccel,1676593893818,30950640534966,-0.26739794,-0.71665037,9.189635,0.037048545,-0.031444572,0.0098014325
Fix,FLP,37.4313046000,-122.1550148000,-16.5,0.2461397,4.695,48.921764,1676593893542,,,30950364897607,1.6719326
OrientationDeg,1676593893818,30950640534966,79.0,6.0,-7.0
UncalMag,1676593893822,30950644602410,-192.028,768.47797,388.58218,-174.57417,771.0116,430.86337
UncalGyro,1676593893822,30950644774549,-0.21074851,0.27397305,-2.0932825,0.00072278245,-0.0013356609,-0.00032360601
UncalAccel,1676593893827,30950649007041,1.82692,-0.4019942,9.005388,0.037048545,-0.031444572,0.0098014325
OrientationDeg,1676593893827,30950649007041,80.0,6.0,-7.0
UncalGyro,1676593893831,30950653256247,-0.14462234,0.31535918,-1.5543466,0.00072278245,-0.0013356609,-0.00032360601
UncalMag,1676593893832,30950654602409,-191.418,768.36816,390.3512,-174.57417,771.0116,430.86337
UncalAccel,1676593893835,30950657499441,3.4833515,-0.16450655,8.007581,0.037048545,-0.031444572,0.0098014325
OrientationDeg,1676593893835,30950657499441,81.0,7.0,-7.0
UncalGyro,1676593893839,30950661741487,0.077579886,0.3622431,-0.89843005,0.00072278245,-0.0013356609,-0.00032360601
UncalMag,1676593893842,30950664590649,-191.3448,767.8558,390.4732,-174.57417,771.0116,430.86337
UncalAccel,1676593893843,30950665979483,4.1114674,0.036490545,7.676175,0.037048545,-0.031444572,0.0098014325
OrientationDeg,1676593893843,30950665979483,81.0,7.0,-7.0
UncalGyro,1676593893848,30950670219991,0.48670688,0.49357912,-0.3830125,0.00072278245,-0.0013356609,-0.00032360601
UncalAccel,1676593893852,30950674461487,3.6203406,-0.44685963,8.444271,0.037048545,-0.031444572,0.0098014325
UncalMag,1676593893852,30950674598745,-191.845,768.03876,388.47238,-174.57417,771.0116,430.86337
OrientationDeg,1676593893852,30950674461487,81.0,7.0,-7.0
UncalGyro,1676593893856,30950678707458,0.91599244,0.768163,-0.10064005,0.00072278245,-0.0013356609,-0.00032360601
UncalAccel,1676593893860,30950682938242,2.1678972,-0.21355942,9.307482,0.037048545,-0.031444572,0.0098014325
UncalMag,1676593893862,30950684591705,-191.845,768.03876,388.47238,-174.57417,771.0116,430.86337
OrientationDeg,1676593893860,30950682938242,81.0,8.0,-8.0
UncalGyro,1676593893865,30950687183796,1.2649492,1.0381655,0.05787948,0.00072278245,-0.0013356609,-0.00032360601
UncalAccel,1676593893869,30950691420877,0.8578269,0.76570326,9.208179,0.037048545,-0.031444572,0.0098014325
OrientationDeg,1676593893869,30950691420877,81.0,8.0,-9.0
UncalMag,1676593893872,30950694602528,-191.174,767.1116,388.9604,-174.57417,771.0116,430.86337
UncalGyro,1676593893873,30950695667703,1.5004377,1.1385001,0.1207986,0.00072278245,-0.0013356609,-0.00032360601
UncalAccel,1676593893877,30950699910582,-0.7076773,2.1798615,8.450851,0.037048545,-0.031444572,0.0098014325
OrientationDeg,1676593893877,30950699910582,81.0,9.0,-9.0
UncalGyro,1676593893882,30950704145394,1.5847372,0.9379836,0.00992656,0.00072278245,-0.0013356609,-0.00032360601
UncalMag,1676593893882,30950704602324,-189.7954,765.6476,388.692,-174.57417,771.0116,430.86337
UncalAccel,1676593893886,30950708385730,-3.2506495,3.6586258,8.508878,0.037048545,-0.031444572,0.0098014325
OrientationDeg,1676593893886,30950708385730,81.0,9.0,-10.0
UncalGyro,1676593893890,30950712628222,1.4376713,0.42164972,-0.29856038,0.00072278245,-0.0013356609,-0.00032360601
UncalMag,1676593893892,30950714602201,-189.7954,765.6476,388.692,-174.57417,771.0116,430.86337
UncalAccel,1676593893894,30950716863278,-5.0452666,4.8245287,9.035298,0.037048545,-0.031444572,0.0098014325
OrientationDeg,1676593893894,30950716863278,82.0,9.0,-11.0
UncalGyro,1676593893899,30950721108731,1.0012082,-0.19379699,-0.74388117,0.00072278245,-0.0013356609,-0.00032360601
UncalMag,1676593893902,30950724602281,-189.7466,764.8912,389.3508,-174.57417,771.0116,430.86337
UncalAccel,1676593893903,30950725346178,-4.9752765,5.0739803,9.134601,0.037048545,-0.031444572,0.0098014325
OrientationDeg,1676593893903,30950725346178,82.0,9.0,-11.0
UncalGyro,1676593893907,30950729589718,0.45097128,-0.59941155,-1.1665999,0.00072278245,-0.0013356609,-0.00032360601
UncalAccel,1676593893911,30950733828334,-3.2871401,4.49073,8.8905325,0.037048545,-0.031444572,0.0098014325
UncalMag,1676593893912,30950734585069,-189.161,764.1104,389.15558,-174.57417,771.0116,430.86337
OrientationDeg,1676593893911,30950733828334,83.0,9.0,-11.0
UncalGyro,1676593893916,30950738070297,0.016798794,-0.74296486,-1.4421002,0.00072278245,-0.0013356609,-0.00032360601
UncalAccel,1676593893920,30950742307235,-1.4847465,3.251248,9.280562,0.037048545,-0.031444572,0.0098014325
OrientationDeg,1676593893920,30950742307235,84.0,9.0,-11.0
UncalMag,1676593893922,30950744602483,-190.4176,764.0006,389.15558,-174.57417,771.0116,430.86337
UncalGyro,1676593893924,30950746541072,-0.26816985,-0.7131852,-1.5340353,0.00072278245,-0.0013356609,-0.00032360601
UncalAccel,1676593893928,30950750791102,-0.34277186,1.8927227,9.71486,0.037048545,-0.031444572,0.0098014325
OrientationDeg,1676593893928,30950750791102,84.0,8.0,-11.0
UncalMag,1676593893932,30950754602564,-190.4298,763.92737,389.63138,-174.57417,771.0116,430.86337
UncalGyro,1676593893933,30950755030797,-0.44868052,-0.5867361,-1.4863878,0.00072278245,-0.0013356609,-0.00032360601
UncalAccel,1676593893937,30950759262008,0.008973085,1.07019,9.9553385,0.037048545,-0.031444572,0.0098014325
OrientationDeg,1676593893937,30950759262008,85.0,8.0,-10.0
UncalGyro,1676593893941,30950763501519,-0.5290093,-0.3987423,-1.3726143,0.00072278245,-0.0013356609,-0.00032360601
UncalMag,1676593893942,30950764591862,-190.8568,763.6224,388.7164,-174.57417,771.0116,430.86337
UncalAccel,1676593893945,30950767742313,-0.29072794,0.76689965,9.959526,0.037048545,-0.031444572,0.0098014325
OrientationDeg,1676593893945,30950767742313,86.0,8.0,-10.0
UncalGyro,1676593893949,30950771997490,-0.5137377,-0.18784106,-1.2512047,0.00072278245,-0.0013356609,-0.00032360601
UncalMag,1676593893952,30950774591658,-191.4424,764.4154,389.2898,-174.57417,771.0116,430.86337
UncalAccel,1676593893954,30950776237013,-0.82971126,0.63888365,9.861421,0.037048545,-0.031444572,0.0098014325
OrientationDeg,1676593893954,30950776237013,86.0,8.0,-10.0
UncalGyro,1676593893958,30950780478162,-0.441961,0.00045814895,-1.1462886,0.00072278245,-0.0013356609,-0.00032360601
UncalMag,1676593893962,30950784602480,-190.84459,764.01276,389.7778,-174.57417,771.0116,430.86337
UncalAccel,1676593893962,30950784712781,-1.3304094,0.5688936,9.681958,0.037048545,-0.031444572,0.0098014325
OrientationDeg,1676593893962,30950784712781,87.0,8.0,-9.0
UncalGyro,1676593893966,30950788958212,-0.3538437,0.13316862,-1.0693196,0.00072278245,-0.0013356609,-0.00032360601
UncalAccel,1676593893971,30950793196860,-1.7078772,0.6053841,9.6173525,0.037048545,-0.031444572,0.0098014325
UncalMag,1676593893972,30950794595562,-191.16179,763.81757,389.37518,-174.57417,771.0116,430.86337
OrientationDeg,1676593893972,30950793196860,87.0,9.0,-9.0
UncalGyro,1676593893975,30950797440816,-0.26190847,0.22250767,-1.0201449,0.00072278245,-0.0013356609,-0.00032360601
UncalAccel,1676593893979,30950801684286,-1.9615164,0.63230336,9.6682,0.037048545,-0.031444572,0.0098014325
OrientationDeg,1676593893979,30950801684286,88.0,9.0,-9.0
UncalMag,1676593893982,30950804602438,-190.3078,764.0738,388.692,-174.57417,771.0116,430.86337
UncalGyro,1676593893983,30950805919536,-0.17547104,0.30634892,-0.99067074,0.00072278245,-0.0013356609,-0.00032360601
UncalAccel,1676593893988,30950810159201,-2.1284158,0.5832505,9.619745,0.037048545,-0.031444572,0.0098014325
OrientationDeg,1676593893988,30950810159201,88.0,9.0,-9.0
UncalGyro,1676593893992,30950814399333,-0.09514226,0.3857614,-0.96959585,0.00072278245,-0.0013356609,-0.00032360601
UncalMag,1676593893992,30950814603577,-190.4054,764.23236,388.2528,-174.57417,771.0116,430.86337
UncalAccel,1676593893996,30950818640899,-2.2558336,0.50129634,9.423533,0.037048545,-0.031444572,0.0098014325
OrientationDeg,1676593893996,30950818640899,89.0,9.0,-9.0
UncalGyro,1676593894001,30950822881509,-0.019547688,0.4370741,-0.95065904,0.00072278245,-0.0013356609,-0.00032360601
UncalMag,1676593894002,30950824602437,-189.39279,763.7566,389.0702,-174.57417,771.0116,430.86337
UncalAccel,1676593894005,30950827111336,-2.4263222,0.55334026,9.174082,0.037048545,-0.031444572,0.0098014325
OrientationDeg,1676593894005,30950827111336,89.0,10.0,-8.0
UncalGyro,1676593894009,30950831364542,0.05589417,0.44532076,-0.9465357,0.00072278245,-0.0013356609,-0.00032360601
UncalMag,1676593894012,30950834602436,-189.6246,763.39056,388.63098,-174.57417,771.0116,430.86337
UncalAccel,1676593894013,30950835602538,-2.669792,0.76331043,8.970692,0.037048545,-0.031444572,0.0098014325
OrientationDeg,1676593894013,30950835602538,89.0,10.0,-8.0
UncalGyro,1676593894017,30950839846546,0.12751812,0.41325033,-0.9766208,0.00072278245,-0.0013356609,-0.00032360601
UncalAccel,1676593894022,30950844080736,-3.0293136,0.9762716,8.867203,0.037048545,-0.031444572,0.0098014325
OrientationDeg,1676593894022,30950844080736,90.0,10.0,-8.0
UncalMag,1676593894022,30950844588885,-189.527,763.2198,388.94818,-174.57417,771.0116,430.86337
UncalGyro,1676593894026,30950848325864,0.19272798,0.3491095,-1.0374019,0.00072278245,-0.0013356609,-0.00032360601
UncalAccel,1676593894030,30950852565528,-3.3732817,0.9936196,8.851051,0.037048545,-0.031444572,0.0098014325
OrientationDeg,1676593894030,30950852565528,91.0,11.0,-8.0
UncalMag,1676593894032,30950854602434,-189.222,763.049,388.7774,-174.57417,771.0116,430.86337
UncalGyro,1676593894034,30950856808356,0.24266621,0.26725355,-1.1088731,0.00072278245,-0.0013356609,-0.00032360601
UncalAccel,1676593894039,30950861046617,-3.5503507,0.90149593,8.912068,0.037048545,-0.031444572,0.0098014325
OrientationDeg,1676593894039,30950861046617,91.0,11.0,-8.0
UncalMag,1676593894042,30950864602393,-189.3196,763.2198,388.7042,-174.57417,771.0116,430.86337
UncalGyro,1676593894044,30950865288306,0.27488935,0.18448131,-1.1711814,0.00072278245,-0.0013356609,-0.00032360601
UncalAccel,1676593894047,30950869527635,-3.5694933,0.7429714,8.994022,0.037048545,-0.031444572,0.0098014325
OrientationDeg,1676593894047,30950869527635,92.0,11.0,-8.0
UncalGyro,1676593894051,30950873769292,0.2948952,0.11713341,-1.2078333,0.00072278245,-0.0013356609,-0.00032360601
UncalMag,1676593894052,30950874591935,-189.3684,762.3414,388.6188,-174.57417,771.0116,430.86337
UncalAccel,1676593894056,30950878009140,-3.473182,0.5282156,9.05803,0.037048545,-0.031444572,0.0098014325
OrientationDeg,1676593894056,30950878009140,92.0,11.0,-8.0
UncalGyro,1676593894060,30950882250767,0.31031954,0.06856962,-1.2140946,0.00072278245,-0.0013356609,-0.00032360601
UncalMag,1676593894062,30950884602351,-189.405,761.7436,388.9604,-174.57417,771.0116,430.86337
UncalAccel,1676593894064,30950886487920,-3.3864422,0.3367898,9.102298,0.037048545,-0.031444572,0.0098014325
OrientationDeg,1676593894064,30950886487920,93.0,11.0,-8.0
UncalGyro,1676593894068,30950890722213,0.3239113,0.027794369,-1.1954633,0.00072278245,-0.0013356609,-0.00032360601
UncalMag,1676593894072,30950894602594,-188.5754,761.68256,389.1678,-174.57417,771.0116,430.86337
UncalAccel,1676593894072,30950894969283,-3.3140593,0.1692922,9.203992,0.037048545,-0.031444572,0.0098014325
OrientationDeg,1676593894072,30950894969283,94.0,11.0,-9.0
UncalGyro,1676593894077,30950899201033,0.3313944,-0.011453724,-1.1565206,0.00072278245,-0.0013356609,-0.00032360601
UncalAccel,1676593894081,30950903444573,-3.3206396,0.19322042,9.399008,0.037048545,-0.031444572,0.0098014325
UncalMag,1676593894082,30950904592258,-188.48999,761.3288,389.0824,-174.57417,771.0116,430.86337
OrientationDeg,1676593894081,30950903444573,94.0,11.0,-9.0
UncalGyro,1676593894085,30950907691552,0.30970868,-0.05421429,-1.1223122,0.00072278245,-0.0013356609,-0.00032360601
UncalAccel,1676593894089,30950911924756,-3.4241292,0.33559337,9.698709,0.037048545,-0.031444572,0.0098014325
Status,1676593892999,30,0,6,2,1176450050,36.70,88.0,78.0,1,1,1,33.098976
Status,1676593892999,30,1,6,2,1575420030,43.00,88.0,78.0,1,1,1,39.39655
Status,1676593892999,30,2,3,17,1604249980,40.81,295.0,74.0,1,1,1,37.214645
Status,1676593892999,30,3,1,11,1575420030,42.43,142.0,73.0,1,1,1,38.8312
Status,1676593892999,30,4,1,11,1176450050,38.99,142.0,73.0,1,1,1,35.39382
Status,1676593892999,30,5,3,15,1602000000,43.28,327.0,70.0,1,1,1,39.68292
Status,1676593892999,30,6,6,36,1575420030,43.43,58.0,66.0,1,1,1,39.830227
Status,1676593892999,30,7,6,36,1176450050,37.85,58.0,66.0,1,1,1,34.249496
Status,1676593892999,30,8,1,12,1575420030,44.90,324.0,60.0,1,1,1,41.30114
Status,1676593892999,30,9,6,34,1176450050,39.50,203.0,54.0,1,1,1,35.900536
Status,1676593892999,30,10,6,34,1575420030,40.81,203.0,54.0,1,1,1,37.213
Status,1676593892999,30,11,3,14,1598062460,46.57,148.0,52.0,1,1,1,42.96846
Status,1676593892999,30,12,1,6,1176450050,37.98,51.0,49.0,1,1,1,34.38037
Status,1676593892999,30,13,1,6,1575420030,45.55,51.0,49.0,1,1,1,41.952675
Status,1676593892999,30,14,1,24,1575420030,38.95,223.0,42.0,1,1,1,35.352985
Status,1676593892999,30,15,6,30,1176450050,35.00,315.0,42.0,1,1,1,31.40349
Status,1676593892999,30,16,6,30,1575420030,41.90,315.0,42.0,1,1,1,38.29746
Status,1676593892999,30,17,1,24,1176450050,38.23,223.0,42.0,1,1,1,34.63064
Status,1676593892999,30,18,3,24,1603124990,44.57,32.0,36.0,1,1,1,40.9704
Status,1676593892999,30,19,3,18,1600312450,38.16,233.0,31.0,1,1,1,34.56475
Status,1676593892999,30,20,1,25,1176450050,42.06,311.0,30.0,1,1,1,38.46394
Status,1676593892999,30,21,1,25,1575420030,41.35,311.0,30.0,1,1,1,37.754997
Status,1676593892999,30,22,1,19,1575420030,48.28,57.0,29.0,1,1,1,44.678738
Status,1676593892999,30,23,6,25,1575420030,45.94,123.0,29.0,1,1,1,42.343704
Status,1676593892999,30,24,6,25,1176450050,36.89,123.0,29.0,1,1,1,33.292717
Status,1676593892999,30,25,1,20,1575420030,42.82,145.0,22.0,1,1,1,39.222652
Status,1676593892999,30,26,6,11,1575420030,38.15,40.0,18.0,1,1,1,34.548576
Status,1676593892999,30,27,6,11,1176450050,31.62,40.0,18.0,1,1,1,28.015762
Status,1676593892999,30,28,3,16,1601437440,46.52,328.0,16.0,1,1,1,42.924465
Status,1676593892999,30,29,1,29,1575420030,43.23,260.0,11.0,1,1,1,39.63042
OrientationDeg,1676593894089,30950911924756,95.0,11.0,-9.0
UncalMag,1676593894092,30950914602186,-188.3802,761.4142,388.9726,-174.57417,771.0116,430.86337
UncalGyro,1676593894094,30950916175011,0.26145032,-0.07925977,-1.0983357,0.00072278245,-0.0013356609,-0.00032360601
Fix,GPS,37.4312965566,-122.1550229599,-8.071663891732664,0.16320477,2.9506152,92.89488,1676593893999,0.09502863,41.67141,30950818238000,3.0
Raw,1676593893999,650043000000,,,-1360628461956706545,0.0,7.542668859006393,162.0,1.0,56,6,0.0,16431,433911928687347,12,42.99970245361328,445.40712838765194,0.15,16,269978.85260912706,340282346638528860000000000000000000000,1575420030,,,,0,,1,,39.39970397949219,0.320142130558394,1.0,0.320142130558394,1.0,C,30950818238000
Raw,1676593893999,650043000000,,,-1360628461956706545,0.0,7.542668859006393,162.0,1.0,56,11,0.0,16431,433911931458269,16,40.05803298950195,-100.14279491937589,0.15,16,-89267.95699854773,340282346638528860000000000000000000000,1575420030,,,,0,,1,,36.45803451538086,-0.20372681261465636,1.0,-0.20372681261465636,1.0,C,30950818238000
Raw,1676593893999,650043000000,,,-1360628461956706545,0.0,7.542668859006393,162.0,1.0,56,12,0.0,16431,433911930461861,11,44.90113830566406,-268.9831094324545,0.15,16,-187202.52232824423,340282346638528860000000000000000000000,1575420030,,,,0,,1,,41.30113983154297,-0.6984919076624261,1.0,-0.6984919076624261,1.0,C,30950818238000
Raw,1676593893999,650043000000,,,-1360628461956706545,0.0,7.542668859006393,162.0,1.0,56,19,0.0,16431,433911924469701,10,48.27873611450195,543.8796954838992,0.15,16,350034.6630324628,340282346638528860000000000000000000000,1575420030,,,,0,,1,,44.67873764038086,0.0,1.0,0.0,1.0,C,30950818238000
