# 
# Header Description:
# 
# Version: v3.0.5.6 Platform: 13 Manufacturer: Google Model: Pixel 7
# 
# Raw,utcTimeMillis,TimeNanos,LeapSecond,TimeUncertaintyNanos,FullBiasNanos,BiasNanos,BiasUncertaintyNanos,DriftNanosPerSecond,DriftUncertaintyNanosPerSecond,HardwareClockDiscontinuityCount,Svid,TimeOffsetNanos,State,ReceivedSvTimeNanos,ReceivedSvTimeUncertaintyNanos,Cn0DbHz,PseudorangeRateMetersPerSecond,PseudorangeRateUncertaintyMetersPerSecond,AccumulatedDeltaRangeState,AccumulatedDeltaRangeMeters,AccumulatedDeltaRangeUncertaintyMeters,CarrierFrequencyHz,CarrierCycles,CarrierPhase,CarrierPhaseUncertainty,MultipathIndicator,SnrInDb,ConstellationType,AgcDb,BasebandCn0DbHz,FullInterSignalBiasNanos,FullInterSignalBiasUncertaintyNanos,SatelliteInterSignalBiasNanos,SatelliteInterSignalBiasUncertaintyNanos,CodeType,ChipsetElapsedRealtimeNanos
# 
# UncalAccel,utcTimeMillis,elapsedRealtimeNanos,UncalAccelXMps2,UncalAccelYMps2,UncalAccelZMps2,BiasXMps2,BiasYMps2,BiasZMps2
# 
# Accel,utcTimeMillis,elapsedRealtimeNanos,AccelXMps2,AccelYMps2,AccelZMps2
# 
# UncalGyro,utcTimeMillis,elapsedRealtimeNanos,UncalGyroXRadPerSec,UncalGyroYRadPerSec,UncalGyroZRadPerSec,DriftXRadPerSec,DriftYRadPerSec,DriftZRadPerSec
# 
# Gyro,utcTimeMillis,elapsedRealtimeNanos,GyroXRadPerSec,GyroYRadPerSec,GyroZRadPerSec
# 
# UncalMag,utcTimeMillis,elapsedRealtimeNanos,UncalMagXMicroT,UncalMagYMicroT,UncalMagZMicroT,BiasXMicroT,BiasYMicroT,BiasZMicroT
# 
# Mag,utcTimeMillis,elapsedRealtimeNanos,MagXMicroT,MagYMicroT,MagZMicroT
# 
# OrientationDeg,utcTimeMillis,elapsedRealtimeNanos,yawDeg,rollDeg,pitchDeg
# 
# Fix,Provider,LatitudeDegrees,LongitudeDegrees,AltitudeMeters,SpeedMps,AccuracyMeters,BearingDegrees,UnixTimeMillis,SpeedAccuracyMps,BearingAccuracyDegrees,elapsedRealtimeNanos,VerticalAccuracyMeters
# 
# Nav,Svid,Type,Status,MessageId,Sub-messageId,Data(Bytes)
# 
# Status,UnixTimeMillis,SignalCount,SignalIndex,ConstellationType,Svid,CarrierFrequencyHz,Cn0DbHz,AzimuthDegrees,ElevationDegrees,UsedInFix,HasAlmanacData,HasEphemerisData,BasebandCn0DbHz
# 
UncalAccel,1676593755052,30811874904259,1.1928221,-0.29012975,15.913467,0.037048545,-0.031444572,0.0098014325
UncalMag,1676593755052,30811874590268,-189.2952,748.4334,395.4508,-174.57417,771.0116,430.86337
UncalGyro,1676593755057,30811879137896,-0.11636983,0.2182316,-0.29245174,0.0006376181,-0.0013482708,-0.00032223668
UncalAccel,1676593755061,30811883378466,1.2532408,-0.4863412,15.704693,0.037048545,-0.031444572,0.0098014325
UncalMag,1676593755062,30811884589821,-188.8926,748.104,395.9754,-174.57417,771.0116,430.86337
UncalGyro,1676593755065,30811887620766,0.07452556,0.46685377,-0.20173825,0.0006376181,-0.0013482708,-0.00032223668
UncalAccel,1676593755069,30811891864306,1.247857,-0.5138587,15.127425,0.037048545,-0.031444572,0.0098014325
UncalMag,1676593755072,30811894589699,-188.46559,748.25037,394.548,-174.57417,771.0116,430.86337
UncalGyro,1676593755074,30811896100665,0.2576324,0.6907359,-0.10415252,0.0006376181,-0.0013482708,-0.00032223668
UncalAccel,1676593755078,30811900339292,1.0959128,-0.33140594,14.233108,0.037048545,-0.031444572,0.0098014325
UncalGyro,1676593755082,30811904580483,0.42714754,0.8512407,-0.025809057,0.0006376181,-0.0013482708,-0.00032223668
UncalMag,1676593755082,30811904594623,-188.2948,747.6526,394.9994,-174.57417,771.0116,430.86337
UncalAccel,1676593755086,30811908822753,0.9056834,-0.06281159,13.218551,0.037048545,-0.031444572,0.0098014325
UncalGyro,1676593755091,30811913062966,0.5725334,0.9228647,0.026725354,0.0006376181,-0.0013482708,-0.00032223668
UncalMag,1676593755092,30811914590798,-188.01419,747.128,394.4992,-174.57417,771.0116,430.86337
UncalAccel,1676593755095,30811917302519,0.7585248,0.21595225,12.28535,0.037048545,-0.031444572,0.0098014325
UncalGyro,1676593755099,30811921543862,0.68218374,0.9100365,0.04886922,0.0006376181,-0.0013482708,-0.00032223668
UncalMag,1676593755102,30811924591450,-186.9772,746.9938,395.41418,-174.57417,771.0116,430.86337
UncalAccel,1676593755103,30811925781900,0.613759,0.4749753,11.653047,0.037048545,-0.031444572,0.0098014325
UncalGyro,1676593755108,30811930023558,0.7492262,0.84482664,0.05100725,0.0006376181,-0.0013482708,-0.00032223668
UncalAccel,1676593755112,30811934265675,0.54436713,0.57547385,11.246266,0.037048545,-0.031444572,0.0098014325
UncalMag,1676593755112,30811934589944,-186.3672,746.74976,395.46298,-174.57417,771.0116,430.86337
UncalGyro,1676593755116,30811938508809,0.78984874,0.7725918,0.050701816,0.0006376181,-0.0013482708,-0.00032223668
UncalAccel,1676593755120,30811942746469,0.51266223,0.57607204,10.964512,0.037048545,-0.031444572,0.0098014325
UncalMag,1676593755122,30811944592752,-186.5136,745.9568,395.28,-174.57417,771.0116,430.86337
OrientationDeg,1676593755086,30811908822753,145.0,0.0,-6.0
OrientationDeg,1676593755095,30811917302519,145.0,1.0,-7.0
OrientationDeg,1676593755103,30811925781900,145.0,1.0,-7.0
OrientationDeg,1676593755112,30811934265675,145.0,1.0,-7.0
OrientationDeg,1676593755120,30811942746469,145.0,2.0,-8.0
Raw,1676593754999,511043000000,,,-1360628461956729212,0.0,7.533988391164559,159.0,1.0,56,6,0.0,16431,433772928890813,11,43.98098373413086,430.6460505500793,0.15,16,208923.5609710456,340282346638528860000000000000000000000,1575420030,,,,0,,1,,40.380985260009766,0.320142130558394,1.0,0.320142130558394,1.0,C,30811816380000
Raw,1676593754999,511043000000,,,-1360628461956729212,0.0,7.533988391164559,159.0,1.0,56,11,0.0,16431,433772931407902,14,41.805946350097656,-117.98878666481181,0.15,16,-74228.62061607334,340282346638528860000000000000000000000,1575420030,,,,0,,1,,38.20594787597656,-0.20372681261465636,1.0,-0.20372681261465636,1.0,C,30811816380000
Raw,1676593754999,511043000000,,,-1360628461956729212,0.0,7.533988391164559,159.0,1.0,56,12,0.0,16431,433772930335047,17,38.993507385253906,-278.7491817306419,0.15,16,-149279.4144353828,340282346638528860000000000000000000000,1575420030,,,,0,,1,,35.39350891113281,-0.6984919076624261,1.0,-0.6984919076624261,1.0,C,30811816380000
Raw,1676593754999,511043000000,,,-1360628461956729212,0.0,7.533988391164559,159.0,1.0,56,19,0.0,16431,433772924721170,11,46.813812255859375,539.7969920994883,0.15,16,274586.9974139667,340282346638528860000000000000000000000,1575420030,,,,0,,1,,43.21381378173828,0.0,1.0,0.0,1.0,C,30811816380000
Raw,1676593754999,511043000000,,,-1360628461956729212,0.0,7.533988391164559,159.0,1.0,56,20,0.0,16431,433772921213489,20,37.162933349609375,-515.6518892601207,0.15,16,-264732.7110558427,340282346638528860000000000000000000000,1575420030,,,,1,,1,,33.56293487548828,0.0,1.0,0.0,1.0,C,30811816380000
Raw,1676593754999,511043000000,,,-1360628461956729212,0.0,7.533988391164559,159.0,1.0,56,24,0.0,16431,433772926438886,13,42.15888595581055,497.4659676139404,0.15,16,244532.58476343867,340282346638528860000000000000000000000,1575420030,,,,0,,1,,38.55888748168945,-0.20372681261465636,1.0,-0.20372681261465636,1.0,C,30811816380000
Raw,1676593754999,511043000000,,,-1360628461956729212,0.0,7.533988391164559,159.0,1.0,56,25,0.0,16431,433772924786257,26,33.8826789855957,-516.068479126199,0.5877339895654332,16,-265814.1019840038,340282346638528860000000000000000000000,1575420030,,,,0,,1,,30.282678604125977,-2.0372682255564105,1.0,-2.0372682255564105,1.0,C,30811816380000
Raw,1676593754999,511043000000,,,-1360628461956729212,0.0,7.533988391164559,159.0,1.0,56,29,0.0,16419,433772916835108,21,36.482486724853516,-467.93273514042517,0.15,16,-103118.07165329457,340282346638528860000000000000000000000,1575420030,,,,0,,1,,32.88248825073242,-0.6984919076624261,1.0,-0.6984919076624261,1.0,C,30811816380000
Raw,1676593754999,511043000000,,,-1360628461956729212,0.0,7.533988391164559,159.0,1.0,56,6,0.0,81921,433772928891334,9,42.15898132324219,431.1996859738358,0.15,16,210136.33156076304,340282346638528860000000000000000000000,1176450050,,,,0,,1,,38.558982849121094,1.9208527336454408,1.434450257974837,1.9208527336454408,1.0,Q,30811816380000
Raw,1676593754999,511043000000,,,-1360628461956729212,0.0,7.533988391164559,159.0,1.0,56,11,0.0,81921,433772931408394,9,37.33578109741211,-117.99189668896952,0.15,16,-74791.33605421134,340282346638528860000000000000000000000,1176450050,,,,0,,1,,33.735782623291016,0.0,1.434450257974837,0.0,1.0,Q,30811816380000
Raw,1676593754999,511043000000,,,-1360628461956729212,0.0,7.533988391164559,159.0,1.0,56,24,0.0,81921,433772926439397,10,37.01762390136719,497.41044729226473,0.15,16,244507.1069794541,340282346638528860000000000000000000000,1176450050,,,,0,,1,,33.417625427246094,3.5215636101095664,1.434450257974837,3.5215636101095664,1.0,Q,30811816380000
Raw,1676593754999,511043000000,,,-1360628461956729212,0.0,7.533988391164559,159.0,1.0,56,25,0.0,81921,433772924786766,17,31.295753479003906,-515.8192000391912,0.7040652686189368,16,-267356.30384670536,340282346638528860000000000000000000000,1176450050,,,,0,,1,,27.69575309753418,1.0186341127782053,1.434450257974837,1.0186341127782053,1.0,Q,30811816380000
Raw,1676593754999,511043000000,,,-1360628461956729212,0.0,7.533988391164559,159.0,1.0,56,14,0.0,32995,12554932648538,33,43.35392379760742,518.5814127280823,0.15,16,250268.7113413679,340282346638528860000000000000000000000,1598062460,,,,0,,3,,39.75392532348633,52.1540641784668,2.0000000474974513,52.1540641784668,2.0000000474974513,C,30811816380000
Raw,1676593754999,511043000000,,,-1360628461956729212,0.0,7.533988391164559,159.0,1.0,56,18,0.0,32995,12554927531296,38,38.202720642089844,-522.2599663430458,0.15,16,-275545.2140317052,340282346638528860000000000000000000000,1600312450,,,,0,,3,,34.60272216796875,52.1540641784668,2.0000000474974513,52.1540641784668,2.0000000474974513,C,30811816380000
Raw,1676593754999,511043000000,,,-1360628461956729212,0.0,7.533988391164559,159.0,1.0,56,16,0.0,32867,12554922610521,44,36.17688751220703,-715.1026293263462,0.15,16,-365938.5212655135,340282346638528860000000000000000000000,1601437440,,,,1,,3,,32.57688903808594,52.1540641784668,2.0000000474974513,52.1540641784668,2.0000000474974513,C,30811816380000
Raw,1676593754999,511043000000,,,-1360628461956729212,0.0,7.533988391164559,159.0,1.0,56,15,0.0,32995,12554934848905,36,38.679893493652344,-239.69222026604473,0.15,16,-137493.28400314055,340282346638528860000000000000000000000,1602000000,,,,0,,3,,35.07989501953125,52.1540641784668,2.0000000474974513,52.1540641784668,2.0000000474974513,C,30811816380000
Raw,1676593754999,511043000000,,,-1360628461956729212,0.0,7.533988391164559,159.0,1.0,56,24,0.0,32995,12554929171363,33,44.64399719238281,655.6135419184329,0.15,16,330595.7662415471,340282346638528860000000000000000000000,1603124990,,,,0,,3,,41.04399871826172,52.1540641784668,2.0000000474974513,52.1540641784668,2.0000000474974513,C,30811816380000
Raw,1676593754999,511043000000,,,-1360628461956729212,0.0,7.533988391164559,159.0,1.0,56,17,0.0,32995,12554935834281,40,37.30369186401367,41.926180286048776,0.15,16,6750.705474052351,340282346638528860000000000000000000000,1604249980,,,,0,,3,,33.70369338989258,52.1540641784668,2.0000000474974513,52.1540641784668,2.0000000474974513,C,30811816380000
Raw,1676593754999,511043000000,,,-1360628461956729212,0.0,7.533988391164559,159.0,1.0,56,2,0.0,85026,433772921929905,17,39.47014236450195,87.96144377785714,0.15,16,39093.988931844244,340282346638528860000000000000000000000,1575420030,,,,0,,6,,35.87014389038086,-5.878973752260207,1.5000000237487257,-5.878973752260207,1.5000000237487257,C,30811816380000
Raw,1676593754999,511043000000,,,-1360628461956729212,0.0,7.533988391164559,159.0,1.0,56,11,0.0,85026,433772910635725,16,39.8051872253418,563.3822565080122,0.15,16,286501.06964886584,340282346638528860000000000000000000000,1575420030,,,,0,,6,,36.2051887512207,-5.878973752260207,1.5000000237487257,-5.878973752260207,1.5000000237487257,C,30811816380000
Raw,1676593754999,511043000000,,,-1360628461956729212,0.0,7.533988391164559,159.0,1.0,56,25,0.0,85026,433772912611901,22,36.21232604980469,455.15222293384954,0.15,16,229118.13632894697,340282346638528860000000000000000000000,1575420030,,,,0,,6,,32.612327575683594,-5.878973752260207,1.5000000237487257,-5.878973752260207,1.5000000237487257,C,30811816380000
Raw,1676593754999,511043000000,,,-1360628461956729212,0.0,7.533988391164559,159.0,1.0,56,30,0.0,85026,433772915043941,28,32.99979019165039,-339.58437280015187,0.6271231910765218,16,-175039.97831498313,340282346638528860000000000000000000000,1575420030,,,,0,,6,,29.399789810180664,-5.878973752260207,1.5000000237487257,-5.878973752260207,1.5000000237487257,C,30811816380000
Raw,1676593754999,511043000000,,,-1360628461956729212,0.0,7.533988391164559,159.0,1.0,56,34,0.0,85026,433772918865151,16,39.73170471191406,-319.6168248216982,0.15,16,-170631.25445667066,340282346638528860000000000000000000000,1575420030,,,,0,,6,,36.13170623779297,-5.878973752260207,1.5000000237487257,-5.878973752260207,1.5000000237487257,C,30811816380000
Raw,1676593754999,511043000000,,,-1360628461956729212,0.0,7.533988391164559,159.0,1.0,56,36,0.0,85026,433772920859726,14,41.725502014160156,208.97757056085106,0.15,16,98219.12232318212,340282346638528860000000000000000000000,1575420030,,,,0,,6,,38.12550354003906,-5.878973752260207,1.5000000237487257,-5.878973752260207,1.5000000237487257,C,30811816380000
Raw,1676593754999,511043000000,,,-1360628461956729212,0.0,7.533988391164559,159.0,1.0,56,2,0.0,84003,433772921930421,7,36.23740005493164,87.60336496901436,0.15,16,39090.10516581378,340282346638528860000000000000000000000,1176450050,,,,0,,6,,32.63740158081055,-4.216632805764675,1.9344502817235627,-4.216632805764675,1.5000000237487257,Q,30811816380000
Raw,1676593754999,511043000000,,,-1360628461956729212,0.0,7.533988391164559,159.0,1.0,56,11,0.0,84003,433772910636240,7,39.24871063232422,563.0790248923288,0.15,16,289344.1051456168,340282346638528860000000000000000000000,1176450050,,,,0,,6,,35.648712158203125,4.279776476323602,1.9344502817235627,4.279776476323602,1.5000000237487257,Q,30811816380000
Raw,1676593754999,511043000000,,,-1360628461956729212,0.0,7.533988391164559,159.0,1.0,56,25,0.0,84003,433772912612383,29,27.60297966003418,455.19796159050316,0.8715328136759584,16,229697.22183088723,340282346638528860000000000000000000000,1176450050,,,,0,,6,,24.002979278564453,-8.649541996419428,1.9344502817235627,-8.649541996419428,1.5000000237487257,Q,30811816380000
Raw,1676593754999,511043000000,,,-1360628461956729212,0.0,7.533988391164559,159.0,1.0,56,30,0.0,84003,433772915044453,9,34.676429748535156,-339.6120477548484,0.5538852175418871,16,-175504.10857250335,340282346638528860000000000000000000000,1176450050,,,,0,,6,,31.07642936706543,-8.2801328971982,1.9344502817235627,-8.2801328971982,1.5000000237487257,Q,30811816380000
Raw,1676593754999,511043000000,,,-1360628461956729212,0.0,7.533988391164559,159.0,1.0,56,34,0.0,84003,433772918865671,9,38.90056228637695,-320.1749591297157,0.15,16,-171371.30663570444,340282346638528860000000000000000000000,1176450050,,,,0,,6,,35.30056381225586,-9.942473843693731,1.9344502817235627,-9.942473843693731,1.5000000237487257,Q,30811816380000
Raw,1676593754999,511043000000,,,-1360628461956729212,0.0,7.533988391164559,159.0,1.0,56,36,0.0,84003,433772920860249,9,43.402767181396484,208.84228024968377,0.15,16,98443.37665114379,340282346638528860000000000000000000000,1176450050,,,,0,,6,,39.80276870727539,-10.865996591746804,1.9344502817235627,-10.865996591746804,1.5000000237487257,Q,30811816380000
UncalGyro,1676593755124,30811946985046,0.8127562,0.714865,0.056046885,0.0006376181,-0.0013482708,-0.00032223668
Fix,GPS,37.4312844419,-122.1550395373,-8.672774581393563,0.9208348,3.1923108,66.296844,1676593754999,0.12736054,68.85541,30811816380000,3.0
UncalAccel,1676593755129,30811951222310,0.5288138,0.51864433,10.774282,0.037048545,-0.031444572,0.0098014325
UncalMag,1676593755132,30811954592956,-186.5258,745.786,395.35318,-174.57417,771.0116,430.86337
OrientationDeg,1676593755129,30811951222310,145.0,2.0,-8.0
Fix,FLP,37.4312827000,-122.1550386000,-16.100000381469727,0.9369616,4.045,77.25119,1676593754994,0.12736054,68.85541,30811816380000,2.0407546
UncalGyro,1676593755133,30811955465901,0.8127562,0.66966105,0.062308256,0.0006376181,-0.0013482708,-0.00032223668
UncalAccel,1676593755137,30811959708242,0.5820541,0.51445687,10.727024,0.037048545,-0.031444572,0.0098014325
OrientationDeg,1676593755137,30811959708242,145.0,2.0,-9.0
UncalGyro,1676593755141,30811963949320,0.784351,0.644921,0.068264194,0.0006376181,-0.0013482708,-0.00032223668
UncalMag,1676593755143,30811964590189,-185.9158,745.6152,395.0604,-174.57417,771.0116,430.86337
UncalAccel,1676593755146,30811968187032,0.61914283,0.61016977,10.769497,0.037048545,-0.031444572,0.0098014325
OrientationDeg,1676593755146,30811968187032,145.0,3.0,-9.0
UncalGyro,1676593755150,30811972431152,0.7305948,0.6441574,0.0777326,0.0006376181,-0.0013482708,-0.00032223668
UncalMag,1676593755152,30811974594828,-186.4038,746.1642,396.1706,-174.57417,771.0116,430.86337
UncalAccel,1676593755154,30811976669809,0.64247286,0.73519474,10.759327,0.037048545,-0.031444572,0.0098014325
OrientationDeg,1676593755154,30811976669809,145.0,3.0,-9.0
UncalGyro,1676593755158,30811980908122,0.6649268,0.6424775,0.09162979,0.0006376181,-0.0013482708,-0.00032223668
UncalMag,1676593755162,30811984592346,-186.2208,745.70056,395.08478,-174.57417,771.0116,430.86337
UncalAccel,1676593755163,30811985148417,0.6520442,0.8596215,10.711471,0.037048545,-0.031444572,0.0098014325
OrientationDeg,1676593755163,30811985148417,145.0,3.0,-10.0
UncalGyro,1676593755167,30811989389344,0.5908594,0.6247624,0.09972375,0.0006376181,-0.0013482708,-0.00032223668
UncalAccel,1676593755172,30811993631897,0.61794645,1.0079765,10.6815605,0.037048545,-0.031444572,0.0098014325
OrientationDeg,1676593755171,30811993631897,145.0,4.0,-10.0
UncalMag,1676593755173,30811994592428,-185.3302,744.871,395.951,-174.57417,771.0116,430.86337
UncalGyro,1676593755175,30811997871623,0.5316055,0.61010164,0.09865474,0.0006376181,-0.0013482708,-0.00032223668
UncalAccel,1676593755180,30812002111124,0.70947194,1.0803595,10.58166,0.037048545,-0.031444572,0.0098014325
OrientationDeg,1676593755180,30812002111124,144.0,4.0,-10.0
UncalMag,1676593755182,30812004591248,-185.2204,745.054,396.2438,-174.57417,771.0116,430.86337
UncalGyro,1676593755184,30812006355428,0.49189925,0.59437186,0.09728029,0.0006376181,-0.0013482708,-0.00032223668
UncalAccel,1676593755188,30812010592133,0.7322037,1.1192428,10.6815605,0.037048545,-0.031444572,0.0098014325
OrientationDeg,1676593755188,30812010592133,144.0,4.0,-10.0
UncalMag,1676593755192,30812014592957,-185.4156,745.115,395.6582,-174.57417,771.0116,430.86337
UncalGyro,1676593755192,30812014833863,0.46944994,0.64568454,0.09056077,0.0006376181,-0.0013482708,-0.00032223668
UncalAccel,1676593755197,30812019072806,0.55334026,1.1270195,10.909476,0.037048545,-0.031444572,0.0098014325
OrientationDeg,1676593755197,30812019072806,144.0,4.0,-11.0
UncalGyro,1676593755201,30812023313793,0.46883908,0.7484626,0.080634214,0.0006376181,-0.0013482708,-0.00032223668
UncalMag,1676593755202,30812024590150,-185.1228,744.7734,395.4386,-174.57417,771.0116,430.86337
UncalAccel,1676593755205,30812027553061,0.53240305,1.1276177,10.561321,0.037048545,-0.031444572,0.0098014325
OrientationDeg,1676593755205,30812027553061,144.0,5.0,-11.0
UncalGyro,1676593755210,30812031795522,0.48166725,0.8219192,0.071776666,0.0006376181,-0.0013482708,-0.00032223668
UncalMag,1676593755212,30812034592999,-185.1106,744.9442,395.3654,-174.57417,771.0116,430.86337
UncalAccel,1676593755214,30812036041444,0.4671986,1.1994023,10.240683,0.037048545,-0.031444572,0.0098014325
OrientationDeg,1676593755214,30812036041444,144.0,5.0,-11.0
UncalGyro,1676593755218,30812040277142,0.49693888,0.87598073,0.06734789,0.0006376181,-0.0013482708,-0.00032223668
UncalAccel,1676593755222,30812044516797,0.28175488,1.3567305,9.981061,0.037048545,-0.031444572,0.0098014325
OrientationDeg,1676593755222,30812044516797,144.0,6.0,-11.0
UncalMag,1676593755223,30812044589866,-184.59819,744.8954,396.1828,-174.57417,771.0116,430.86337
UncalGyro,1676593755226,30812048756777,0.50900346,0.91629785,0.058337633,0.0006376181,-0.0013482708,-0.00032223668
UncalAccel,1676593755230,30812052998954,0.021535404,1.4614165,9.568299,0.037048545,-0.031444572,0.0098014325
UncalMag,1676593755232,30812054589785,-184.59819,744.8954,396.1828,-174.57417,771.0116,430.86337
OrientationDeg,1676593755230,30812052998954,144.0,6.0,-11.0
UncalGyro,1676593755235,30812057239728,0.52274793,0.90010995,0.054367006,0.0006376181,-0.0013482708,-0.00032223668
UncalAccel,1676593755239,30812061478772,-0.1896312,1.4847465,8.998808,0.037048545,-0.031444572,0.0098014325
OrientationDeg,1676593755239,30812061478772,144.0,6.0,-12.0
UncalMag,1676593755242,30812064592674,-183.6222,743.8584,395.9144,-174.57417,771.0116,430.86337
UncalGyro,1676593755243,30812065721071,0.5458081,0.79229224,0.071776666,0.0006376181,-0.0013482708,-0.00032223668
UncalAccel,1676593755247,30812069955813,-0.31106696,1.451247,8.62134,0.037048545,-0.031444572,0.0098014325
OrientationDeg,1676593755247,30812069955813,144.0,7.0,-12.0
UncalGyro,1676593755252,30812074195182,0.57558775,0.6394232,0.10949759,0.0006376181,-0.0013482708,-0.00032223668
UncalMag,1676593755253,30812074589785,-183.305,743.78516,396.134,-174.57417,771.0116,430.86337
UncalAccel,1676593755256,30812078440575,-0.46899325,1.4644074,8.605786,0.037048545,-0.031444572,0.0098014325
OrientationDeg,1676593755256,30812078440575,144.0,7.0,-12.0
UncalGyro,1676593755260,30812082683423,0.60048056,0.5035057,0.15225816,0.0006376181,-0.0013482708,-0.00032223668
UncalMag,1676593755262,30812084592512,-183.305,743.78516,396.134,-174.57417,771.0116,430.86337
UncalAccel,1676593755264,30812086920829,-0.56530434,1.4829519,8.709874,0.037048545,-0.031444572,0.0098014325
OrientationDeg,1676593755264,30812086920829,144.0,7.0,-13.0
UncalGyro,1676593755269,30812091164014,0.61162883,0.40607268,0.19364429,0.0006376181,-0.0013482708,-0.00032223668
UncalMag,1676593755272,30812094591495,-182.817,743.3582,396.25598,-174.57417,771.0116,430.86337
UncalAccel,1676593755273,30812095415153,-0.62931234,1.4871392,8.905488,0.037048545,-0.031444572,0.0098014325
OrientationDeg,1676593755273,30812095415153,144.0,7.0,-13.0
UncalGyro,1676593755277,30812099641686,0.59803706,0.3465133,0.2302962,0.0006376181,-0.0013482708,-0.00032223668
UncalAccel,1676593755281,30812103883263,-0.65084773,1.5631114,9.205189,0.037048545,-0.031444572,0.0098014325
UncalMag,1676593755282,30812104590152,-183.7564,743.346,396.52438,-174.57417,771.0116,430.86337
OrientationDeg,1676593755281,30812103883263,144.0,8.0,-13.0
UncalGyro,1676593755286,30812108127089,0.5516113,0.33337972,0.25167647,0.0006376181,-0.0013482708,-0.00032223668
UncalAccel,1676593755290,30812112363966,-0.5910272,1.6827525,9.42473,0.037048545,-0.031444572,0.0098014325
OrientationDeg,1676593755290,30812112363966,144.0,8.0,-13.0
UncalMag,1676593755292,30812114590681,-183.7564,743.346,396.52438,-174.57417,771.0116,430.86337
UncalGyro,1676593755294,30812116604943,0.47326785,0.36682457,0.25518894,0.0006376181,-0.0013482708,-0.00032223668
UncalAccel,1676593755298,30812120843002,-0.4671986,1.7653049,9.458828,0.037048545,-0.031444572,0.0098014325
OrientationDeg,1676593755298,30812120843002,144.0,8.0,-14.0
UncalMag,1676593755302,30812124592350,-183.366,742.84576,397.00018,-174.57417,771.0116,430.86337
UncalGyro,1676593755303,30812125088555,0.37797287,0.43004912,0.24831672,0.0006376181,-0.0013482708,-0.00032223668
UncalAccel,1676593755307,30812129324548,-0.3481557,1.8520447,9.420543,0.037048545,-0.031444572,0.0098014325
OrientationDeg,1676593755307,30812129324548,144.0,8.0,-14.0
UncalGyro,1676593755311,30812133569349,0.28160888,0.5123632,0.23411411,0.0006376181,-0.0013482708,-0.00032223668
UncalMag,1676593755312,30812134599593,-183.0488,742.84576,396.62198,-174.57417,771.0116,430.86337
UncalAccel,1676593755315,30812137806227,-0.357727,1.9477576,9.376874,0.037048545,-0.031444572,0.0098014325
OrientationDeg,1676593755315,30812137806227,144.0,8.0,-14.0
UncalGyro,1676593755320,30812142047438,0.19746219,0.59757894,0.2171626,0.0006376181,-0.0013482708,-0.00032223668
UncalMag,1676593755322,30812144590072,-182.8902,742.065,396.9148,-174.57417,771.0116,430.86337
UncalAccel,1676593755324,30812146285140,-0.48095736,1.995614,9.166306,0.037048545,-0.031444572,0.0098014325
OrientationDeg,1676593755324,30812146285140,144.0,9.0,-14.0
UncalGyro,1676593755328,30812150528538,0.12492194,0.64675355,0.20021108,0.0006376181,-0.0013482708,-0.00032223668
UncalMag,1676593755332,30812154590031,-182.90239,743.5656,397.2808,-174.57417,771.0116,430.86337
UncalAccel,1676593755332,30812154766087,-0.59342,1.9280169,8.950952,0.037048545,-0.031444572,0.0098014325
OrientationDeg,1676593755332,30812154766087,144.0,9.0,-14.0
UncalGyro,1676593755337,30812159007959,0.055588737,0.6409504,0.1957823,0.0006376181,-0.0013482708,-0.00032223668
UncalAccel,1676593755341,30812163248438,-0.78424764,1.8837496,8.907282,0.037048545,-0.031444572,0.0098014325
OrientationDeg,1676593755341,30812163248438,143.0,9.0,-14.0
UncalMag,1676593755342,30812164600814,-183.03659,743.1264,397.537,-174.57417,771.0116,430.86337
UncalGyro,1676593755345,30812167491684,-0.011453724,0.59406644,0.20708331,0.00064296776,-0.0013474787,-0.0003223227
UncalAccel,1676593755349,30812171731918,-0.94636136,1.8155541,8.882756,0.037048545,-0.031444572,0.0098014325
OrientationDeg,1676593755349,30812171731918,143.0,9.0,-14.0
UncalMag,1676593755352,30812174600611,-181.92639,742.3944,395.646,-174.57417,771.0116,430.86337
UncalGyro,1676593755353,30812175984105,-0.078343466,0.5296202,0.23380867,0.0006458582,-0.0013470508,-0.0003223692
UncalAccel,1676593755358,30812180221807,-0.9403793,1.5810575,8.912068,0.037048545,-0.031444572,0.0098014325
OrientationDeg,1676593755358,30812180221807,143.0,10.0,-14.0
UncalGyro,1676593755362,30812184464025,-0.14248432,0.48762318,0.28603765,0.0006462955,-0.001346986,-0.0003223762
UncalMag,1676593755362,30812184594304,-182.2802,743.48016,397.1222,-174.57417,771.0116,430.86337
UncalAccel,1676593755366,30812188699692,-1.0504491,1.5080764,8.96471,0.037048545,-0.031444572,0.0098014325
OrientationDeg,1676593755366,30812188699692,143.0,10.0,-14.0
UncalGyro,1676593755370,30812192939305,-0.17837265,0.5195409,0.33353242,0.00064636173,-0.0013469763,-0.00032237725
UncalMag,1676593755372,30812194600368,-181.79219,742.858,396.2316,-174.57417,771.0116,430.86337
UncalAccel,1676593755375,30812197181992,-1.0977074,1.4889339,8.864211,0.037048545,-0.031444572,0.0098014325
OrientationDeg,1676593755375,30812197181992,143.0,10.0,-14.0
UncalGyro,1676593755379,30812201423509,-0.19211712,0.6206391,0.36743546,0.00064637174,-0.0013469746,-0.00032237743
UncalMag,1676593755382,30812204600490,-181.6946,742.7726,396.3292,-174.57417,771.0116,430.86337
UncalAccel,1676593755383,30812205663976,-1.038485,1.3794622,8.712267,0.037048545,-0.031444572,0.0098014325
OrientationDeg,1676593755383,30812205663976,143.0,10.0,-14.0
UncalGyro,1676593755387,30812209902695,-0.2049453,0.75884736,0.39828414,0.00064637326,-0.0013469744,-0.00032237743
UncalAccel,1676593755392,30812214133855,-1.0492527,1.457229,8.187042,0.037048545,-0.031444572,0.0098014325
UncalMag,1676593755392,30812214596299,-181.6946,742.858,396.2316,-174.57417,771.0116,430.86337
OrientationDeg,1676593755392,30812214133855,142.0,11.0,-14.0
UncalGyro,1676593755396,30812218386176,-0.20738874,0.86132,0.41370848,0.0006463735,-0.0013469744,-0.00032237743
UncalAccel,1676593755400,30812222623784,-1.2227324,1.672583,7.5643106,0.037048545,-0.031444572,0.0098014325
UncalMag,1676593755402,30812224600490,-181.78,743.15076,397.3906,-174.57417,771.0116,430.86337
OrientationDeg,1676593755400,30812222623784,142.0,11.0,-14.0
UncalGyro,1676593755404,30812226865383,-0.20051652,0.87857693,0.4016439,0.0006463735,-0.0013469744,-0.00032237743
UncalAccel,1676593755409,30812231105384,-1.4297116,1.9262222,6.9361944,0.037048545,-0.031444572,0.0098014325
OrientationDeg,1676593755409,30812231105384,142.0,11.0,-14.0
UncalMag,1676593755412,30812234600572,-181.963,743.4558,396.134,-174.57417,771.0116,430.86337
UncalGyro,1676593755413,30812235346940,-0.18310685,0.79076505,0.3662137,0.0006463735,-0.0013469744,-0.00032237743
UncalAccel,1676593755417,30812239587602,-1.6761723,2.0787647,6.5090756,0.037048545,-0.031444572,0.0098014325
OrientationDeg,1676593755417,30812239587602,142.0,12.0,-14.0
UncalGyro,1676593755421,30812243828863,-0.15989397,0.5917757,0.3115413,0.0006463735,-0.0013469744,-0.00032237743
UncalMag,1676593755422,30812244590359,-181.65799,743.37036,395.7436,-174.57417,771.0116,430.86337
UncalAccel,1676593755426,30812248067461,-1.919642,2.2259233,6.411568,0.037048545,-0.031444572,0.0098014325
OrientationDeg,1676593755426,30812248067461,142.0,12.0,-14.0
UncalGyro,1676593755430,30812252308803,-0.129198,0.32834008,0.24846944,0.0006463735,-0.0013469744,-0.00032237743
UncalMag,1676593755432,30812254600491,-181.6214,744.0658,395.7924,-174.57417,771.0116,430.86337
UncalAccel,1676593755434,30812256548306,-1.9453648,2.2731814,6.582655,0.037048545,-0.031444572,0.0098014325
OrientationDeg,1676593755434,30812256548306,142.0,12.0,-14.0
UncalGyro,1676593755438,30812260789731,-0.09162979,0.06612616,0.18432859,0.0006463735,-0.0013469744,-0.00032237743
UncalMag,1676593755442,30812264600329,-181.6458,743.6144,395.3166,-174.57417,771.0116,430.86337
UncalAccel,1676593755443,30812265026730,-1.911267,2.3012972,7.112665,0.037048545,-0.031444572,0.0098014325
OrientationDeg,1676593755443,30812265026730,141.0,12.0,-14.0
UncalGyro,1676593755447,30812269260139,-0.05497787,-0.119729586,0.11804971,0.0006463735,-0.0013469744,-0.00032237743
UncalAccel,1676593755451,30812273510709,-1.7856439,2.2295125,7.6534433,0.037048545,-0.031444572,0.0098014325
UncalMag,1676593755452,30812274590278,-181.63359,743.8828,395.51178,-174.57417,771.0116,430.86337
OrientationDeg,1676593755451,30812273510709,141.0,12.0,-14.0
UncalGyro,1676593755455,30812277752845,-0.021685716,-0.21762075,0.062002823,0.0006463735,-0.0013469744,-0.00032237743
UncalAccel,1676593755459,30812281993262,-1.5672989,2.0147567,7.9704924,0.037048545,-0.031444572,0.0098014325
OrientationDeg,1676593755459,30812281993262,141.0,12.0,-14.0
UncalMag,1676593755462,30812284600695,-181.7434,743.6144,395.57278,-174.57417,771.0116,430.86337
UncalGyro,1676593755464,30812286230842,0.001985312,-0.22831088,0.021227567,0.0006463735,-0.0013469744,-0.00032237743
UncalAccel,1676593755468,30812290473437,-1.3704891,1.7617157,8.087741,0.037048545,-0.031444572,0.0098014325
OrientationDeg,1676593755468,30812290473437,141.0,11.0,-14.0
UncalMag,1676593755472,30812294600614,-181.7068,744.3098,395.24338,-174.57417,771.0116,430.86337
UncalGyro,1676593755472,30812294713712,0.0047342055,-0.15149458,-0.00076358154,0.0006463735,-0.0013469744,-0.00032237743
UncalAccel,1676593755476,30812298953550,-1.3010973,1.4416757,7.960921,0.037048545,-0.031444572,0.0098014325
OrientationDeg,1676593755476,30812298953550,141.0,11.0,-14.0
UncalGyro,1676593755481,30812303194272,-0.012980887,-0.041233405,-0.00030543262,0.0006463735,-0.0013469744,-0.00032237743
UncalMag,1676593755482,30812304600452,-181.7068,744.32196,395.8534,-174.57417,771.0116,430.86337
UncalAccel,1676593755485,30812307434314,-1.3351951,1.154537,7.60439,0.037048545,-0.031444572,0.0098014325
OrientationDeg,1676593755485,30812307434314,141.0,11.0,-13.0
UncalGyro,1676593755489,30812311676420,-0.048716504,0.0364992,0.025503624,0.0006463735,-0.0013469744,-0.00032237743
UncalMag,1676593755492,30812314582792,-181.8044,744.383,395.0238,-174.57417,771.0116,430.86337
UncalAccel,1676593755493,30812315913704,-1.550549,1.0007981,7.1455665,0.037048545,-0.031444572,0.0098014325
OrientationDeg,1676593755493,30812315913704,141.0,11.0,-13.0
UncalGyro,1676593755498,30812320152312,-0.093767814,0.048716504,0.06612616,0.0006463735,-0.0013469744,-0.00032237743
UncalAccel,1676593755502,30812324395434,-1.8765712,0.93738824,6.6041903,0.037048545,-0.031444572,0.0098014325
UncalMag,1676593755502,30812324601307,-181.8044,744.3098,395.24338,-174.57417,771.0116,430.86337
OrientationDeg,1676593755502,30812324395434,141.0,11.0,-13.0
UncalGyro,1676593755506,30812328637704,-0.13652839,-0.04550946,0.111941054,0.0006463735,-0.0013469744,-0.00032237743
UncalAccel,1676593755510,30812332877877,-2.2091734,0.92602235,6.3397837,0.037048545,-0.031444572,0.0098014325
OrientationDeg,1676593755510,30812332877877,141.0,11.0,-13.0
UncalMag,1676593755512,30812334600656,-182.2314,744.2976,395.3776,-174.57417,771.0116,430.86337
UncalGyro,1676593755515,30812337118305,-0.17684549,-0.25457808,0.15286903,0.0006463735,-0.0013469744,-0.00032237743
UncalAccel,1676593755519,30812341357960,-2.4454648,0.95772725,6.5814586,0.037048545,-0.031444572,0.0098014325
OrientationDeg,1676593755519,30812341357960,141.0,11.0,-13.0
UncalMag,1676593755522,30812344600697,-182.4754,743.78516,395.7436,-174.57417,771.0116,430.86337
UncalGyro,1676593755523,30812345600096,-0.21029036,-0.49495357,0.19532417,0.0006463735,-0.0013469744,-0.00032237743
UncalAccel,1676593755527,30812349838144,-2.6213372,1.1318051,7.55773,0.037048545,-0.031444572,0.0098014325
OrientationDeg,1676593755527,30812349838144,141.0,11.0,-13.0
UncalGyro,1676593755532,30812354075408,-0.23258694,-0.6462954,0.23457226,0.0006463735,-0.0013469744,-0.00032237743
UncalMag,1676593755532,30812354591379,-182.3412,744.21216,395.4874,-174.57417,771.0116,430.86337
UncalAccel,1676593755536,30812358309326,-2.5555346,1.3806586,8.182257,0.037048545,-0.031444572,0.0098014325
OrientationDeg,1676593755536,30812358309326,141.0,11.0,-13.0
UncalGyro,1676593755540,30812362561146,-0.22235495,-0.6947065,0.27198774,0.0006463735,-0.0013469744,-0.00032237743
UncalMag,1676593755542,30812364590118,-182.2314,744.2732,394.40158,-174.57417,771.0116,430.86337
UncalAccel,1676593755544,30812366801290,-2.3724837,1.5200406,8.578867,0.037048545,-0.031444572,0.0098014325
OrientationDeg,1676593755544,30812366801290,141.0,10.0,-13.0
UncalGyro,1676593755549,30812371044444,-0.17379116,-0.6383542,0.3089451,0.0006463735,-0.0013469744,-0.00032237743
UncalMag,1676593755552,30812374600372,-183.2806,744.1878,395.3776,-174.57417,771.0116,430.86337
UncalAccel,1676593755553,30812375279134,-2.1882362,1.5684953,8.833105,0.037048545,-0.031444572,0.0098014325
OrientationDeg,1676593755553,30812375279134,140.0,10.0,-13.0
UncalGyro,1676593755557,30812379513610,-0.09040806,-0.50579643,0.3381139,0.0006463735,-0.0013469744,-0.00032237743
UncalAccel,1676593755562,30812383762694,-2.0751755,1.6791633,9.023932,0.037048545,-0.031444572,0.0098014325
UncalMag,1676593755562,30812384590078,-183.183,744.1268,395.9632,-174.57417,771.0116,430.86337
OrientationDeg,1676593755561,30812383762694,140.0,10.0,-13.0
UncalGyro,1676593755566,30812388004028,0.014049901,-0.344528,0.36193767,0.0006463735,-0.0013469744,-0.00032237743
UncalAccel,1676593755570,30812392245615,-1.869991,1.5607185,9.140582,0.037048545,-0.031444572,0.0098014325
OrientationDeg,1676593755570,30812392245615,140.0,9.0,-13.0
UncalMag,1676593755572,30812394600495,-183.7564,744.84656,394.2186,-174.57417,771.0116,430.86337
UncalGyro,1676593755574,30812396484833,0.11209377,-0.19333886,0.4005749,0.0006463735,-0.0013469744,-0.00032237743
UncalAccel,1676593755578,30812400724223,-1.5918252,0.88235337,8.868998,0.037048545,-0.031444572,0.0098014325
OrientationDeg,1676593755578,30812400724223,140.0,9.0,-13.0
UncalMag,1676593755582,30812404600658,-183.98819,744.52936,395.4752,-174.57417,771.0116,430.86337
UncalGyro,1676593755582,30812404962952,0.18005253,-0.11682798,0.4877759,0.0006463735,-0.0013469744,-0.00032237743
UncalAccel,1676593755587,30812409194062,-1.4500505,0.07477571,8.410771,0.037048545,-0.031444572,0.0098014325
OrientationDeg,1676593755587,30812409194062,140.0,9.0,-13.0
UncalGyro,1676593755591,30812413443950,0.24938573,-0.13881913,0.63087106,0.0006463735,-0.0013469744,-0.00032237743
UncalMag,1676593755592,30812414589794,-183.61,743.9316,395.4508,-174.57417,771.0116,430.86337
UncalAccel,1676593755595,30812417683219,-1.2442678,0.4019942,8.129017,0.037048545,-0.031444572,0.0098014325
OrientationDeg,1676593755595,30812417683219,139.0,9.0,-13.0
UncalGyro,1676593755599,30812421931316,0.34483343,-0.24877487,0.7780896,0.0006463735,-0.0013469744,-0.00032237743
UncalMag,1676593755602,30812424600455,-184.403,744.627,395.8778,-174.57417,771.0116,430.86337
UncalAccel,1676593755604,30812426167573,-0.7968099,0.6873383,8.230712,0.037048545,-0.031444572,0.0098014325
OrientationDeg,1676593755604,30812426167573,139.0,9.0,-14.0
UncalGyro,1676593755608,30812430412630,0.44394633,-0.38453966,0.90102625,0.0006463735,-0.0013469744,-0.00032237743
UncalMag,1676593755612,30812434600699,-184.2322,744.139,396.9636,-174.57417,771.0116,430.86337
UncalAccel,1676593755612,30812434658184,-0.5808577,0.51146585,8.29472,0.037048545,-0.031444572,0.0098014325
OrientationDeg,1676593755612,30812434658184,139.0,8.0,-14.0
UncalGyro,1676593755616,30812438878795,0.5386304,-0.49953505,1.018465,0.0006463735,-0.0013469744,-0.00032237743
UncalAccel,1676593755621,30812443129192,-0.46301118,0.066400826,8.212168,0.037048545,-0.031444572,0.0098014325
OrientationDeg,1676593755621,30812443129192,138.0,8.0,-14.0
UncalMag,1676593755622,30812444589835,-184.46399,743.6632,396.012,-174.57417,771.0116,430.86337
UncalGyro,1676593755625,30812447368155,0.6243043,-0.57986385,1.1623238,0.0006463735,-0.0013469744,-0.00032237743
UncalAccel,1676593755629,30812451612337,-0.071186475,-0.055633128,8.29113,0.037048545,-0.031444572,0.0098014325
OrientationDeg,1676593755629,30812451612337,137.0,8.0,-15.0
UncalMag,1676593755632,30812454600537,-184.75679,744.0902,395.8778,-174.57417,771.0116,430.86337
UncalGyro,1676593755633,30812455851249,0.70463306,-0.59971696,1.3347405,0.0006463735,-0.0013469744,-0.00032237743
UncalAccel,1676593755638,30812460090283,0.32422748,0.10468599,8.383852,0.037048545,-0.031444572,0.0098014325
OrientationDeg,1676593755638,30812460090283,137.0,7.0,-15.0
UncalGyro,1676593755642,30812464334586,0.7805331,-0.5726862,1.5039502,0.0006463735,-0.0013469744,-0.00032237743
UncalMag,1676593755642,30812464589917,-186.0988,744.2854,397.293,-174.57417,771.0116,430.86337
UncalAccel,1676593755646,30812468581514,-0.18424734,0.9403793,7.989635,0.037048545,-0.031444572,0.0098014325
OrientationDeg,1676593755646,30812468581514,136.0,7.0,-16.0
UncalGyro,1676593755650,30812472812309,0.7658723,-0.6844745,1.4932601,0.0006463735,-0.0013469744,-0.00032237743
UncalMag,1676593755652,30812474600456,-186.2086,744.1634,396.2926,-174.57417,771.0116,430.86337
UncalAccel,1676593755655,30812477049492,-2.4544377,3.4857445,7.3082786,0.037048545,-0.031444572,0.0098014325
OrientationDeg,1676593755655,30812477049492,135.0,6.0,-16.0
UncalGyro,1676593755659,30812481292819,0.573297,-1.0421361,1.1527027,0.0006463735,-0.0013469744,-0.00032237743
UncalMag,1676593755662,30812484592440,-187.4896,743.7242,396.9514,-174.57417,771.0116,430.86337
UncalAccel,1676593755663,30812485533154,-3.0819557,5.5800624,7.170093,0.037048545,-0.031444572,0.0098014325
OrientationDeg,1676593755663,30812485533154,135.0,5.0,-16.0
UncalGyro,1676593755667,30812489773512,0.36361754,-1.4453071,0.68019843,0.0006463735,-0.0013469744,-0.00032237743
UncalAccel,1676593755672,30812494014346,-1.8771694,5.371289,7.431509,0.037048545,-0.031444572,0.0098014325
UncalMag,1676593755672,30812494603101,-188.4168,744.0536,396.805,-174.57417,771.0116,430.86337
OrientationDeg,1676593755672,30812494014346,135.0,4.0,-16.0
UncalGyro,1676593755676,30812498253116,0.2415972,-1.7631098,0.27382034,0.0006463735,-0.0013469744,-0.00032237743
UncalAccel,1676593755680,30812502485445,-0.40857446,3.650251,7.9507513,0.037048545,-0.031444572,0.0098014325
OrientationDeg,1676593755680,30812502485445,135.0,4.0,-17.0
UncalMag,1676593755682,30812504600579,-188.62419,744.0902,398.26898,-174.57417,771.0116,430.86337
UncalGyro,1676593755684,30812506736687,0.19364429,-1.9894354,0.03726278,0.0006463735,-0.0013469744,-0.00032237743
UncalAccel,1676593755688,30812510974023,0.7328019,1.9076779,8.739784,0.037048545,-0.031444572,0.0098014325
OrientationDeg,1676593755688,30812510974023,135.0,3.0,-17.0
UncalMag,1676593755692,30812514600620,-190.015,743.5412,398.2934,-174.57417,771.0116,430.86337
UncalGyro,1676593755693,30812515210706,0.20662516,-2.115121,-0.020616703,0.0006463735,-0.0013469744,-0.00032237743
UncalAccel,1676593755697,30812519457300,1.4267205,0.92303133,10.052248,0.037048545,-0.031444572,0.0098014325
OrientationDeg,1676593755697,30812519457300,135.0,1.0,-17.0
UncalGyro,1676593755701,30812523698591,0.26908615,-2.0708332,0.045356743,0.0006463735,-0.0013469744,-0.00032237743
UncalMag,1676593755702,30812524590285,-189.4904,743.6632,399.2816,-174.57417,771.0116,430.86337
UncalAccel,1676593755705,30812527940768,1.5278172,0.7298109,11.371291,0.037048545,-0.031444572,0.0098014325
UncalGyro,1676593755710,30812532179853,0.35888332,-1.8843665,0.14630222,0.0006463735,-0.0013469744,-0.00032237743
OrientationDeg,1676593755705,30812527940768,135.0,0.0,-17.0
UncalMag,1676593755712,30812534600498,-190.97879,743.1874,398.7204,-174.57417,771.0116,430.86337
UncalAccel,1676593755714,30812536419315,1.3387842,1.0534402,12.0843525,0.037048545,-0.031444572,0.0098014325
OrientationDeg,1676593755714,30812536419315,135.0,0.0,-17.0
UncalGyro,1676593755718,30812540659916,0.4569272,-1.6610953,0.22235495,0.0006463735,-0.0013469744,-0.00032237743
UncalMag,1676593755722,30812544600783,-191.3692,743.6388,399.6842,-174.57417,771.0116,430.86337
UncalAccel,1676593755722,30812544894576,1.3130615,1.3597214,12.144772,0.037048545,-0.031444572,0.0098014325
OrientationDeg,1676593755722,30812544894576,134.0,0.0,-17.0
UncalGyro,1676593755727,30812549132034,0.55756724,-1.4860824,0.25411993,0.0006463735,-0.0013469744,-0.00032237743
UncalAccel,1676593755731,30812553384454,1.6546369,1.3908281,11.827125,0.037048545,-0.031444572,0.0098014325
OrientationDeg,1676593755731,30812553384454,134.0,-1.0,-18.0
UncalMag,1676593755732,30812554590041,-192.1256,743.2972,400.2332,-174.57417,771.0116,430.86337
UncalGyro,1676593755735,30812557636540,0.6637051,-1.3541355,0.25686884,0.0006463735,-0.0013469744,-0.00032237743
UncalAccel,1676593755739,30812561864496,2.062613,1.1347961,11.811571,0.037048545,-0.031444572,0.0098014325
OrientationDeg,1676593755739,30812561864496,134.0,-2.0,-18.0
UncalMag,1676593755742,30812564609084,-192.24759,743.0288,400.17218,-174.57417,771.0116,430.86337
UncalGyro,1676593755744,30812566103276,0.7583892,-1.2121093,0.25610524,0.0006463735,-0.0013469744,-0.00032237743
UncalAccel,1676593755749,30812570339299,2.3742783,0.97866446,11.867204,0.037048545,-0.031444572,0.0098014325
OrientationDeg,1676593755748,30812570339299,134.0,-2.0,-18.0
UncalGyro,1676593755752,30812574582595,0.84223044,-1.042747,0.2518292,0.0006463735,-0.0013469744,-0.00032237743
UncalMag,1676593755752,30812574607742,-193.5042,742.95557,401.2702,-174.57417,771.0116,430.86337
UncalAccel,1676593755756,30812578817683,2.4598217,1.07019,11.828918,0.037048545,-0.031444572,0.0098014325
OrientationDeg,1676593755756,30812578817683,134.0,-3.0,-19.0
UncalGyro,1676593755761,30812583066543,0.9053023,-0.8559749,0.23411411,0.0006463735,-0.0013469744,-0.00032237743
UncalMag,1676593755762,30812584600540,-193.5042,742.95557,401.2702,-174.57417,771.0116,430.86337
UncalAccel,1676593755765,30812587304682,2.3748765,1.3196417,11.521441,0.037048545,-0.031444572,0.0098014325
OrientationDeg,1676593755766,30812587304682,134.0,-3.0,-19.0
UncalGyro,1676593755769,30812591548375,0.93386024,-0.70341134,0.20555615,0.0006463735,-0.0013469744,-0.00032237743
UncalMag,1676593755772,30812594600459,-194.37039,742.6018,401.81918,-174.57417,771.0116,430.86337
UncalAccel,1676593755773,30812595787114,2.2713869,1.5828521,11.133205,0.037048545,-0.031444572,0.0098014325
OrientationDeg,1676593755773,30812595787114,134.0,-4.0,-19.0
UncalGyro,1676593755778,30812600026424,0.93508196,-0.60231316,0.16722436,0.0006463735,-0.0013469744,-0.00032237743
UncalAccel,1676593755782,30812604263514,2.1918256,1.7940187,10.764112,0.037048545,-0.031444572,0.0098014325
OrientationDeg,1676593755782,30812604263514,133.0,-4.0,-20.0
UncalMag,1676593755782,30812604589758,-194.224,741.6624,402.55118,-174.57417,771.0116,430.86337
UncalGyro,1676593755786,30812608505072,0.9219484,-0.5381723,0.11713341,0.0006463735,-0.0013469744,-0.00032237743
UncalAccel,1676593755790,30812612737341,2.1224337,1.9758734,10.328021,0.037048545,-0.031444572,0.0098014325
OrientationDeg,1676593755790,30812612737341,133.0,-4.0,-20.0
UncalMag,1676593755792,30812614600541,-194.224,741.6624,402.55118,-174.57417,771.0116,430.86337
UncalGyro,1676593755794,30812616990830,0.90194255,-0.51893,0.064751714,0.0006463735,-0.0013469744,-0.00032237743
Fix,FLP,37.4312819000,-122.1550408000,-16.100000381469727,0.9283987,4.184,78.812325,1676593755574,,,30812396484833,2.0407546
UncalAccel,1676593755799,30812621228776,2.0697916,2.1003,10.183853,0.037048545,-0.031444572,0.0098014325
OrientationDeg,1676593755799,30812621228776,133.0,-4.0,-21.0
UncalMag,1676593755802,30812624600663,-194.55339,741.394,402.50238,-174.57417,771.0116,430.86337
UncalGyro,1676593755803,30812625473740,0.88315845,-0.49220467,0.019394971,0.0006463735,-0.0013469744,-0.00032237743
UncalAccel,1676593755807,30812629709255,2.0889342,2.1966112,10.112068,0.037048545,-0.031444572,0.0098014325
OrientationDeg,1676593755807,30812629709255,133.0,-5.0,-21.0
UncalGyro,1676593755811,30812633950517,0.84772825,-0.44715336,-0.018784106,0.0006463735,-0.0013469744,-0.00032237743
UncalMag,1676593755812,30812634589433,-194.26059,741.0036,403.61258,-174.57417,771.0116,430.86337
UncalAccel,1676593755816,30812638188971,2.0787647,2.3449662,10.092328,0.037048545,-0.031444572,0.0098014325
OrientationDeg,1676593755816,30812638188971,133.0,-5.0,-22.0
UncalGyro,1676593755820,30812642429175,0.79213953,-0.37033707,-0.055741455,0.0006463735,-0.0013469744,-0.00032237743
UncalMag,1676593755822,30812644600460,-194.7852,741.0036,403.9786,-174.57417,771.0116,430.86337
UncalAccel,1676593755824,30812646661454,1.8658035,2.5782664,10.266405,0.037048545,-0.031444572,0.0098014325
OrientationDeg,1676593755824,30812646661454,133.0,-5.0,-22.0
UncalGyro,1676593755828,30812650914324,0.72112644,-0.24938573,-0.10140363,0.0006463735,-0.0013469744,-0.00032237743
UncalMag,1676593755832,30812654590207,-194.8828,741.089,404.125,-174.57417,771.0116,430.86337
UncalAccel,1676593755833,30812655150631,1.698904,2.797808,10.058828,0.037048545,-0.031444572,0.0098014325
OrientationDeg,1676593755833,30812655150631,133.0,-5.0,-22.0
UncalGyro,1676593755837,30812659389065,0.6452264,-0.1366811,-0.15958855,0.0006463735,-0.0013469744,-0.00032237743
UncalAccel,1676593755841,30812663630286,1.5403795,3.056831,9.306884,0.037048545,-0.031444572,0.0098014325
OrientationDeg,1676593755841,30812663630286,133.0,-5.0,-23.0
UncalMag,1676593755842,30812664596270,-195.02919,740.479,404.2226,-174.57417,771.0116,430.86337
UncalGyro,1676593755845,30812667864021,0.56398135,-0.106137834,-0.24297164,0.0006463735,-0.0013469744,-0.00032237743
UncalAccel,1676593755850,30812672115231,1.2813566,3.3152559,8.593225,0.037048545,-0.031444572,0.0098014325
OrientationDeg,1676593755850,30812672115231,133.0,-5.0,-23.0
UncalMag,1676593755852,30812674589963,-194.4436,739.7958,404.0518,-174.57417,771.0116,430.86337
UncalGyro,1676593755854,30812676352485,0.48792863,-0.1647809,-0.34208453,0.0006463735,-0.0013469744,-0.00032237743
UncalAccel,1676593755858,30812680598009,1.0642079,3.5156546,8.108678,0.037048545,-0.031444572,0.0098014325
OrientationDeg,1676593755858,30812680598009,134.0,-5.0,-23.0
UncalMag,1676593755862,30812684600624,-193.6994,739.9178,404.9058,-174.57417,771.0116,430.86337
UncalGyro,1676593755862,30812684834876,0.42455134,-0.27748555,-0.44241914,0.0006463735,-0.0013469744,-0.00032237743
UncalAccel,1676593755867,30812689066739,0.99900347,3.5539398,7.8693953,0.037048545,-0.031444572,0.0098014325
OrientationDeg,1676593755867,30812689066739,134.0,-5.0,-23.0
UncalGyro,1676593755871,30812693318437,0.37216964,-0.4063781,-0.52626044,0.0006463735,-0.0013469744,-0.00032237743
UncalMag,1676593755872,30812694600461,-194.468,739.381,404.796,-174.57417,771.0116,430.86337
UncalAccel,1676593755875,30812697559548,0.98524475,3.4677982,7.8077803,0.037048545,-0.031444572,0.0098014325
OrientationDeg,1676593755875,30812697559548,134.0,-5.0,-23.0
UncalGyro,1676593755879,30812701813230,0.3323107,-0.5377141,-0.5823073,0.0006463735,-0.0013469744,-0.00032237743
UncalMag,1676593755882,30812704600462,-194.2484,739.66156,405.46698,-174.57417,771.0116,430.86337
UncalAccel,1676593755884,30812706037443,0.91405827,3.2177482,7.923234,0.037048545,-0.031444572,0.0098014325
OrientationDeg,1676593755884,30812706037443,134.0,-6.0,-24.0
UncalGyro,1676593755888,30812710279356,0.31764993,-0.6421721,-0.5934556,0.0006463735,-0.0013469744,-0.00032237743
UncalAccel,1676593755892,30812714515856,0.8865408,2.9306095,7.986644,0.037048545,-0.031444572,0.0098014325
OrientationDeg,1676593755892,30812714515856,135.0,-6.0,-24.0
UncalMag,1676593755892,30812714603595,-194.7974,739.2102,405.1254,-174.57417,771.0116,430.86337
UncalGyro,1676593755896,30812718761523,0.32421672,-0.7432703,-0.56382865,0.0006463735,-0.0013469744,-0.00032237743
UncalAccel,1676593755901,30812723000985,0.53300124,3.004787,7.893324,0.037048545,-0.031444572,0.0098014325
OrientationDeg,1676593755901,30812723000985,135.0,-6.0,-24.0
UncalMag,1676593755902,30812724600544,-194.3338,739.8446,405.62558,-174.57417,771.0116,430.86337
UncalGyro,1676593755905,30812727241301,0.3463606,-0.8874345,-0.5233588,0.0006463735,-0.0013469744,-0.00032237743
UncalAccel,1676593755909,30812731479674,0.19621146,3.35713,7.8987074,0.037048545,-0.031444572,0.0098014325
OrientationDeg,1676593755909,30812731479674,135.0,-6.0,-24.0
UncalMag,1676593755912,30812734600747,-194.1874,738.7832,405.25958,-174.57417,771.0116,430.86337
UncalGyro,1676593755913,30812735718799,0.37873647,-1.0497719,-0.4888449,0.0006463735,-0.0013469744,-0.00032237743
UncalAccel,1676593755917,30812739961587,0.19680966,3.5240295,8.332407,0.037048545,-0.031444572,0.0098014325
OrientationDeg,1676593755917,30812739961587,135.0,-7.0,-24.0
UncalGyro,1676593755922,30812744203032,0.39477167,-1.1381947,-0.44730607,0.0006463735,-0.0013469744,-0.00032237743
UncalMag,1676593755923,30812744587320,-195.1268,738.8808,406.2722,-174.57417,771.0116,430.86337
UncalAccel,1676593755926,30812748443521,-0.031106694,3.6323047,8.616554,0.037048545,-0.031444572,0.0098014325
OrientationDeg,1676593755926,30812748443521,136.0,-7.0,-25.0
UncalGyro,1676593755930,30812752686461,0.39813143,-1.1420126,-0.43569964,0.0006463735,-0.0013469744,-0.00032237743
UncalMag,1676593755932,30812754600585,-194.9438,738.4538,406.16238,-174.57417,771.0116,430.86337
UncalAccel,1676593755934,30812756929870,-0.37447673,3.673581,8.461619,0.037048545,-0.031444572,0.0098014325
OrientationDeg,1676593755934,30812756929870,136.0,-8.0,-25.0
UncalGyro,1676593755939,30812761165873,0.3830125,-1.163851,-0.43890667,0.0006463735,-0.0013469744,-0.00032237743
UncalMag,1676593755942,30812764610880,-195.2732,738.2708,406.2478,-174.57417,771.0116,430.86337
UncalAccel,1676593755943,30812765404336,-0.74416786,3.6047873,8.082356,0.037048545,-0.031444572,0.0098014325
OrientationDeg,1676593755943,30812765404336,136.0,-8.0,-25.0
UncalGyro,1676593755947,30812769644511,0.35170567,-1.2021828,-0.39187005,0.0006463735,-0.0013469744,-0.00032237743
UncalAccel,1676593755951,30812773885182,-0.56590253,3.4432719,8.012965,0.037048545,-0.031444572,0.0098014325
UncalMag,1676593755952,30812774589965,-195.688,738.2708,406.626,-174.57417,771.0116,430.86337
OrientationDeg,1676593755951,30812773885182,136.0,-9.0,-25.0
UncalGyro,1676593755956,30812778126627,0.3118467,-1.1664472,-0.29657507,0.0006463735,-0.0013469744,-0.00032237743
UncalAccel,1676593755961,30812782366454,-0.4408776,3.5641093,7.865208,0.037048545,-0.031444572,0.0098014325
OrientationDeg,1676593755960,30812782366454,136.0,-9.0,-25.0
UncalMag,1676593755962,30812784600708,-195.7856,738.4416,406.5406,-174.57417,771.0116,430.86337
UncalGyro,1676593755964,30812786605947,0.25121832,-1.0856602,-0.20448714,0.0006463735,-0.0013469744,-0.00032237743
UncalAccel,1676593755968,30812790834127,-0.6843473,4.0181475,7.512865,0.037048545,-0.031444572,0.0098014325
OrientationDeg,1676593755968,30812790834127,136.0,-10.0,-25.0
UncalMag,1676593755972,30812794600749,-195.8832,738.466,407.3946,-174.57417,771.0116,430.86337
UncalGyro,1676593755973,30812795075591,0.15775596,-1.0639745,-0.14034629,0.0006463735,-0.0013469744,-0.00032237743
UncalAccel,1676593755977,30812799318044,-1.0366904,4.496114,6.897311,0.037048545,-0.031444572,0.0098014325
OrientationDeg,1676593755977,30812799318044,137.0,-10.0,-26.0
UncalGyro,1676593755981,30812803572398,0.045356743,-1.1861476,-0.1217149,0.0006463735,-0.0013469744,-0.00032237743
UncalMag,1676593755982,30812804585775,-196.7128,738.6368,407.6996,-174.57417,771.0116,430.86337
UncalAccel,1676593755986,30812807809316,-1.0534402,4.746164,6.4235325,0.037048545,-0.031444572,0.0098014325
OrientationDeg,1676593755985,30812807809316,137.0,-11.0,-26.0
UncalGyro,1676593755990,30812812042582,-0.056046885,-1.4114041,-0.14950927,0.0006463735,-0.0013469744,-0.00032237743
UncalMag,1676593755992,30812814600464,-196.5054,738.6856,409.1636,-174.57417,771.0116,430.86337
UncalAccel,1676593755994,30812816290233,-0.87158567,4.833502,6.376274,0.037048545,-0.031444572,0.0098014325
OrientationDeg,1676593755994,30812816290233,137.0,-11.0,-26.0
UncalGyro,1676593755998,30812820532543,-0.12507465,-1.6701056,-0.2180789,0.0006463735,-0.0013469744,-0.00032237743
UncalMag,1676593756002,30812824600465,-196.61519,738.6856,409.28558,-174.57417,771.0116,430.86337
UncalAccel,1676593756002,30812824772878,-0.69272214,4.7808595,6.7926254,0.037048545,-0.031444572,0.0098014325
UncalGyro,1676593756007,30812829009583,-0.1563815,-1.8967366,-0.30451632,0.0006463735,-0.0013469744,-0.00032237743
OrientationDeg,1676593756002,30812824772878,137.0,-12.0,-26.0
UncalAccel,1676593756011,30812833249085,-0.5563313,4.613362,7.21436,0.037048545,-0.031444572,0.0098014325
OrientationDeg,1676593756011,30812833249085,137.0,-13.0,-25.0
UncalMag,1676593756012,30812834589885,-197.579,738.3196,409.4686,-174.57417,771.0116,430.86337
UncalGyro,1676593756015,30812837482881,-0.14752395,-2.1038198,-0.38973203,0.0006463735,-0.0013469744,-0.00032237743
UncalAccel,1676593756019,30812841733064,-0.51565325,4.512265,7.6307116,0.037048545,-0.031444572,0.0098014325
OrientationDeg,1676593756019,30812841733064,137.0,-14.0,-25.0
UncalMag,1676593756022,30812844600587,-198.2134,738.2098,409.0904,-174.57417,771.0116,430.86337
UncalGyro,1676593756023,30812845971925,-0.100029185,-2.2999077,-0.46777007,0.0006463735,-0.0013469744,-0.00032237743
UncalAccel,1676593756028,30812850216778,-0.29012975,4.359723,8.258229,0.037048545,-0.031444572,0.0098014325
OrientationDeg,1676593756028,30812850216778,138.0,-15.0,-26.0
UncalGyro,1676593756032,30812854456239,-0.015118915,-2.425746,-0.5196936,0.0006463735,-0.0013469744,-0.00032237743
UncalMag,1676593756032,30812854588462,-197.81079,737.96576,409.38318,-174.57417,771.0116,430.86337
UncalAccel,1676593756036,30812858694643,0.09212367,4.2508492,9.019745,0.037048545,-0.031444572,0.0098014325
OrientationDeg,1676593756036,30812858694643,138.0,-16.0,-26.0
UncalGyro,1676593756040,30812862934144,0.09758572,-2.4234552,-0.5523749,0.0006463735,-0.0013469744,-0.00032237743
UncalMag,1676593756042,30812864590049,-198.3476,737.734,410.4324,-174.57417,771.0116,430.86337
UncalAccel,1676593756045,30812867179119,0.3469593,4.136592,9.547362,0.037048545,-0.031444572,0.0098014325
OrientationDeg,1676593756045,30812867179119,138.0,-17.0,-26.0
UncalGyro,1676593756049,30812871417350,0.21166481,-2.3167064,-0.58383447,0.0006463735,-0.0013469744,-0.00032237743
UncalMag,1676593756052,30812874600344,-198.433,738.08777,410.76178,-174.57417,771.0116,430.86337
UncalAccel,1676593756053,30812875654767,0.45044887,4.165306,9.776475,0.037048545,-0.031444572,0.0098014325
OrientationDeg,1676593756053,30812875654767,138.0,-18.0,-26.0
UncalGyro,1676593756057,30812879886732,0.30726522,-2.162463,-0.61193424,0.0006463735,-0.0013469744,-0.00032237743
UncalAccel,1676593756062,30812884137850,0.55034924,4.3722854,9.699904,0.037048545,-0.031444572,0.0098014325
OrientationDeg,1676593756062,30812884137850,139.0,-19.0,-26.0
OrientationDeg,1676593756070,30812892621523,139.0,-20.0,-27.0
UncalMag,1676593756062,30812884598106,-199.07959,737.75836,412.03058,-174.57417,771.0116,430.86337
UncalGyro,1676593756066,30812888379896,0.37690386,-1.9924897,-0.6461427,0.0006463735,-0.0013469744,-0.00032237743
UncalAccel,1676593756070,30812892621523,0.6023931,4.6169515,9.584451,0.037048545,-0.031444572,0.0098014325
UncalMag,1676593756072,30812894600548,-198.9942,737.5144,412.45758,-174.57417,771.0116,430.86337
UncalGyro,1676593756074,30812896858390,0.41523564,-1.8110627,-0.70157874,0.0006463735,-0.0013469744,-0.00032237743
UncalAccel,1676593756079,30812901088310,0.5886344,4.712664,9.426525,0.037048545,-0.031444572,0.0098014325
OrientationDeg,1676593756079,30812901088310,139.0,-20.0,-27.0
UncalMag,1676593756082,30812904600548,-199.66519,736.8312,413.397,-174.57417,771.0116,430.86337
UncalGyro,1676593756083,30812905340996,0.41401392,-1.6358972,-0.762818,0.0006463735,-0.0013469744,-0.00032237743
Status,1676593754999,30,0,6,2,1176450050,39.63,84.0,79.0,1,1,1,36.02909
Status,1676593754999,30,1,6,2,1575420030,41.09,84.0,79.0,1,1,1,37.489502
Status,1676593754999,30,2,3,17,1604249980,39.75,290.0,74.0,1,1,1,36.14509
Status,1676593754999,30,3,1,11,1575420030,42.77,145.0,72.0,1,1,1,39.165173
Status,1676593754999,30,4,1,11,1176450050,40.34,145.0,72.0,1,1,1,36.744175
Status,1676593754999,30,5,3,15,1602000000,41.03,328.0,69.0,1,1,1,37.434235
Status,1676593754999,30,6,6,36,1575420030,42.63,59.0,67.0,1,1,1,39.031265
Status,1676593754999,30,7,6,36,1176450050,43.14,59.0,67.0,1,1,1,39.536987
Status,1676593754999,30,8,1,12,1575420030,42.30,323.0,59.0,1,1,1,38.699196
Status,1676593754999,30,9,6,34,1176450050,38.60,203.0,53.0,1,1,1,35.0039
Status,1676593754999,30,10,6,34,1575420030,43.02,203.0,53.0,1,1,1,39.416218
Status,1676593754999,30,11,3,14,1598062460,45.40,147.0,53.0,1,1,1,41.795605
Status,1676593754999,30,12,1,6,1176450050,45.04,52.0,50.0,1,1,1,41.441406
Status,1676593754999,30,13,1,6,1575420030,43.81,52.0,50.0,1,1,1,40.214664
Status,1676593754999,30,14,1,24,1575420030,42.07,224.0,43.0,1,1,1,38.472794
Status,1676593754999,30,15,1,24,1176450050,37.46,224.0,43.0,1,1,1,33.86087
Status,1676593754999,30,16,6,30,1575420030,39.14,314.0,41.0,1,1,1,35.53827
Status,1676593754999,30,17,6,30,1176450050,39.14,314.0,41.0,1,1,1,35.538647
Status,1676593754999,30,18,3,24,1603124990,44.50,31.0,37.0,1,1,1,40.902603
Status,1676593754999,30,19,3,18,1600312450,41.83,232.0,30.0,1,1,1,38.225414
Status,1676593754999,30,20,6,25,1575420030,41.66,122.0,30.0,1,1,1,38.061577
Status,1676593754999,30,21,6,25,1176450050,33.08,122.0,30.0,1,1,1,29.478127
Status,1676593754999,30,22,1,19,1575420030,46.62,56.0,30.0,1,1,1,43.016125
Status,1676593754999,30,23,1,25,1575420030,39.86,311.0,29.0,1,1,1,36.261963
Status,1676593754999,30,24,1,25,1176450050,39.58,311.0,29.0,1,1,1,35.983
Status,1676593754999,30,25,1,20,1575420030,41.43,146.0,21.0,1,1,1,37.831028
Status,1676593754999,30,26,6,11,1575420030,39.67,40.0,18.0,1,1,1,36.07285
Status,1676593754999,30,27,6,11,1176450050,38.90,40.0,18.0,1,1,1,35.300648
Status,1676593754999,30,28,3,16,1601437440,43.89,327.0,15.0,1,1,1,40.287613
Status,1676593754999,30,29,1,29,1575420030,39.91,260.0,11.0,1,1,1,36.30951
UncalAccel,1676593756087,30812909580061,0.5383851,4.7228336,9.129815,0.037048545,-0.031444572,0.0098014325
UncalGyro,1676593756091,30812913824445,0.36651915,-1.4923438,-0.81229806,0.0006463735,-0.0013469744,-0.00032237743
UncalMag,1676593756092,30812914590172,-198.9576,736.4286,414.129,-174.57417,771.0116,430.86337
OrientationDeg,1676593756087,30812909580061,140.0,-21.0,-27.0
Fix,GPS,37.4312841120,-122.1550360533,-8.190699660900297,0.30443987,3.1632204,66.296844,1676593755999,0.115473874,33.769886,30812816379000,3.0
UncalAccel,1676593756096,30812918061649,0.53180486,4.6654058,8.776874,0.037048545,-0.031444572,0.0098014325
