# 
# Header Description:
# 
# Version: v3.0.5.6 Platform: 13 Manufacturer: Google Model: Pixel 6
# 
# Raw,utcTimeMillis,TimeNanos,LeapSecond,TimeUncertaintyNanos,FullBiasNanos,BiasNanos,BiasUncertaintyNanos,DriftNanosPerSecond,DriftUncertaintyNanosPerSecond,HardwareClockDiscontinuityCount,Svid,TimeOffsetNanos,State,ReceivedSvTimeNanos,ReceivedSvTimeUncertaintyNanos,Cn0DbHz,PseudorangeRateMetersPerSecond,PseudorangeRateUncertaintyMetersPerSecond,AccumulatedDeltaRangeState,AccumulatedDeltaRangeMeters,AccumulatedDeltaRangeUncertaintyMeters,CarrierFrequencyHz,CarrierCycles,CarrierPhase,CarrierPhaseUncertainty,MultipathIndicator,SnrInDb,ConstellationType,AgcDb,BasebandCn0DbHz,FullInterSignalBiasNanos,FullInterSignalBiasUncertaintyNanos,SatelliteInterSignalBiasNanos,SatelliteInterSignalBiasUncertaintyNanos,CodeType,ChipsetElapsedRealtimeNanos
# 
# UncalAccel,utcTimeMillis,elapsedRealtimeNanos,UncalAccelXMps2,UncalAccelYMps2,UncalAccelZMps2,BiasXMps2,BiasYMps2,BiasZMps2
# 
# Accel,utcTimeMillis,elapsedRealtimeNanos,AccelXMps2,AccelYMps2,AccelZMps2
# 
# UncalGyro,utcTimeMillis,elapsedRealtimeNanos,UncalGyroXRadPerSec,UncalGyroYRadPerSec,UncalGyroZRadPerSec,DriftXRadPerSec,DriftYRadPerSec,DriftZRadPerSec
# 
# Gyro,utcTimeMillis,elapsedRealtimeNanos,GyroXRadPerSec,GyroYRadPerSec,GyroZRadPerSec
# 
# UncalMag,utcTimeMillis,elapsedRealtimeNanos,UncalMagXMicroT,UncalMagYMicroT,UncalMagZMicroT,BiasXMicroT,BiasYMicroT,BiasZMicroT
# 
# Mag,utcTimeMillis,elapsedRealtimeNanos,MagXMicroT,MagYMicroT,MagZMicroT
# 
# OrientationDeg,utcTimeMillis,elapsedRealtimeNanos,yawDeg,rollDeg,pitchDeg
# 
# Fix,Provider,LatitudeDegrees,LongitudeDegrees,AltitudeMeters,SpeedMps,AccuracyMeters,BearingDegrees,UnixTimeMillis,SpeedAccuracyMps,BearingAccuracyDegrees,elapsedRealtimeNanos,VerticalAccuracyMeters
# 
# Nav,Svid,Type,Status,MessageId,Sub-messageId,Data(Bytes)
# 
# Status,UnixTimeMillis,SignalCount,SignalIndex,ConstellationType,Svid,CarrierFrequencyHz,Cn0DbHz,AzimuthDegrees,ElevationDegrees,UsedInFix,HasAlmanacData,HasEphemerisData,BasebandCn0DbHz
# 
UncalGyro,1676593538463,121042093558178,-0.082161374,-0.39568797,-0.19349156,0.00047114445,-0.0010287836,-0.0032451507
UncalAccel,1676593538458,121042089070690,0.08015956,1.7497516,10.039685,0.006110925,-0.043260336,-0.038735468
UncalAccel,1676593538467,121042098047496,0.2015953,2.2002003,10.347761,0.006110925,-0.043260336,-0.038735468
UncalMag,1676593538458,121042089999523,-57.156998,-25.1076,-104.127,-44.47528,5.575939,-61.08579
UncalMag,1676593538468,121042099999279,-57.4254,-25.4004,-104.127,-44.47528,5.575939,-61.08579
Fix,FLP,37.4313173000,-122.1550529000,-16.5,0.8674928,6.043,50.861572,1676593537510,,,121041141729869,3.6496232
UncalGyro,1676593538472,121042102539379,0.077121735,-0.4961753,-0.15470162,0.00047114445,-0.0010287836,-0.0032451507
UncalAccel,1676593538477,121042107030772,0.3894319,2.2378874,10.958529,0.006110925,-0.043260336,-0.038735468
UncalGyro,1676593538481,121042111528759,0.14385876,-0.47311515,-0.09468412,0.00047114445,-0.0010287836,-0.0032451507
UncalMag,1676593538478,121042109999523,-55.9614,-24.729399,-103.907394,-44.47528,5.575939,-61.08579
UncalAccel,1676593538485,121042116008617,0.5276174,1.4027922,11.650654,0.006110925,-0.043260336,-0.038735468
OrientationDeg,1676593538459,121042089070690,159.0,-1.0,-12.0
OrientationDeg,1676593538468,121042098047496,159.0,-1.0,-12.0
OrientationDeg,1676593538477,121042107030772,159.0,-1.0,-12.0
OrientationDeg,1676593538486,121042116008617,159.0,-1.0,-12.0
UncalMag,1676593538490,121042120000988,-56.8032,-25.0832,-103.6146,-44.47528,5.575939,-61.08579
UncalGyro,1676593538489,121042120500377,0.14905111,-0.25137106,0.0065668016,0.00047114445,-0.0010287836,-0.0032451507
UncalAccel,1676593538493,121042124985667,0.6520442,1.8771694,12.202199,0.006110925,-0.043260336,-0.038735468
OrientationDeg,1676593538494,121042124985667,159.0,-1.0,-12.0
UncalGyro,1676593538499,121042129479076,0.22067507,0.03604105,0.08475755,0.00047114445,-0.0010287836,-0.0032451507
UncalMag,1676593538499,121042130002453,-56.5592,-24.6806,-103.102196,-44.47528,5.575939,-61.08579
UncalAccel,1676593538502,121042133967724,0.3278167,2.4161527,12.06521,0.006110925,-0.043260336,-0.038735468
OrientationDeg,1676593538502,121042133967724,159.0,-1.0,-12.0
UncalGyro,1676593538507,121042138459666,0.35353827,0.21029036,0.13423763,0.00047114445,-0.0010287836,-0.0032451507
UncalMag,1676593538509,121042139999523,-58.4502,-25.7176,-102.797195,-44.47528,5.575939,-61.08579
OrientationDeg,1676593538512,121042142949596,159.0,-1.0,-13.0
UncalAccel,1676593538512,121042142949596,-0.069391854,2.4658036,11.486745,0.006110925,-0.043260336,-0.038735468
UncalGyro,1676593538516,121042147438549,0.5338962,0.20799962,0.16462818,0.00047114445,-0.0010287836,-0.0032451507
UncalMag,1676593538520,121042150005382,-57.4376,-25.7908,-103.285194,-44.47528,5.575939,-61.08579
UncalAccel,1676593538520,121042151926952,0.2111666,2.1954148,11.286346,0.006110925,-0.043260336,-0.038735468
OrientationDeg,1676593538520,121042151926952,159.0,-1.0,-13.0
UncalGyro,1676593538526,121042156417186,0.75777835,0.18936823,0.182496,0.00047114445,-0.0010287836,-0.0032451507
UncalMag,1676593538530,121042160000255,-58.194,-26.352,-102.9192,-44.47528,5.575939,-61.08579
UncalAccel,1676593538529,121042160906444,0.65324056,2.1451654,11.383854,0.006110925,-0.043260336,-0.038735468
OrientationDeg,1676593538529,121042160906444,159.0,-1.0,-13.0
UncalGyro,1676593538534,121042165399485,1.0151054,0.19517145,0.17669277,0.00047114445,-0.0010287836,-0.0032451507
UncalAccel,1676593538539,121042169891612,0.9619147,2.315654,10.985449,0.006110925,-0.043260336,-0.038735468
UncalMag,1676593538540,121042170012706,-56.12,-25.559,-102.797195,-44.47528,5.575939,-61.08579
OrientationDeg,1676593538538,121042169891612,159.0,-1.0,-14.0
UncalGyro,1676593538543,121042174379039,1.2809844,0.07376198,0.14065172,0.00047114445,-0.0010287836,-0.0032451507
UncalAccel,1676593538548,121042178867320,1.3046865,2.2175484,9.990633,0.006110925,-0.043260336,-0.038735468
OrientationDeg,1676593538547,121042178867320,159.0,-1.0,-15.0
UncalMag,1676593538548,121042179999279,-58.5478,-27.3036,-103.443794,-44.47528,5.575939,-61.08579
UncalGyro,1676593538552,121042183359203,1.474476,-0.29749137,0.12950343,0.00047114445,-0.0010287836,-0.0032451507
OrientationDeg,1676593538557,121042187848461,158.0,-1.0,-15.0
UncalAccel,1676593538557,121042187848461,1.6540387,2.2241287,7.77129,0.006110925,-0.043260336,-0.038735468
UncalMag,1676593538558,121042189999035,-56.376198,-26.522799,-102.419,-44.47528,5.575939,-61.08579
UncalGyro,1676593538561,121042192337902,1.3768903,-1.0781772,0.10399981,0.00047114445,-0.0010287836,-0.0032451507
UncalAccel,1676593538565,121042196825268,2.5848467,2.7308087,6.3343997,0.006110925,-0.043260336,-0.038735468
OrientationDeg,1676593538566,121042196825268,158.0,-2.0,-16.0
UncalMag,1676593538570,121042200000011,-58.621,-27.9502,-103.639,-44.47528,5.575939,-61.08579
UncalGyro,1676593538570,121042201316234,1.0345002,-1.9918789,-0.071013086,0.00047114445,-0.0010287836,-0.0032451507
UncalAccel,1676593538575,121042205804821,3.1405797,3.3469608,8.612965,0.006110925,-0.043260336,-0.038735468
OrientationDeg,1676593538574,121042205804821,158.0,-4.0,-16.0
UncalMag,1676593538580,121042210001964,-61.1586,-29.036,-106.847595,-44.47528,5.575939,-61.08579
UncalGyro,1676593538580,121042210297191,0.81214535,-2.4431555,-0.30680707,0.00047114445,-0.0010287836,-0.0032451507
UncalAccel,1676593538583,121042214784008,3.4707892,3.542574,11.560923,0.006110925,-0.043260336,-0.038735468
OrientationDeg,1676593538584,121042214784008,159.0,-5.0,-17.0
UncalGyro,1676593538588,121042219276378,0.8037459,-2.3341162,-0.559858,0.00047114445,-0.0010287836,-0.0032451507
UncalMag,1676593538589,121042219999767,-59.9142,-28.3772,-102.040794,-44.47528,5.575939,-61.08579
UncalAccel,1676593538593,121042223766430,3.6394832,3.2883365,12.80878,0.006110925,-0.043260336,-0.038735468
OrientationDeg,1676593538592,121042223766430,159.0,-6.0,-17.0
UncalGyro,1676593538597,121042228264659,0.91354895,-1.9811887,-0.79305583,0.00047114445,-0.0010287836,-0.0032451507
UncalMag,1676593538599,121042229999523,-57.8402,-28.1454,-100.6988,-44.47528,5.575939,-61.08579
UncalAccel,1676593538601,121042232748546,3.818945,3.071188,11.779267,0.006110925,-0.043260336,-0.038735468
OrientationDeg,1676593538601,121042232748546,159.0,-7.0,-18.0
UncalGyro,1676593538606,121042237238170,0.99296147,-1.7153096,-0.97173387,0.00047114445,-0.0010287836,-0.0032451507
UncalMag,1676593538610,121042240000255,-58.9138,-28.9506,-96.3556,-44.47528,5.575939,-61.08579
UncalAccel,1676593538611,121042241722789,3.7597225,3.0801609,10.34477,0.006110925,-0.043260336,-0.038735468
OrientationDeg,1676593538611,121042241722789,160.0,-7.0,-18.0
UncalGyro,1676593538616,121042246215953,1.0158689,-1.5870279,-1.1145236,0.00047114445,-0.0010287836,-0.0032451507
UncalMag,1676593538620,121042250001232,-59.7556,-30.0486,-95.5626,-44.47528,5.575939,-61.08579
UncalAccel,1676593538620,121042250701610,3.3882368,3.3601213,9.662816,0.006110925,-0.043260336,-0.038735468
OrientationDeg,1676593538619,121042250701610,160.0,-8.0,-19.0
UncalGyro,1676593538624,121042255193920,1.0404562,-1.4703526,-1.2646438,0.00047114445,-0.0010287836,-0.0032451507
UncalAccel,1676593538629,121042259684765,3.135196,3.548556,9.152547,0.006110925,-0.043260336,-0.038735468
UncalMag,1676593538630,121042260005871,-60.4144,-30.378,-97.173,-44.47528,5.575939,-61.08579
OrientationDeg,1676593538628,121042259684765,161.0,-9.0,-20.0
UncalGyro,1676593538634,121042264182018,1.0560333,-1.3408492,-1.3982705,0.00047114445,-0.0010287836,-0.0032451507
UncalAccel,1676593538637,121042268662853,3.0933216,3.8937206,8.487342,0.006110925,-0.043260336,-0.038735468
UncalMag,1676593538639,121042269999523,-59.328598,-30.2438,-95.4162,-44.47528,5.575939,-61.08579
OrientationDeg,1676593538638,121042268662853,162.0,-9.0,-20.0
UncalGyro,1676593538642,121042273152965,0.9007208,-1.1120802,-1.5296066,0.00047114445,-0.0010287836,-0.0032451507
UncalAccel,1676593538647,121042277642833,2.7990043,3.8955152,8.161918,0.006110925,-0.043260336,-0.038735468
OrientationDeg,1676593538646,121042277642833,162.0,-9.0,-21.0
UncalMag,1676593538649,121042279999279,-60.0728,-31.1222,-94.1108,-44.47528,5.575939,-61.08579
UncalGyro,1676593538652,121042282140941,0.6951646,-0.8051204,-1.6314683,0.00047114445,-0.0010287836,-0.0032451507
UncalAccel,1676593538655,121042286623546,1.9262222,3.1429725,8.053643,0.006110925,-0.043260336,-0.038735468
OrientationDeg,1676593538655,121042286623546,163.0,-9.0,-21.0
UncalMag,1676593538658,121042289999279,-57.767,-30.8538,-93.696,-44.47528,5.575939,-61.08579
UncalGyro,1676593538661,121042291113598,0.462425,-0.43676865,-1.6439911,0.00047114445,-0.0010287836,-0.0032451507
UncalAccel,1676593538665,121042295599559,0.97866446,2.5591238,8.003393,0.006110925,-0.043260336,-0.038735468
OrientationDeg,1676593538664,121042295599559,164.0,-9.0,-22.0
UncalMag,1676593538670,121042300001232,-57.632797,-31.354,-93.879,-44.47528,5.575939,-61.08579
UncalGyro,1676593538669,121042300093028,0.20830505,-0.083383106,-1.5526668,0.00047114445,-0.0010287836,-0.0032451507
UncalAccel,1676593538674,121042304581004,-0.9194421,2.306681,7.7886376,0.006110925,-0.043260336,-0.038735468
OrientationDeg,1676593538674,121042304581004,165.0,-9.0,-22.0
UncalGyro,1676593538678,121042309076732,-0.023823744,0.15393804,-1.2637274,0.00047114445,-0.0010287836,-0.0032451507
UncalMag,1676593538679,121042309999767,-56.9496,-30.8904,-93.159195,-44.47528,5.575939,-61.08579
UncalAccel,1676593538683,121042313562449,-4.3728833,2.87378,8.066803,0.006110925,-0.043260336,-0.038735468
OrientationDeg,1676593538683,121042313562449,165.0,-8.0,-22.0
UncalGyro,1676593538687,121042318059154,-0.23716843,0.40454552,-0.699288,0.00047114445,-0.0010287836,-0.0032451507
UncalMag,1676593538689,121042319999523,-55.997997,-30.927,-93.2324,-44.47528,5.575939,-61.08579
UncalAccel,1676593538692,121042322546153,-4.995017,3.35713,8.304889,0.006110925,-0.043260336,-0.038735468
OrientationDeg,1676593538691,121042322546153,166.0,-8.0,-22.0
UncalGyro,1676593538696,121042327031688,-0.44226643,0.7506007,-0.08200866,0.00047114445,-0.0010287836,-0.0032451507
UncalMag,1676593538700,121042330000255,-55.2538,-30.866,-93.2812,-44.47528,5.575939,-61.08579
UncalAccel,1676593538700,121042331519725,-2.4987051,3.165106,8.334201,0.006110925,-0.043260336,-0.038735468
OrientationDeg,1676593538701,121042331519725,166.0,-7.0,-21.0
UncalGyro,1676593538705,121042336009715,-0.5914703,1.1171198,0.36010507,0.00047114445,-0.0010287836,-0.0032451507
UncalMag,1676593538710,121042340006115,-56.778797,-31.3662,-94.7452,-44.47528,5.575939,-61.08579
UncalAccel,1676593538710,121042340501293,0.43669012,2.504687,7.5816584,0.006110925,-0.043260336,-0.038735468
OrientationDeg,1676593538709,121042340501293,165.0,-7.0,-21.0
UncalGyro,1676593538713,121042344991283,-0.6554584,1.264033,0.5983425,0.00047114445,-0.0010287836,-0.0032451507
UncalAccel,1676593538719,121042349478527,2.0697916,1.9286151,7.1138616,0.006110925,-0.043260336,-0.038735468
UncalMag,1676593538718,121042349999279,-56.242,-30.8172,-96.136,-44.47528,5.575939,-61.08579
OrientationDeg,1676593538718,121042349478527,165.0,-6.0,-21.0
UncalGyro,1676593538722,121042353971141,-0.63117653,1.1296426,0.68829244,0.00047114445,-0.0010287836,-0.0032451507
UncalAccel,1676593538728,121042358461375,2.565704,1.7676977,7.7443705,0.006110925,-0.043260336,-0.038735468
OrientationDeg,1676593538727,121042358461375,165.0,-6.0,-20.0
UncalMag,1676593538729,121042359999523,-56.425,-31.0246,-94.8306,-44.47528,5.575939,-61.08579
UncalGyro,1676593538731,121042362953563,-0.52458054,0.84879726,0.689056,0.00047114445,-0.0010287836,-0.0032451507
UncalAccel,1676593538736,121042367440501,2.6321049,2.0219352,8.246863,0.006110925,-0.043260336,-0.038735468
OrientationDeg,1676593538736,121042367440501,164.0,-6.0,-20.0
UncalMag,1676593538740,121042370010998,-55.3392,-29.951,-95.2332,-44.47528,5.575939,-61.08579
UncalGyro,1676593538740,121042371942271,-0.34804046,0.49281552,0.63209283,0.00047114445,-0.0010287836,-0.0032451507
UncalAccel,1676593538745,121042376430858,2.7714868,2.347359,8.5681,0.006110925,-0.043260336,-0.038735468
OrientationDeg,1676593538745,121042376430858,164.0,-6.0,-20.0
UncalMag,1676593538750,121042380010998,-55.5466,-30.170599,-94.5866,-44.47528,5.575939,-61.08579
UncalGyro,1676593538749,121042380922862,-0.0926988,0.112399206,0.54199016,0.00047114445,-0.0010287836,-0.0032451507
UncalAccel,1676593538755,121042385409129,2.7481568,2.1122642,9.08136,0.006110925,-0.043260336,-0.038735468
OrientationDeg,1676593538755,121042385409129,164.0,-6.0,-20.0
UncalGyro,1676593538759,121042389899486,0.21273382,-0.24297164,0.48197266,0.00047114445,-0.0010287836,-0.0032451507
UncalMag,1676593538759,121042390000011,-56.071198,-30.255999,-94.8062,-44.47528,5.575939,-61.08579
UncalAccel,1676593538763,121042394383373,2.7122645,1.3938192,9.354142,0.006110925,-0.043260336,-0.038735468
OrientationDeg,1676593538763,121042394383373,163.0,-6.0,-20.0
UncalGyro,1676593538767,121042398879222,0.5395467,-0.54183745,0.4906775,0.00047114445,-0.0010287836,-0.0032451507
UncalMag,1676593538770,121042400010753,-56.2908,-30.414598,-94.9404,-44.47528,5.575939,-61.08579
UncalAccel,1676593538773,121042403367992,3.1046875,1.8903298,9.859028,0.006110925,-0.043260336,-0.038735468
OrientationDeg,1676593538772,121042403367992,163.0,-7.0,-20.0
UncalGyro,1676593538777,121042407861155,0.8388707,-0.63300914,0.4841107,0.00047114445,-0.0010287836,-0.0032451507
UncalMag,1676593538779,121042410010753,-56.5226,-30.8172,-95.1234,-44.47528,5.575939,-61.08579
UncalAccel,1676593538781,121042412347423,2.9766715,2.111666,10.097712,0.006110925,-0.043260336,-0.038735468
OrientationDeg,1676593538782,121042412347423,163.0,-7.0,-21.0
UncalGyro,1676593538785,121042416838268,1.0899363,-0.52580225,0.4810564,0.00047114445,-0.0010287836,-0.0032451507
UncalMag,1676593538790,121042420010753,-56.73,-31.036798,-94.367,-44.47528,5.575939,-61.08579
UncalAccel,1676593538791,121042421327465,2.367698,3.1746774,9.547362,0.006110925,-0.043260336,-0.038735468
OrientationDeg,1676593538791,121042421327465,162.0,-7.0,-21.0
UncalGyro,1676593538794,121042425819225,1.2654073,-0.2958115,0.46563202,0.00047114445,-0.0010287836,-0.0032451507
UncalMag,1676593538799,121042430010509,-56.7422,-30.7806,-94.6476,-44.47528,5.575939,-61.08579
UncalAccel,1676593538800,121042430304088,1.3627125,4.8059845,8.860622,0.006110925,-0.043260336,-0.038735468
OrientationDeg,1676593538800,121042430304088,162.0,-8.0,-22.0
UncalGyro,1676593538804,121042434783031,1.353372,-0.075594574,0.41416663,0.00047114445,-0.0010287836,-0.0032451507
UncalAccel,1676593538808,121042439274730,0.83688974,6.318846,7.679166,0.006110925,-0.043260336,-0.038735468
UncalMag,1676593538809,121042439996349,-58.315998,-32.3178,-94.489,-44.47528,5.575939,-61.08579
OrientationDeg,1676593538809,121042439274730,162.0,-8.0,-23.0
UncalGyro,1676593538813,121042443777355,1.3385584,0.024740042,0.30848694,0.00047114445,-0.0010287836,-0.0032451507
UncalAccel,1676593538817,121042448268870,1.1132607,7.256833,7.1802626,0.006110925,-0.043260336,-0.038735468
OrientationDeg,1676593538817,121042448268870,162.0,-8.0,-23.0
UncalMag,1676593538820,121042450010753,-59.035797,-32.488598,-94.6232,-44.47528,5.575939,-61.08579
UncalGyro,1676593538821,121042452759777,1.2258538,0.08384126,0.14828753,0.00047114445,-0.0010287836,-0.0032451507
UncalAccel,1676593538827,121042457242992,1.3244274,6.766304,7.09771,0.006110925,-0.043260336,-0.038735468
OrientationDeg,1676593538826,121042457242992,161.0,-8.0,-24.0
UncalMag,1676593538830,121042460012218,-57.400997,-32.329998,-91.756195,-44.47528,5.575939,-61.08579
UncalGyro,1676593538831,121042461725902,1.0592403,0.1339322,0.010995574,0.00047114445,-0.0010287836,-0.0032451507
UncalAccel,1676593538836,121042466225170,2.0093727,5.501099,7.408777,0.006110925,-0.043260336,-0.038735468
OrientationDeg,1676593538835,121042466225170,161.0,-8.0,-24.0
UncalMag,1676593538840,121042470010753,-57.7304,-32.635,-93.1836,-44.47528,5.575939,-61.08579
UncalGyro,1676593538840,121042470712413,0.8188649,0.35735616,-0.0720821,0.00047114445,-0.0010287836,-0.0032451507
UncalAccel,1676593538845,121042475192942,2.7098715,4.3992043,7.749156,0.006110925,-0.043260336,-0.038735468
OrientationDeg,1676593538844,121042475192942,161.0,-7.0,-25.0
UncalGyro,1676593538848,121042479696910,0.51893,0.71929383,-0.09330966,0.00047114445,-0.0010287836,-0.0032451507
UncalMag,1676593538849,121042479998790,-57.3278,-32.7936,-91.8538,-44.47528,5.575939,-61.08579
UncalAccel,1676593538854,121042484184703,2.9186454,3.726223,6.855437,0.006110925,-0.043260336,-0.038735468
OrientationDeg,1676593538853,121042484184703,161.0,-7.0,-25.0
UncalGyro,1676593538858,121042488679332,0.25702155,0.91675603,-0.05467244,0.00047114445,-0.0010287836,-0.0032451507
UncalMag,1676593538860,121042490010753,-57.2058,-32.4398,-92.1222,-44.47528,5.575939,-61.08579
UncalAccel,1676593538863,121042493164196,2.353341,3.7010984,7.448857,0.006110925,-0.043260336,-0.038735468
OrientationDeg,1676593538863,121042493164196,161.0,-6.0,-25.0
UncalGyro,1676593538866,121042497656322,0.046883907,1.0848967,-0.0027488936,0.00047114445,-0.0010287836,-0.0032451507
UncalMag,1676593538870,121042500010998,-56.242,-32.7814,-91.0486,-44.47528,5.575939,-61.08579
UncalAccel,1676593538872,121042502143871,2.1457636,3.9332023,8.359326,0.006110925,-0.043260336,-0.038735468
OrientationDeg,1676593538872,121042502143871,161.0,-6.0,-25.0
UncalGyro,1676593538876,121042506634838,-0.16065755,1.3182472,0.055436023,0.00047114445,-0.0010287836,-0.0032451507
UncalMag,1676593538879,121042510010998,-55.8516,-32.5618,-91.426796,-44.47528,5.575939,-61.08579
OrientationDeg,1676593538880,121042511123058,161.0,-5.0,-25.0
UncalAccel,1676593538880,121042511123058,2.4945176,3.6047873,8.649456,0.006110925,-0.043260336,-0.038735468
UncalGyro,1676593538885,121042515614330,-0.29626966,1.4541647,0.14340061,0.00047114445,-0.0010287836,-0.0032451507
UncalMag,1676593538890,121042520010509,-54.961,-31.5614,-92.073395,-44.47528,5.575939,-61.08579
UncalAccel,1676593538889,121042520100657,2.5824537,2.9569306,8.117651,0.006110925,-0.043260336,-0.038735468
OrientationDeg,1676593538890,121042520100657,161.0,-4.0,-25.0
UncalGyro,1676593538894,121042524584362,-0.30176744,1.3767376,0.2602286,0.00047114445,-0.0010287836,-0.0032451507
UncalAccel,1676593538898,121042529083141,2.3186452,2.690131,8.096115,0.006110925,-0.043260336,-0.038735468
UncalMag,1676593538898,121042529999035,-55.4856,-32.147,-91.866,-44.47528,5.575939,-61.08579
OrientationDeg,1676593538899,121042529083141,161.0,-4.0,-24.0
UncalGyro,1676593538903,121042533574779,-0.2322815,1.2136365,0.3791946,0.00047114445,-0.0010287836,-0.0032451507
UncalAccel,1676593538908,121042538064769,1.9920249,2.792424,7.7425756,0.006110925,-0.043260336,-0.038735468
OrientationDeg,1676593538908,121042538064769,161.0,-3.0,-24.0
UncalMag,1676593538910,121042540010753,-54.741398,-31.842,-92.2808,-44.47528,5.575939,-61.08579
UncalGyro,1676593538912,121042542553234,-0.14477506,0.9558514,0.47143525,0.00047114445,-0.0010287836,-0.0032451507
UncalAccel,1676593538916,121042547041820,1.9920249,3.0077782,7.0761747,0.006110925,-0.043260336,-0.038735468
OrientationDeg,1676593538916,121042547041820,160.0,-3.0,-24.0
UncalMag,1676593538920,121042550010998,-56.5592,-32.757,-95.2454,-44.47528,5.575939,-61.08579
UncalGyro,1676593538921,121042551534008,-0.056505036,0.6133087,0.5334381,0.00047114445,-0.0010287836,-0.0032451507
UncalAccel,1676593538925,121042556021495,2.3539393,3.1016963,6.401997,0.006110925,-0.043260336,-0.038735468
OrientationDeg,1676593538925,121042556021495,160.0,-3.0,-24.0
UncalMag,1676593538930,121042560010998,-54.7048,-31.6712,-94.696396,-44.47528,5.575939,-61.08579
UncalGyro,1676593538929,121042560512340,0.0076358155,0.2218968,0.5502369,0.00047114445,-0.0010287836,-0.0032451507
UncalAccel,1676593538934,121042565001232,3.1543384,3.0915267,5.5429735,0.006110925,-0.043260336,-0.038735468
OrientationDeg,1676593538935,121042565001232,160.0,-3.0,-24.0
UncalGyro,1676593538939,121042569492992,0.007941248,-0.2087632,0.47678033,0.00047114445,-0.0010287836,-0.0032451507
UncalMag,1676593538938,121042569993664,-57.6694,-32.878998,-97.4414,-44.47528,5.575939,-61.08579
UncalAccel,1676593538943,121042573980846,4.386642,2.8917263,4.7563334,0.006110925,-0.043260336,-0.038735468
OrientationDeg,1676593538942,121042573980846,160.0,-4.0,-24.0
UncalGyro,1676593538948,121042578468761,-0.08155051,-0.6630942,0.2959642,0.00047114445,-0.0010287836,-0.0032451507
UncalMag,1676593538950,121042580000011,-57.7548,-33.0254,-98.0758,-44.47528,5.575939,-61.08579
UncalAccel,1676593538952,121042582948436,5.265406,2.4263222,4.638487,0.006110925,-0.043260336,-0.038735468
OrientationDeg,1676593538951,121042582948436,159.0,-4.0,-24.0
UncalGyro,1676593538957,121042587451671,-0.2519819,-1.0772609,0.11453723,0.00047114445,-0.0010287836,-0.0032451507
UncalMag,1676593538960,121042590010753,-57.0472,-32.4276,-97.819595,-44.47528,5.575939,-61.08579
UncalAccel,1676593538961,121042591939830,4.4799623,2.1720848,5.029115,0.006110925,-0.043260336,-0.038735468
OrientationDeg,1676593538960,121042591939830,159.0,-5.0,-24.0
UncalGyro,1676593538966,121042596434154,-0.45234573,-1.4515685,0.06872234,0.00047114445,-0.0010287836,-0.0032451507
UncalMag,1676593538970,121042600010753,-57.4376,-32.0494,-97.026596,-44.47528,5.575939,-61.08579
UncalAccel,1676593538969,121042600919628,3.5347972,1.9674984,5.9150577,0.006110925,-0.043260336,-0.038735468
OrientationDeg,1676593538970,121042600919628,159.0,-6.0,-24.0
UncalGyro,1676593538974,121042605411571,-0.6001751,-1.6479617,0.15363261,0.00047114445,-0.0010287836,-0.0032451507
UncalAccel,1676593538978,121042609899425,1.4003994,0.6305088,12.323036,0.006110925,-0.043260336,-0.038735468
UncalMag,1676593538979,121042609999035,-57.0472,-31.5614,-97.355995,-44.47528,5.575939,-61.08579
OrientationDeg,1676593538979,121042609899425,159.0,-7.0,-23.0
UncalGyro,1676593538984,121042614390270,-0.55939984,-1.3753631,0.39752057,0.00047114445,-0.0010287836,-0.0032451507
UncalAccel,1676593538988,121042618879039,2.2127628,0.66759753,9.08136,0.006110925,-0.043260336,-0.038735468
UncalMag,1676593538989,121042619999279,-56.4372,-30.7074,-95.77,-44.47528,5.575939,-61.08579
OrientationDeg,1676593538987,121042618879039,159.0,-8.0,-23.0
UncalGyro,1676593538993,121042623370800,-0.5726862,-1.1163563,0.63499445,0.00047114445,-0.0010287836,-0.0032451507
UncalAccel,1676593538996,121042627858165,3.1310084,-0.19142582,9.104691,0.006110925,-0.043260336,-0.038735468
OrientationDeg,1676593538996,121042627858165,159.0,-8.0,-23.0
UncalMag,1676593538999,121042630010998,-61.2318,-32.7448,-98.7956,-44.47528,5.575939,-61.08579
UncalGyro,1676593539002,121042632349193,-0.55680364,-0.9783007,0.7790059,0.00047114445,-0.0010287836,-0.0032451507
UncalAccel,1676593539006,121042636838268,2.9120653,-1.2789637,8.268997,0.006110925,-0.043260336,-0.038735468
OrientationDeg,1676593539005,121042636838268,158.0,-9.0,-22.0
UncalMag,1676593539010,121042640010753,-58.3038,-30.6098,-96.9168,-44.47528,5.575939,-61.08579
UncalGyro,1676593539011,121042641330516,-0.4961753,-1.0836749,0.9138544,0.00047114445,-0.0010287836,-0.0032451507
UncalAccel,1676593539015,121042645814403,3.054438,-1.7162521,7.752745,0.006110925,-0.043260336,-0.038735468
OrientationDeg,1676593539014,121042645814403,158.0,-10.0,-22.0
UncalMag,1676593539019,121042650010998,-60.5608,-31.171,-97.7952,-44.47528,5.575939,-61.08579
UncalGyro,1676593539020,121042650291393,-0.34437528,-1.3900238,1.1018482,0.00047114445,-0.0010287836,-0.0032451507
UncalAccel,1676593539023,121042654785656,3.0245278,-1.5870396,7.195816,0.006110925,-0.043260336,-0.038735468
OrientationDeg,1676593539024,121042654785656,157.0,-11.0,-22.0
UncalGyro,1676593539028,121042659288402,-0.12232576,-1.9306396,1.3025174,0.00047114445,-0.0010287836,-0.0032451507
UncalMag,1676593539029,121042660010753,-60.267998,-30.365799,-97.5756,-44.47528,5.575939,-61.08579
OrientationDeg,1676593539032,121042663780834,156.0,-12.0,-21.0
UncalAccel,1676593539032,121042663780834,3.0819557,-1.5726827,7.2293153,0.006110925,-0.043260336,-0.038735468
UncalGyro,1676593539037,121042668269908,0.120493166,-2.5283713,1.5114334,0.00047114445,-0.0010287836,-0.0032451507
UncalMag,1676593539039,121042670010998,-63.8792,-31.3662,-98.2588,-44.47528,5.575939,-61.08579
UncalAccel,1676593539041,121042672752513,3.0885358,-1.6444674,7.643872,0.006110925,-0.043260336,-0.038735468
OrientationDeg,1676593539041,121042672752513,155.0,-14.0,-21.0
UncalGyro,1676593539046,121042677248607,0.3381139,-3.0531044,1.7227927,0.00047114445,-0.0010287836,-0.0032451507
UncalMag,1676593539050,121042680010998,-64.233,-30.914799,-97.038795,-44.47528,5.575939,-61.08579
UncalAccel,1676593539050,121042681733470,3.7794633,-1.8544376,8.413164,0.006110925,-0.043260336,-0.038735468
OrientationDeg,1676593539050,121042681733470,154.0,-16.0,-21.0
UncalGyro,1676593539055,121042686216746,0.52015173,-3.4063373,1.8973475,0.00047114445,-0.0010287836,-0.0032451507
Status,0,30,0,6,2,1575420030,40.36,77.0,79.0,1,1,1,36.15672
Status,0,30,1,6,2,1176450050,37.39,77.0,79.0,1,1,1,33.293007
Status,0,30,2,3,17,1604249980,39.82,282.0,74.0,1,1,1,35.62393
Status,0,30,3,1,11,1575420030,42.94,149.0,70.0,1,1,1,38.739853
Status,0,30,4,1,11,1176450050,41.74,149.0,70.0,1,1,1,37.641293
Status,0,30,5,6,36,1575420030,43.63,62.0,68.0,1,1,1,39.43294
Status,0,30,6,6,36,1176450050,40.97,62.0,68.0,1,1,1,36.874638
Status,0,30,7,3,15,1602000000,39.75,329.0,67.0,1,1,1,35.549206
Status,0,30,8,1,12,1575420030,38.62,322.0,57.0,1,1,1,34.423004
Status,0,30,9,3,14,1598062460,43.28,145.0,55.0,1,1,1,39.084507
Status,0,30,10,6,34,1176450050,38.54,202.0,52.0,1,1,1,34.436283
Status,0,30,11,6,34,1575420030,43.54,202.0,52.0,1,1,1,39.337967
Status,0,30,12,1,6,1176450050,41.02,53.0,51.0,1,1,1,36.91932
Status,0,30,13,1,6,1575420030,46.58,53.0,51.0,1,1,1,42.38226
Status,0,30,14,1,24,1575420030,44.86,226.0,45.0,1,1,1,40.656086
Status,0,30,15,1,24,1176450050,39.70,226.0,45.0,1,1,1,35.600597
Status,0,30,16,6,30,1575420030,37.80,314.0,40.0,1,1,1,33.6023
Status,0,30,17,6,30,1176450050,36.54,314.0,40.0,1,1,1,32.440556
Status,0,30,18,3,24,1603124990,44.38,31.0,39.0,1,1,1,40.178505
Status,0,30,19,6,25,1176450050,36.96,121.0,31.0,1,1,1,32.858612
Status,0,30,20,6,25,1575420030,43.81,121.0,31.0,1,1,1,39.605217
Status,0,30,21,1,19,1575420030,47.86,55.0,31.0,1,1,1,43.656425
Status,0,30,22,3,18,1600312450,43.25,231.0,29.0,1,1,1,39.050156
Status,0,30,23,1,25,1176450050,37.02,310.0,28.0,1,1,1,32.918987
Status,0,30,24,1,25,1575420030,40.63,310.0,28.0,1,1,1,36.4302
Status,0,30,25,1,20,1575420030,42.09,147.0,20.0,1,1,1,37.89423
Status,0,30,26,6,11,1575420030,41.64,41.0,19.0,1,1,1,37.435886
Status,0,30,27,6,11,1176450050,38.95,41.0,19.0,1,1,1,34.849483
Status,0,30,28,3,16,1601437440,42.91,327.0,13.0,1,1,1,38.713306
Status,0,30,29,1,29,1575420030,38.71,258.0,10.0,1,1,1,34.508648
UncalMag,1676593539059,121042690010753,-65.7214,-31.036798,-96.5142,-44.47528,5.575939,-61.08579
UncalAccel,1676593539059,121042690713023,4.4093738,-2.3377876,9.47139,0.006110925,-0.043260336,-0.038735468
OrientationDeg,1676593539059,121042690713023,153.0,-19.0,-21.0
Fix,GPS,37.4312956692,-122.1550500033,-17.467203852892215,0.19271874,2.7336352,11.968476,1676593538000,0.111757495,73.62357,121042585663000,3.0
UncalGyro,1676593539065,121042695196422,0.6423248,-3.4825428,2.07572,0.00047114445,-0.0010287836,-0.0032451507
Raw,1676593538000,177539000000,,,-1360628578461130151,0.0,6.323936740964246,295.0,1.0,17,6,0.0,16431,433555929561525,15,41.72159957885742,450.5559310120964,0.15,16,78361.855487972,340282346638528860000000000000000000000,1575420030,,,,0,,1,,37.52159881591797,0.320142130558394,1.0,0.320142130558394,1.0,C,121042585663000
Raw,1676593538000,177539000000,,,-1360628578461130151,0.0,6.323936740964246,295.0,1.0,17,11,0.0,16431,433555931679309,15,41.72798538208008,-103.36170400505858,0.15,16,-20139.507854708427,340282346638528860000000000000000000000,1575420030,,,,0,,1,,37.527984619140625,-0.20372681261465636,1.0,-0.20372681261465636,1.0,C,121042585663000
Raw,1676593538000,177539000000,,,-1360628578461130151,0.0,6.323936740964246,295.0,1.0,17,12,0.0,16431,433555930494217,27,34.08662033081055,-252.63496496566893,0.6065710038221819,16,-45715.87305926238,340282346638528860000000000000000000000,1575420030,,,,0,,1,,29.886621475219727,-0.6984919076624261,1.0,-0.6984919076624261,1.0,C,121042585663000
Raw,1676593538000,177539000000,,,-1360628578461130151,0.0,6.323936740964246,295.0,1.0,17,19,0.0,16431,433555925476576,14,45.05863571166992,575.8860873325357,0.15,16,101722.56479427863,340282346638528860000000000000000000000,1575420030,,,,0,,1,,40.85863494873047,0.0,1.0,0.0,1.0,C,121042585663000
Raw,1676593538000,177539000000,,,-1360628578461130151,0.0,6.323936740964246,295.0,1.0,17,20,0.0,16431,433555921204150,15,40.97391128540039,-480.01823789358764,0.15,16,-85230.74634667842,340282346638528860000000000000000000000,1575420030,,,,0,,1,,36.77391052246094,0.0,1.0,0.0,1.0,C,121042585663000
Raw,1676593538000,177539000000,,,-1360628578461130151,0.0,6.323936740964246,295.0,1.0,17,24,0.0,16431,433555927158681,11,44.52407455444336,519.5761092217006,0.15,16,90886.39369771881,340282346638528860000000000000000000000,1575420030,,,,0,,1,,40.324073791503906,-0.20372681261465636,1.0,-0.20372681261465636,1.0,C,121042585663000
Raw,1676593538000,177539000000,,,-1360628578461130151,0.0,6.323936740964246,295.0,1.0,17,25,0.0,16431,433555924776751,26,34.668155670166016,-481.75688624818576,0.5793917092257943,16,-85822.24146534549,340282346638528860000000000000000000000,1575420030,,,,0,,1,,30.468154907226562,-2.0372682255564105,1.0,-2.0372682255564105,1.0,C,121042585663000
Raw,1676593538000,177539000000,,,-1360628578461130151,0.0,6.323936740964246,295.0,1.0,17,29,0.0,16385,433555916860935,21,37.049537658691406,-431.8861066482052,0.15,16,-1727.900700067174,340282346638528860000000000000000000000,1575420030,,,,0,,1,,32.84953689575195,-0.6984919076624261,1.0,-0.6984919076624261,1.0,C,121042585663000
Raw,1676593538000,177539000000,,,-1360628578461130151,0.0,6.323936740964246,295.0,1.0,17,6,0.0,81921,433555929562063,15,34.63901901245117,449.79657388076816,0.5770657147027083,16,79706.4890083288,340282346638528860000000000000000000000,1176450050,,,,0,,1,,30.539020538330078,1.9208527336454408,1.7674022668629141,1.9208527336454408,1.0,Q,121042585663000
Raw,1676593538000,177539000000,,,-1360628578461130151,0.0,6.323936740964246,295.0,1.0,17,11,0.0,81921,433555931679857,8,41.74129104614258,-103.34190209781883,0.15,16,-20523.266395293125,340282346638528860000000000000000000000,1176450050,,,,0,,1,,37.641292572021484,0.0,1.7674022668629141,0.0,1.0,Q,121042585663000
Raw,1676593538000,177539000000,,,-1360628578461130151,0.0,6.323936740964246,295.0,1.0,17,24,0.0,81921,433555927159222,9,38.851375579833984,519.9074588640153,0.15,16,92440.86526864169,340282346638528860000000000000000000000,1176450050,,,,0,,1,,34.75137710571289,3.5215636101095664,1.7674022668629141,3.5215636101095664,1.0,Q,121042585663000
Raw,1676593538000,177539000000,,,-1360628578461130151,0.0,6.323936740964246,295.0,1.0,17,25,0.0,81921,433555924777272,14,33.063880920410156,-481.63207629239923,0.6470373307805275,16,-87332.57040036877,340282346638528860000000000000000000000,1176450050,,,,0,,1,,28.96388053894043,1.0186341127782053,1.7674022668629141,1.0186341127782053,1.0,Q,121042585663000
Raw,1676593538000,177539000000,,,-1360628578461130151,0.0,6.323936740964246,295.0,1.0,17,14,0.0,32995,12337933380484,33,40.76002883911133,532.767315029376,0.15,16,92445.0227340185,340282346638528860000000000000000000000,1598062460,,,,0,,3,,36.560028076171875,50.29141902923584,2.0000000474974513,50.29141902923584,2.0000000474974513,C,121042585663000
Raw,1676593538000,177539000000,,,-1360628578461130151,0.0,6.323936740964246,295.0,1.0,17,18,0.0,32995,12337927512701,33,41.473140716552734,-500.2494477557018,0.15,16,-89644.48116858957,340282346638528860000000000000000000000,1600312450,,,,0,,3,,37.27313995361328,50.29141902923584,2.0000000474974513,50.29141902923584,2.0000000474974513,C,121042585663000
Raw,1676593538000,177539000000,,,-1360628578461130151,0.0,6.323936740964246,295.0,1.0,17,16,0.0,32995,12337922456427,45,36.572818756103516,-679.0565461534306,0.15,16,-120319.26491329259,340282346638528860000000000000000000000,1601437440,,,,0,,3,,32.37281799316406,50.29141902923584,2.0000000474974513,50.29141902923584,2.0000000474974513,C,121042585663000
Raw,1676593538000,177539000000,,,-1360628578461130151,0.0,6.323936740964246,295.0,1.0,17,15,0.0,32995,12337935031354,65,32.10334777832031,-227.0775532929091,0.6965729195388355,16,-42149.13204791893,340282346638528860000000000000000000000,1602000000,,,,0,,3,,27.90334701538086,50.29141902923584,2.0000000474974513,50.29141902923584,2.0000000474974513,C,121042585663000
Raw,1676593538000,177539000000,,,-1360628578461130151,0.0,6.323936740964246,295.0,1.0,17,24,0.0,32867,12337930008961,33,43.768280029296875,685.6662251118123,0.15,16,121447.5294282493,340282346638528860000000000000000000000,1603124990,,,,0,,3,,39.56827926635742,50.29141902923584,2.0000000474974513,50.29141902923584,2.0000000474974513,C,121042585663000
Raw,1676593538000,177539000000,,,-1360628578461130151,0.0,6.323936740964246,295.0,1.0,17,17,0.0,32867,12337936221776,35,39.82393264770508,55.56917461677651,0.15,16,7950.809275652908,340282346638528860000000000000000000000,1604249980,,,,0,,3,,35.623931884765625,50.29141902923584,2.0000000474974513,50.29141902923584,2.0000000474974513,C,121042585663000
Raw,1676593538000,177539000000,,,-1360628578461130151,0.0,6.323936740964246,295.0,1.0,17,2,0.0,85026,433555922355202,19,38.805206298828125,116.03161011960356,0.15,16,19911.281721859927,340282346638528860000000000000000000000,1575420030,,,,0,,6,,34.60520553588867,-6.024492904543876,1.5000000237487257,-6.024492904543876,1.5000000237487257,C,121042585663000
Raw,1676593538000,177539000000,,,-1360628578461130151,0.0,6.323936740964246,295.0,1.0,17,11,0.0,85026,433555911407722,16,40.44198226928711,598.5703479204226,0.15,16,105899.14022005125,340282346638528860000000000000000000000,1575420030,,,,0,,6,,36.241981506347656,-6.024492904543876,1.5000000237487257,-6.024492904543876,1.5000000237487257,C,121042585663000
Raw,1676593538000,177539000000,,,-1360628578461130151,0.0,6.323936740964246,295.0,1.0,17,25,0.0,85026,433555913304390,12,43.80521774291992,487.0706479622006,0.15,16,85190.05817183002,340282346638528860000000000000000000000,1575420030,,,,0,,6,,39.60521697998047,-6.024492904543876,1.5000000237487257,-6.024492904543876,1.5000000237487257,C,121042585663000
Raw,1676593538000,177539000000,,,-1360628578461130151,0.0,6.323936740964246,295.0,1.0,17,30,0.0,85026,433555915162448,58,24.866058349609375,-303.48205357397364,1.0206100110451142,16,-54270.53389115777,340282346638528860000000000000000000000,1575420030,,,,0,,6,,20.666057586669922,-6.024492904543876,1.5000000237487257,-6.024492904543876,1.5000000237487257,C,121042585663000
Raw,1676593538000,177539000000,,,-1360628578461130151,0.0,6.323936740964246,295.0,1.0,17,34,0.0,85026,433555918994426,13,43.32621383666992,-293.7844018072558,0.15,16,-53069.85728639749,340282346638528860000000000000000000000,1575420030,,,,0,,6,,39.12621307373047,-6.024492904543876,1.5000000237487257,-6.024492904543876,1.5000000237487257,C,121042585663000
Raw,1676593538000,177539000000,,,-1360628578461130151,0.0,6.323936740964246,295.0,1.0,17,36,0.0,85026,433555921371109,24,35.709476470947266,232.7371496932609,0.5326715843320025,16,40462.16913087024,340282346638528860000000000000000000000,1575420030,,,,1,,6,,31.509475708007812,-6.024492904543876,1.5000000237487257,-6.024492904543876,1.5000000237487257,C,121042585663000
Raw,1676593538000,177539000000,,,-1360628578461130151,0.0,6.323936740964246,295.0,1.0,17,2,0.0,84003,433555922355744,12,37.39300537109375,115.70288482644105,0.15,16,19875.059021502326,340282346638528860000000000000000000000,1176450050,,,,0,,6,,33.293006896972656,-3.808038309216499,2.26740229061164,-3.808038309216499,1.5000000237487257,Q,121042585663000
Raw,1676593538000,177539000000,,,-1360628578461130151,0.0,6.323936740964246,295.0,1.0,17,11,0.0,84003,433555911408266,12,38.387939453125,598.34826663372,0.15,16,107517.50705919322,340282346638528860000000000000000000000,1176450050,,,,0,,6,,34.287940979003906,5.057780072093007,2.26740229061164,5.057780072093007,1.5000000237487257,Q,121042585663000
Raw,1676593538000,177539000000,,,-1360628578461130151,0.0,6.323936740964246,295.0,1.0,17,25,0.0,84003,433555913304920,12,31.42172622680664,486.9818631629587,0.7224170738413207,16,84629.78539922318,340282346638528860000000000000000000000,1176450050,,,,0,,6,,27.321725845336914,-8.979765698313711,2.26740229061164,-8.979765698313711,1.5000000237487257,Q,121042585663000
Raw,1676593538000,177539000000,,,-1360628578461130151,0.0,6.323936740964246,295.0,1.0,17,30,0.0,84003,433555915163002,22,29.919517517089844,-303.86040292383336,0.7903039352836294,16,-55434.06540247038,340282346638528860000000000000000000000,1176450050,,,,0,,6,,25.819517135620117,-8.425652049481869,2.26740229061164,-8.425652049481869,1.5000000237487257,Q,121042585663000
Raw,1676593538000,177539000000,,,-1360628578461130151,0.0,6.323936740964246,295.0,1.0,17,34,0.0,84003,433555918994951,11,33.9904670715332,-293.92417396145584,0.6079271128149215,16,-53788.898840130016,340282346638528860000000000000000000000,1176450050,,,,0,,6,,29.89046859741211,-11.011515744030472,2.26740229061164,-11.011515744030472,1.5000000237487257,Q,121042585663000
Raw,1676593538000,177539000000,,,-1360628578461130151,0.0,6.323936740964246,295.0,1.0,17,36,0.0,84003,433555921371654,7,38.5313720703125,232.59473614868034,0.15,16,40537.49272446708,340282346638528860000000000000000000000,1176450050,,,,0,,6,,34.431373596191406,-11.750333942472933,2.26740229061164,-11.750333942472933,1.5000000237487257,Q,121042585663000
UncalAccel,1676593539068,121042699698741,4.766503,-2.928815,10.503893,0.006110925,-0.043260336,-0.038735468
UncalMag,1676593539068,121042699997326,-67.5758,-31.073399,-96.2214,-44.47528,5.575939,-61.08579
UncalGyro,1676593539073,121042704186412,0.7228063,-3.3021848,2.2805126,0.00047114445,-0.0010287836,-0.0032451507
OrientationDeg,1676593539068,121042699698741,152.0,-21.0,-21.0
Fix,FLP,37.4313161000,-122.1550427000,-16.5,0.5387518,5.566,79.44882,1676593538588,,,121042219276378,3.372138
UncalAccel,1676593539077,121042708678233,5.0512486,-3.5204403,10.850254,0.006110925,-0.043260336,-0.038735468
UncalMag,1676593539080,121042710010998,-71.2602,-31.6346,-94.6476,-44.47528,5.575939,-61.08579
OrientationDeg,1676593539078,121042708678233,150.0,-23.0,-21.0
UncalGyro,1676593539082,121042713167003,0.73991054,-2.9610167,2.490803,0.00047114445,-0.0010287836,-0.0032451507
UncalAccel,1676593539086,121042717654857,4.8329034,-3.9218364,11.066207,0.006110925,-0.043260336,-0.038735468
OrientationDeg,1676593539087,121042717654857,149.0,-25.0,-21.0
UncalMag,1676593539089,121042719999035,-72.5168,-30.987999,-93.2568,-44.47528,5.575939,-61.08579
UncalGyro,1676593539091,121042722145458,0.66843927,-2.4599543,2.7198775,0.00047114445,-0.0010287836,-0.0032451507
UncalAccel,1676593539096,121042726633861,5.0662036,-3.8805602,10.233504,0.006110925,-0.043260336,-0.038735468
OrientationDeg,1676593539095,121042726633861,147.0,-27.0,-20.0
UncalMag,1676593539100,121042730010509,-74.4932,-30.792799,-95.635796,-44.47528,5.575939,-61.08579
UncalGyro,1676593539100,121042731125316,0.52824575,-1.9808832,2.9407053,0.00047114445,-0.0010287836,-0.0032451507
UncalAccel,1676593539105,121042735614147,4.8646083,-4.028317,9.235697,0.006110925,-0.043260336,-0.038735468
OrientationDeg,1676593539104,121042735614147,146.0,-28.0,-20.0
UncalMag,1676593539110,121042740010998,-74.944595,-30.0852,-93.0982,-44.47528,5.575939,-61.08579
UncalGyro,1676593539109,121042740102978,0.345597,-1.5780176,3.1348078,0.00047114445,-0.0010287836,-0.0032451507
UncalAccel,1676593539114,121042744585338,4.2041893,-3.9194436,7.989635,0.006110925,-0.043260336,-0.038735468
OrientationDeg,1676593539114,121042744585338,144.0,-29.0,-19.0
UncalGyro,1676593539118,121042749085704,0.13820826,-1.3417655,3.3244815,0.00047114445,-0.0010287836,-0.0032451507
UncalMag,1676593539120,121042750010998,-75.2862,-29.3776,-92.048996,-44.47528,5.575939,-61.08579
UncalAccel,1676593539122,121042753573070,4.017549,-3.784249,6.416952,0.006110925,-0.043260336,-0.038735468
OrientationDeg,1676593539122,121042753573070,143.0,-30.0,-18.0
UncalGyro,1676593539127,121042758066478,-0.061086524,-1.35551,3.530954,0.00047114445,-0.0010287836,-0.0032451507
UncalMag,1676593539130,121042760010753,-75.701,-28.2064,-90.5728,-44.47528,5.575939,-61.08579
UncalAccel,1676593539131,121042762553051,4.7659044,-4.0767717,6.0418773,0.006110925,-0.043260336,-0.038735468
OrientationDeg,1676593539131,121042762553051,141.0,-32.0,-17.0
UncalGyro,1676593539137,121042767042125,-0.24098633,-1.4746287,3.6767979,0.00047114445,-0.0010287836,-0.0032451507
UncalMag,1676593539140,121042770010998,-75.9938,-26.669199,-89.1576,-44.47528,5.575939,-61.08579
UncalAccel,1676593539140,121042771518810,5.2737813,-4.0127635,6.5401826,0.006110925,-0.043260336,-0.038735468
OrientationDeg,1676593539141,121042771518810,139.0,-33.0,-15.0
UncalGyro,1676593539145,121042776015453,-0.31688634,-1.6533068,3.752698,0.00047114445,-0.0010287836,-0.0032451507
UncalMag,1676593539150,121042780010998,-77.9702,-26.132399,-88.572,-44.47528,5.575939,-61.08579
UncalAccel,1676593539150,121042780512279,6.1190457,-4.0271206,7.240083,0.006110925,-0.043260336,-0.038735468
OrientationDeg,1676593539149,121042780512279,138.0,-34.0,-14.0
UncalGyro,1676593539155,121042785007090,-0.2764165,-1.8866574,3.7847683,0.00047114445,-0.0010287836,-0.0032451507
OrientationDeg,1676593539159,121042789489940,137.0,-36.0,-13.0
UncalAccel,1676593539159,121042789489940,6.2267227,-4.4207397,7.0432734,0.006110925,-0.043260336,-0.038735468
UncalMag,1676593539158,121042789999523,-78.9096,-24.729399,-88.0474,-44.47528,5.575939,-61.08579
UncalGyro,1676593539163,121042793968334,-0.23197608,-2.1371121,3.822031,0.00047114445,-0.0010287836,-0.0032451507
UncalAccel,1676593539167,121042798471203,6.1184473,-5.029713,5.828916,0.006110925,-0.043260336,-0.038735468
OrientationDeg,1676593539168,121042798471203,135.0,-37.0,-11.0
UncalMag,1676593539170,121042800010998,-80.397995,-23.607,-88.779396,-44.47528,5.575939,-61.08579
UncalGyro,1676593539171,121042802962352,-0.29749137,-2.4075727,3.9156463,0.00047114445,-0.0010287836,-0.0032451507
UncalAccel,1676593539176,121042807454784,6.1824555,-5.5722857,4.615755,0.006110925,-0.043260336,-0.038735468
OrientationDeg,1676593539177,121042807454784,134.0,-39.0,-10.0
UncalMag,1676593539179,121042810010998,-81.5936,-22.3016,-89.584595,-44.47528,5.575939,-61.08579
UncalGyro,1676593539181,121042811941661,-0.47525316,-2.6778805,4.0569086,0.00047114445,-0.0010287836,-0.0032451507
UncalAccel,1676593539186,121042816430797,6.5425754,-6.020342,4.295715,0.006110925,-0.043260336,-0.038735468
OrientationDeg,1676593539185,121042816430797,132.0,-41.0,-8.0
UncalMag,1676593539190,121042820010753,-83.2894,-21.2402,-86.7908,-44.47528,5.575939,-61.08579
UncalGyro,1676593539190,121042820922619,-0.6950119,-2.9014573,4.217261,0.00047114445,-0.0010287836,-0.0032451507
UncalAccel,1676593539195,121042825410289,7.0325055,-6.3828545,4.94417,0.006110925,-0.043260336,-0.038735468
OrientationDeg,1676593539194,121042825410289,131.0,-42.0,-6.0
UncalGyro,1676593539198,121042829901195,-0.8938486,-3.0163,4.3573017,0.00047114445,-0.0010287836,-0.0032451507
UncalMag,1676593539198,121042829998790,-83.265,-19.154,-84.436195,-44.47528,5.575939,-61.08579
OrientationDeg,1676593539204,121042834389660,130.0,-44.0,-4.0
UncalAccel,1676593539204,121042834389660,7.2023964,-6.771688,5.6386867,0.006110925,-0.043260336,-0.038735468
UncalGyro,1676593539208,121042838881664,-1.0337367,-3.050661,4.494441,0.00047114445,-0.0010287836,-0.0032451507
UncalMag,1676593539210,121042840010509,-86.144196,-17.324,-83.8384,-44.47528,5.575939,-61.08579
UncalAccel,1676593539213,121042843369457,7.428518,-7.8664045,5.519644,0.006110925,-0.043260336,-0.038735468
OrientationDeg,1676593539212,121042843369457,129.0,-46.0,-2.0
UncalGyro,1676593539216,121042847860485,-1.1317806,-3.1247284,4.6975536,0.00047114445,-0.0010287836,-0.0032451507
UncalMag,1676593539220,121042850010998,-89.4382,-16.518799,-84.1922,-44.47528,5.575939,-61.08579
UncalAccel,1676593539221,121042852349254,6.795616,-9.2488575,5.1379886,0.006110925,-0.043260336,-0.038735468
OrientationDeg,1676593539222,121042852349254,128.0,-47.0,0.0
UncalGyro,1676593539226,121042856839550,-1.1939361,-3.2591188,4.9835916,0.00047114445,-0.0010287836,-0.0032451507
UncalMag,1676593539230,121042860010998,-88.962395,-13.9446,-81.0812,-44.47528,5.575939,-61.08579
OrientationDeg,1676593539230,121042861322338,127.0,-49.0,1.0
UncalAccel,1676593539230,121042861322338,6.559923,-10.527822,4.5062833,0.006110925,-0.043260336,-0.038735468
UncalGyro,1676593539235,121042865819652,-1.2345587,-3.4579554,5.3221636,0.00047114445,-0.0010287836,-0.0032451507
UncalMag,1676593539240,121042870010998,-92.2686,-13.0296,-80.5932,-44.47528,5.575939,-61.08579
UncalAccel,1676593539240,121042870305248,7.1862445,-11.964711,4.7970114,0.006110925,-0.043260336,-0.038735468
OrientationDeg,1676593539239,121042870305248,126.0,-51.0,4.0
UncalGyro,1676593539243,121042874789196,-1.2626585,-3.610519,5.6862392,0.00047114445,-0.0010287836,-0.0032451507
UncalAccel,1676593539249,121042879286388,8.69133,-12.136396,5.7750773,0.006110925,-0.043260336,-0.038735468
UncalMag,1676593539248,121042879999523,-92.854195,-10.1382,-78.360596,-44.47528,5.575939,-61.08579
OrientationDeg,1676593539249,121042879286388,125.0,-53.0,7.0
UncalGyro,1676593539253,121042883773815,-1.1946996,-3.7271943,5.9551725,0.00047114445,-0.0010287836,-0.0032451507
UncalAccel,1676593539258,121042888271068,10.529017,-11.082358,7.862217,0.006110925,-0.043260336,-0.038735468
OrientationDeg,1676593539257,121042888271068,124.0,-54.0,10.0
UncalMag,1676593539259,121042890010509,-94.9648,-5.0508,-75.0544,-44.47528,5.575939,-61.08579
UncalGyro,1676593539262,121042892759655,-0.9790643,-3.6774087,6.0799417,0.00047114445,-0.0010287836,-0.0032451507
UncalAccel,1676593539266,121042897248423,11.66202,-10.43151,9.190832,0.006110925,-0.043260336,-0.038735468
OrientationDeg,1676593539267,121042897248423,122.0,-56.0,13.0
UncalMag,1676593539270,121042900010998,-97.209595,-3.0256,-74.3346,-44.47528,5.575939,-61.08579
UncalGyro,1676593539270,121042901738109,-0.710589,-3.476434,6.092617,0.00047114445,-0.0010287836,-0.0032451507
UncalAccel,1676593539276,121042906227123,11.58844,-10.713863,9.17468,0.006110925,-0.043260336,-0.038735468
OrientationDeg,1676593539275,121042906227123,121.0,-57.0,16.0
UncalMag,1676593539280,121042910010753,-97.660995,-0.3172,-73.224396,-44.47528,5.575939,-61.08579
UncalGyro,1676593539279,121042910718822,-0.52549684,-3.2409456,6.1601176,0.00047114445,-0.0010287836,-0.0032451507
OrientationDeg,1676593539284,121042915206432,120.0,-58.0,19.0
UncalAccel,1676593539284,121042915206432,11.297114,-11.805589,8.619545,0.006110925,-0.043260336,-0.038735468
UncalGyro,1676593539289,121042919697460,-0.47067168,-3.0524936,6.3870544,0.00047114445,-0.0010287836,-0.0032451507
UncalMag,1676593539288,121042919998790,-95.2332,3.4891999,-68.3688,-44.47528,5.575939,-61.08579
OrientationDeg,1676593539293,121042924185924,119.0,-59.0,22.0
UncalAccel,1676593539294,121042924185924,11.763116,-12.752548,10.318449,0.006110925,-0.043260336,-0.038735468
UncalGyro,1676593539297,121042928678356,-0.4176791,-2.5670085,6.660569,0.00047114445,-0.0010287836,-0.0032451507
UncalMag,1676593539299,121042930010753,-95.7212,6.4904,-66.5754,-44.47528,5.575939,-61.08579
OrientationDeg,1676593539303,121042933165783,117.0,-60.0,25.0
UncalAccel,1676593539303,121042933165783,12.664612,-12.306287,12.841083,0.006110925,-0.043260336,-0.038735468
UncalGyro,1676593539306,121042937656627,-0.33337972,-1.8764253,6.8795643,0.00047114445,-0.0010287836,-0.0032451507
UncalMag,1676593539309,121042940010998,-95.5138,9.1866,-67.014595,-44.47528,5.575939,-61.08579
OrientationDeg,1676593539311,121042942145031,116.0,-60.0,28.0
UncalAccel,1676593539311,121042942145031,14.279169,-10.977672,13.193426,0.006110925,-0.043260336,-0.038735468
UncalGyro,1676593539316,121042946636303,-0.16126843,-1.3651311,6.9527154,0.00047114445,-0.0010287836,-0.0032451507
UncalMag,1676593539319,121042950010753,-95.647995,12.3342,-65.697,-44.47528,5.575939,-61.08579
UncalAccel,1676593539321,121042951125072,14.288142,-8.508279,13.263416,0.006110925,-0.043260336,-0.038735468
OrientationDeg,1676593539320,121042951125072,113.0,-59.0,31.0
UncalGyro,1676593539324,121042955615795,0.19394971,-1.0380127,6.9230886,0.00047114445,-0.0010287836,-0.0032451507
UncalMag,1676593539330,121042960010998,-93.9034,15.4086,-65.294395,-44.47528,5.575939,-61.08579
UncalAccel,1676593539330,121042960102000,17.006987,-8.0404825,12.649058,0.006110925,-0.043260336,-0.038735468
OrientationDeg,1676593539329,121042960102000,112.0,-58.0,34.0
UncalGyro,1676593539333,121042964585277,0.5025894,-0.9106474,6.7324986,0.00047114445,-0.0010287836,-0.0032451507
UncalAccel,1676593539338,121042969084362,18.230318,-8.52802,11.341381,0.006110925,-0.043260336,-0.038735468
UncalMag,1676593539338,121042969999279,-93.1836,18.4342,-65.8922,-44.47528,5.575939,-61.08579
OrientationDeg,1676593539339,121042969084362,109.0,-57.0,37.0
UncalGyro,1676593539343,121042973575267,0.7675522,-0.8730792,6.5017443,0.00047114445,-0.0010287836,-0.0032451507
UncalAccel,1676593539348,121042978063671,16.711473,-6.8165536,11.58186,0.006110925,-0.043260336,-0.038735468
OrientationDeg,1676593539347,121042978063671,106.0,-56.0,39.0
UncalMag,1676593539348,121042979995861,-91.6464,21.301199,-64.7332,-44.47528,5.575939,-61.08579
UncalGyro,1676593539352,121042982544017,0.92149025,-0.70539665,6.3655214,0.00047114445,-0.0010287836,-0.0032451507
UncalAccel,1676593539356,121042987043468,18.209381,-6.9655066,10.205389,0.006110925,-0.043260336,-0.038735468
OrientationDeg,1676593539357,121042987043468,104.0,-55.0,41.0
UncalMag,1676593539360,121042990010265,-91.6708,23.5338,-66.8682,-44.47528,5.575939,-61.08579
UncalGyro,1676593539361,121042991534313,0.94913185,-0.591623,6.157216,0.00047114445,-0.0010287836,-0.0032451507
UncalAccel,1676593539366,121042996026195,18.346968,-6.0981083,10.749158,0.006110925,-0.043260336,-0.038735468
OrientationDeg,1676593539366,121042996026195,101.0,-53.0,44.0
UncalMag,1676593539369,121043000010753,-89.2308,26.1446,-65.209,-44.47528,5.575939,-61.08579
UncalGyro,1676593539370,121043000514599,0.98670006,-0.42210788,5.8814106,0.00047114445,-0.0010287836,-0.0032451507
UncalAccel,1676593539374,121043005001293,18.580866,-4.5942197,10.043275,0.006110925,-0.043260336,-0.038735468
OrientationDeg,1676593539374,121043005001293,98.0,-51.0,46.0
UncalGyro,1676593539379,121043009493419,1.0094548,-0.35308012,5.514586,0.00047114445,-0.0010287836,-0.0032451507
UncalMag,1676593539378,121043009998302,-88.5598,27.962399,-64.6966,-44.47528,5.575939,-61.08579
UncalAccel,1676593539382,121043013979015,19.003199,-3.5467613,9.163913,0.006110925,-0.043260336,-0.038735468
OrientationDeg,1676593539383,121043013979015,95.0,-49.0,47.0
UncalGyro,1676593539388,121043018461620,1.0245737,-0.35277468,5.0388746,0.00047114445,-0.0010287836,-0.0032451507
UncalMag,1676593539389,121043020010998,-86.3394,30.8294,-66.612,-44.47528,5.575939,-61.08579
OrientationDeg,1676593539391,121043022961253,92.0,-47.0,49.0
UncalAccel,1676593539391,121043022961253,18.25604,-3.0969107,8.624331,0.006110925,-0.043260336,-0.038735468
UncalGyro,1676593539397,121043027449718,1.0100657,-0.34865135,4.5593452,0.00047114445,-0.0010287836,-0.0032451507
UncalMag,1676593539399,121043030010998,-85.509796,32.0616,-63.013,-44.47528,5.575939,-61.08579
OrientationDeg,1676593539400,121043031944469,89.0,-45.0,50.0
UncalAccel,1676593539400,121043031944469,17.286947,-3.6376886,8.083553,0.006110925,-0.043260336,-0.038735468
UncalGyro,1676593539405,121043036433422,0.9445504,-0.32085696,4.1488442,0.00047114445,-0.0010287836,-0.0032451507
UncalMag,1676593539410,121043040010753,-84.265396,33.2816,-64.5868,-44.47528,5.575939,-61.08579
UncalAccel,1676593539410,121043040921947,16.364513,-4.456632,8.318049,0.006110925,-0.043260336,-0.038735468
OrientationDeg,1676593539409,121043040921947,87.0,-43.0,51.0
UncalGyro,1676593539415,121043045411937,0.9089675,-0.29046643,3.830125,0.00047114445,-0.0010287836,-0.0032451507
UncalAccel,1676593539419,121043049900524,14.976079,-5.009374,8.671589,0.006110925,-0.043260336,-0.038735468
UncalMag,1676593539419,121043049999035,-82.899,34.904198,-65.0382,-44.47528,5.575939,-61.08579
OrientationDeg,1676593539418,121043049900524,84.0,-41.0,52.0
UncalGyro,1676593539423,121043054392894,0.98364574,-0.35918877,3.632663,0.00047114445,-0.0010287836,-0.0032451507
UncalAccel,1676593539428,121043058880504,13.354941,-5.6183476,8.799007,0.006110925,-0.043260336,-0.038735468
UncalMag,1676593539430,121043060010753,-80.8006,36.3194,-63.4156,-44.47528,5.575939,-61.08579
OrientationDeg,1676593539428,121043058880504,81.0,-39.0,52.0
UncalGyro,1676593539433,121043063371471,1.1849259,-0.56428677,3.5786014,0.00047114445,-0.0010287836,-0.0032451507
UncalAccel,1676593539437,121043067856944,12.169896,-6.498308,8.974879,0.006110925,-0.043260336,-0.038735468
OrientationDeg,1676593539436,121043067856944,78.0,-36.0,53.0
UncalMag,1676593539439,121043070010998,-81.1178,37.1246,-64.2208,-44.47528,5.575939,-61.08579
UncalGyro,1676593539441,121043072340160,1.4869987,-0.8410087,3.6673295,0.00047114445,-0.0010287836,-0.0032451507
UncalAccel,1676593539446,121043076839611,11.386247,-7.8400836,10.189237,0.006110925,-0.043260336,-0.038735468
OrientationDeg,1676593539445,121043076839611,75.0,-34.0,53.0
UncalMag,1676593539449,121043079996837,-78.689995,38.4422,-63.7938,-44.47528,5.575939,-61.08579
UncalGyro,1676593539451,121043081330455,1.8664987,-0.9627236,3.889379,0.00047114445,-0.0010287836,-0.0032451507
OrientationDeg,1676593539454,121043085822032,71.0,-31.0,54.0
UncalAccel,1676593539455,121043085822032,11.187642,-9.109476,10.815558,0.006110925,-0.043260336,-0.038735468
UncalMag,1676593539459,121043090008556,-78.0922,39.808598,-64.818596,-44.47528,5.575939,-61.08579
UncalGyro,1676593539460,121043090306347,2.2605069,-0.9263771,4.11601,0.00047114445,-0.0010287836,-0.0032451507
UncalAccel,1676593539464,121043094784801,11.736795,-9.985847,10.217951,0.006110925,-0.043260336,-0.038735468
OrientationDeg,1676593539463,121043094784801,67.0,-28.0,53.0
UncalGyro,1676593539468,121043099289745,2.5902214,-0.86834496,4.280944,0.00047114445,-0.0010287836,-0.0032451507
UncalMag,1676593539470,121043100010998,-76.4696,40.735798,-64.830795,-44.47528,5.575939,-61.08579
UncalAccel,1676593539472,121043103778514,11.971292,-10.265807,8.597412,0.006110925,-0.043260336,-0.038735468
OrientationDeg,1676593539472,121043103778514,63.0,-25.0,53.0
UncalGyro,1676593539477,121043108274059,2.8632782,-0.9616546,4.3805146,0.00047114445,-0.0010287836,-0.0032451507
UncalMag,1676593539480,121043110010753,-75.1276,41.5654,-66.734,-44.47528,5.575939,-61.08579
UncalAccel,1676593539481,121043112757885,12.044272,-10.363315,6.3140607,0.006110925,-0.043260336,-0.038735468
OrientationDeg,1676593539481,121043112757885,58.0,-22.0,53.0
UncalGyro,1676593539487,121043117249157,3.1175508,-1.3129021,4.488638,0.00047114445,-0.0010287836,-0.0032451507
UncalMag,1676593539489,121043120010753,-75.9206,42.1266,-69.113,-44.47528,5.575939,-61.08579
UncalAccel,1676593539491,121043121737560,12.273984,-10.048658,4.610969,0.006110925,-0.043260336,-0.038735468
OrientationDeg,1676593539490,121043121737560,54.0,-20.0,52.0
UncalGyro,1676593539496,121043126229625,3.3560936,-1.8434386,4.624861,0.00047114445,-0.0010287836,-0.0032451507
UncalMag,1676593539500,121043130010753,-74.725,42.3828,-69.7352,-44.47528,5.575939,-61.08579
UncalAccel,1676593539500,121043130717296,12.229118,-9.91466,3.3056846,0.006110925,-0.043260336,-0.038735468
OrientationDeg,1676593539500,121043130717296,49.0,-17.0,51.0
UncalGyro,1676593539504,121043135208080,3.5908186,-2.4420865,4.976108,0.00047114445,-0.0010287836,-0.0032451507
UncalAccel,1676593539508,121043139696849,12.457035,-9.902099,3.4971104,0.006110925,-0.043260336,-0.038735468
UncalMag,1676593539508,121043139994396,-71.3944,43.9688,-71.0894,-44.47528,5.575939,-61.08579
OrientationDeg,1676593539508,121043139696849,45.0,-15.0,50.0
UncalGyro,1676593539514,121043144188793,3.769344,-2.7852402,5.2242723,0.00047114445,-0.0010287836,-0.0032451507
UncalAccel,1676593539517,121043148676586,13.403396,-9.3613205,2.856432,0.006110925,-0.043260336,-0.038735468
OrientationDeg,1676593539518,121043148676586,40.0,-13.0,49.0
UncalMag,1676593539520,121043150010753,-67.9174,45.8476,-71.3944,-44.47528,5.575939,-61.08579
UncalGyro,1676593539523,121043153167308,3.9138136,-2.9998064,5.004208,0.00047114445,-0.0010287836,-0.0032451507
UncalAccel,1676593539527,121043157655834,13.450056,-8.939586,2.7918258,0.006110925,-0.043260336,-0.038735468
OrientationDeg,1676593539527,121043157655834,36.0,-11.0,47.0
UncalMag,1676593539529,121043160010998,-66.2094,45.884197,-71.6262,-44.47528,5.575939,-61.08579
UncalGyro,1676593539532,121043162147045,4.0543127,-3.0228667,4.5837803,0.00047114445,-0.0010287836,-0.0032451507
UncalAccel,1676593539536,121043166635814,13.11865,-8.37129,3.126821,0.006110925,-0.043260336,-0.038735468
OrientationDeg,1676593539536,121043166635814,33.0,-10.0,46.0
UncalMag,1676593539540,121043170010998,-65.599396,46.4698,-73.3342,-44.47528,5.575939,-61.08579
UncalGyro,1676593539541,121043171126537,4.1864123,-2.8780916,4.193437,0.00047114445,-0.0010287836,-0.0032451507
UncalAccel,1676593539544,121043175615550,12.638889,-7.299904,2.525026,0.006110925,-0.043260336,-0.038735468
OrientationDeg,1676593539544,121043175615550,29.0,-9.0,44.0
UncalMag,1676593539549,121043180010998,-64.196396,46.6284,-74.0906,-44.47528,5.575939,-61.08579
