# 
# Header Description:
# 
# Version: v3.0.5.6 Platform: 13 Manufacturer: Google Model: Pixel 6
# 
# Raw,utcTimeMillis,TimeNanos,LeapSecond,TimeUncertaintyNanos,FullBiasNanos,BiasNanos,BiasUncertaintyNanos,DriftNanosPerSecond,DriftUncertaintyNanosPerSecond,HardwareClockDiscontinuityCount,Svid,TimeOffsetNanos,State,ReceivedSvTimeNanos,ReceivedSvTimeUncertaintyNanos,Cn0DbHz,PseudorangeRateMetersPerSecond,PseudorangeRateUncertaintyMetersPerSecond,AccumulatedDeltaRangeState,AccumulatedDeltaRangeMeters,AccumulatedDeltaRangeUncertaintyMeters,CarrierFrequencyHz,CarrierCycles,CarrierPhase,CarrierPhaseUncertainty,MultipathIndicator,SnrInDb,ConstellationType,AgcDb,BasebandCn0DbHz,FullInterSignalBiasNanos,FullInterSignalBiasUncertaintyNanos,SatelliteInterSignalBiasNanos,SatelliteInterSignalBiasUncertaintyNanos,CodeType,ChipsetElapsedRealtimeNanos
# 
# UncalAccel,utcTimeMillis,elapsedRealtimeNanos,UncalAccelXMps2,UncalAccelYMps2,UncalAccelZMps2,BiasXMps2,BiasYMps2,BiasZMps2
# 
# Accel,utcTimeMillis,elapsedRealtimeNanos,AccelXMps2,AccelYMps2,AccelZMps2
# 
# UncalGyro,utcTimeMillis,elapsedRealtimeNanos,UncalGyroXRadPerSec,UncalGyroYRadPerSec,UncalGyroZRadPerSec,DriftXRadPerSec,DriftYRadPerSec,DriftZRadPerSec
# 
# Gyro,utcTimeMillis,elapsedRealtimeNanos,GyroXRadPerSec,GyroYRadPerSec,GyroZRadPerSec
# 
# UncalMag,utcTimeMillis,elapsedRealtimeNanos,UncalMagXMicroT,UncalMagYMicroT,UncalMagZMicroT,BiasXMicroT,BiasYMicroT,BiasZMicroT
# 
# Mag,utcTimeMillis,elapsedRealtimeNanos,MagXMicroT,MagYMicroT,MagZMicroT
# 
# OrientationDeg,utcTimeMillis,elapsedRealtimeNanos,yawDeg,rollDeg,pitchDeg
# 
# Fix,Provider,LatitudeDegrees,LongitudeDegrees,AltitudeMeters,SpeedMps,AccuracyMeters,BearingDegrees,UnixTimeMillis,SpeedAccuracyMps,BearingAccuracyDegrees,elapsedRealtimeNanos,VerticalAccuracyMeters
# 
# Nav,Svid,Type,Status,MessageId,Sub-messageId,Data(Bytes)
# 
# Status,UnixTimeMillis,SignalCount,SignalIndex,ConstellationType,Svid,CarrierFrequencyHz,Cn0DbHz,AzimuthDegrees,ElevationDegrees,UsedInFix,HasAlmanacData,HasEphemerisData,BasebandCn0DbHz
# 
UncalAccel,1676595150074,122653704711619,0.81954175,2.14038,11.637493,0.006110925,-0.043260336,-0.038735468
UncalGyro,1676595150088,122653718169383,0.15836681,0.004276057,-0.22632557,0.0005413151,-0.0009523277,-0.0032792455
UncalAccel,1676595150083,122653713682017,0.7190432,1.9304097,11.373684,0.006110925,-0.043260336,-0.038735468
UncalMag,1676595150081,122653712153331,-27.3646,-7.8202,-109.482796,-45.491467,0.31409264,-60.09035
UncalMag,1676595150091,122653722153820,-25.071,-7.2468,-107.8358,-45.491467,0.31409264,-60.09035
UncalGyro,1676595150096,122653727146862,0.17027868,0.17898351,-0.19975294,0.0005413151,-0.0009523277,-0.0032792455
UncalAccel,1676595150091,122653722661449,0.62093747,1.8107685,10.824532,0.006110925,-0.043260336,-0.038735468
UncalAccel,1676595150100,122653731636669,0.5479564,1.7868403,10.176077,0.006110925,-0.043260336,-0.038735468
UncalMag,1676595150102,122653732153820,-26.4252,-7.6738,-109.494995,-45.491467,0.31409264,-60.09035
Fix,GPS,37.4311280361,-122.1551441671,-6.918168941300745,0.25200686,3.191569,192.60374,1676595148999,0.10858402,19.49283,122653612371000,3.0
Fix,FLP,37.4311362000,-122.1551451000,-16.100000381469727,0.031363305,4.1,,1676595149666,,,122653296130504,2.9886978
Raw,1676595148999,112136000000,,,-1360630254863921231,0.0,7.49223148374327,294.0,1.0,23,2,0.0,16431,435166919692836,17,39.8838996887207,-538.2728246437882,0.15,16,-60355.652504222206,340282346638528860000000000000000000000,1575420030,,,,0,,1,,35.68389892578125,0.0,1.0,0.0,1.0,C,122653612371000
Raw,1676595148999,112136000000,,,-1360630254863921231,0.0,7.49223148374327,294.0,1.0,23,6,0.0,16431,435166927014777,37,30.414886474609375,587.3648541946791,0.7710590631926713,16,65511.86002036991,340282346638528860000000000000000000000,1575420030,,,,0,,1,,26.214885711669922,0.320142130558394,1.0,0.320142130558394,1.0,C,122653612371000
Raw,1676595148999,112136000000,,,-1360630254863921231,0.0,7.49223148374327,294.0,1.0,23,11,0.0,16431,435166931981642,18,38.9686279296875,88.90027060462035,0.15,16,9334.166959075746,340282346638528860000000000000000000000,1575420030,,,,0,,1,,34.76862716674805,-0.20372681261465636,1.0,-0.20372681261465636,1.0,C,122653612371000
Raw,1676595148999,112136000000,,,-1360630254863921231,0.0,7.49223148374327,294.0,1.0,23,12,0.0,16431,435166931812295,13,42.916202545166016,-133.89172052265405,0.15,16,-15384.40012618175,340282346638528860000000000000000000000,1575420030,,,,0,,1,,38.71620178222656,-0.6984919076624261,1.0,-0.6984919076624261,1.0,C,122653612371000
Raw,1676595148999,112136000000,,,-1360630254863921231,0.0,7.49223148374327,294.0,1.0,23,19,0.0,16431,435166922567647,24,35.869571685791016,602.670944594508,0.5249679173647299,16,67457.51484122952,340282346638528860000000000000000000000,1575420030,,,,0,,1,,31.669572830200195,0.0,1.0,0.0,1.0,C,122653612371000
Raw,1676595148999,112136000000,,,-1360630254863921231,0.0,7.49223148374327,294.0,1.0,23,20,0.0,16431,435166923926756,12,46.2011833190918,-425.4002492543709,0.15,16,-47813.05315181987,340282346638528860000000000000000000000,1575420030,,,,0,,1,,42.001182556152344,0.0,1.0,0.0,1.0,C,122653612371000
Raw,1676595148999,112136000000,,,-1360630254863921231,0.0,7.49223148374327,294.0,1.0,23,24,0.0,16431,435166924303524,14,42.35816955566406,632.7033828087128,0.15,16,69234.31694648016,340282346638528860000000000000000000000,1575420030,,,,0,,1,,38.15816879272461,-0.20372681261465636,1.0,-0.20372681261465636,1.0,C,122653612371000
Raw,1676595148999,112136000000,,,-1360630254863921231,0.0,7.49223148374327,294.0,1.0,23,25,0.0,16431,435166927475281,24,35.74844741821289,-417.89348595785236,0.5312975354524798,16,-46979.132335966926,340282346638528860000000000000000000000,1575420030,,,,0,,1,,31.54844856262207,-2.0372682255564105,1.0,-2.0372682255564105,1.0,C,122653612371000
Raw,1676595148999,112136000000,,,-1360630254863921231,0.0,7.49223148374327,294.0,1.0,23,29,0.0,16431,435166919352289,15,41.25972366333008,-396.32982245797893,0.15,16,-44327.85686276667,340282346638528860000000000000000000000,1575420030,,,,0,,1,,37.059722900390625,-0.6984919076624261,1.0,-0.6984919076624261,1.0,C,122653612371000
Raw,1676595148999,112136000000,,,-1360630254863921231,0.0,7.49223148374327,294.0,1.0,23,6,0.0,81921,435166927015342,18,31.619470596313477,588.2696070855336,0.7123934366914217,16,67268.35822065026,340282346638528860000000000000000000000,1176450050,,,,0,,1,,27.51947021484375,1.9208527336454408,2.047159470151212,1.9208527336454408,1.0,Q,122653612371000
Raw,1676595148999,112136000000,,,-1360630254863921231,0.0,7.49223148374327,294.0,1.0,23,11,0.0,81921,435166931982195,7,39.35747528076172,89.27020158771893,0.15,16,9545.459879232347,340282346638528860000000000000000000000,1176450050,,,,0,,1,,35.257476806640625,0.0,2.047159470151212,0.0,1.0,Q,122653612371000
Raw,1676595148999,112136000000,,,-1360630254863921231,0.0,7.49223148374327,294.0,1.0,23,24,0.0,81921,435166924304059,8,42.63274383544922,632.97256605033,0.15,16,69842.00797021828,340282346638528860000000000000000000000,1176450050,,,,0,,1,,38.532745361328125,3.5215636101095664,2.047159470151212,3.5215636101095664,1.0,Q,122653612371000
Raw,1676595148999,112136000000,,,-1360630254863921231,0.0,7.49223148374327,294.0,1.0,23,25,0.0,81921,435166927475832,40,27.08953285217285,-418.1172372849246,0.9161823627686916,16,-48296.09345641363,340282346638528860000000000000000000000,1176450050,,,,0,,1,,22.989532470703125,1.0186341127782053,2.047159470151212,1.0186341127782053,1.0,Q,122653612371000
Raw,1676595148999,112136000000,,,-1360630254863921231,0.0,7.49223148374327,294.0,1.0,23,14,0.0,32867,13948930278148,33,40.33171081542969,714.4666506876306,0.15,16,80041.14715913657,340282346638528860000000000000000000000,1598062460,,,,0,,3,,36.131710052490234,50.29141902923584,2.0000000474974513,50.29141902923584,2.0000000474974513,C,122653612371000
Raw,1676595148999,112136000000,,,-1360630254863921231,0.0,7.49223148374327,294.0,1.0,23,18,0.0,32995,13948930086059,33,43.727970123291016,-355.97428531740616,0.15,16,-40519.47859702062,340282346638528860000000000000000000000,1600312450,,,,0,,3,,39.52796936035156,50.29141902923584,2.0000000474974513,50.29141902923584,2.0000000474974513,C,122653612371000
Raw,1676595148999,112136000000,,,-1360630254863921231,0.0,7.49223148374327,294.0,1.0,23,16,0.0,32995,13948926249750,36,39.44301223754883,-622.8635731158383,0.15,16,-69303.1105190399,340282346638528860000000000000000000000,1601437440,,,,0,,3,,35.243011474609375,50.29141902923584,2.0000000474974513,50.29141902923584,2.0000000474974513,C,122653612371000
Raw,1676595148999,112136000000,,,-1360630254863921231,0.0,7.49223148374327,294.0,1.0,23,15,0.0,32995,13948935928194,33,40.47567367553711,-0.6975345507242428,0.15,16,-921.2567908571534,340282346638528860000000000000000000000,1602000000,,,,0,,3,,36.275672912597656,50.29141902923584,2.0000000474974513,50.29141902923584,2.0000000474974513,C,122653612371000
Raw,1676595148999,112136000000,,,-1360630254863921231,0.0,7.49223148374327,294.0,1.0,23,24,0.0,32995,13948926425683,52,34.708221435546875,737.8519192412787,0.577886755754959,16,82156.47352659222,340282346638528860000000000000000000000,1603124990,,,,1,,3,,30.508220672607422,50.29141902923584,2.0000000474974513,50.29141902923584,2.0000000474974513,C,122653612371000
Raw,1676595148999,112136000000,,,-1360630254863921231,0.0,7.49223148374327,294.0,1.0,23,17,0.0,32995,13948935676752,33,40.95732879638672,239.28028265528178,0.15,16,26247.574817529712,340282346638528860000000000000000000000,1604249980,,,,0,,3,,36.757328033447266,50.29141902923584,2.0000000474974513,50.29141902923584,2.0000000474974513,C,122653612371000
Raw,1676595148999,112136000000,,,-1360630254863921231,0.0,7.49223148374327,294.0,1.0,23,2,0.0,85026,435166921741744,19,38.645206451416016,212.71987541074043,0.15,16,23526.0320689329,340282346638528860000000000000000000000,1575420030,,,,0,,6,,34.44520568847656,-6.024492904543876,1.5000000237487257,-6.024492904543876,1.5000000237487257,C,122653612371000
Raw,1676595148999,112136000000,,,-1360630254863921231,0.0,7.49223148374327,294.0,1.0,23,11,0.0,85026,435166908373418,34,31.303916931152344,625.1145830393439,0.7306051177517343,16,68502.54389105969,340282346638528860000000000000000000000,1575420030,,,,0,,6,,27.103918075561523,-6.024492904543876,1.5000000237487257,-6.024492904543876,1.5000000237487257,C,122653612371000
Raw,1676595148999,112136000000,,,-1360630254863921231,0.0,7.49223148374327,294.0,1.0,23,15,0.0,85026,435166907842729,17,40.15602493286133,-461.83027130001597,0.15,16,-51156.229274282756,340282346638528860000000000000000000000,1575420030,,,,0,,6,,35.956024169921875,-6.024492904543876,1.5000000237487257,-6.024492904543876,1.5000000237487257,C,122653612371000
Raw,1676595148999,112136000000,,,-1360630254863921231,0.0,7.49223148374327,294.0,1.0,23,25,0.0,85026,435166910784078,13,43.12520217895508,548.3381238690176,0.15,16,60576.616821962045,340282346638528860000000000000000000000,1575420030,,,,0,,6,,38.925201416015625,-6.024492904543876,1.5000000237487257,-6.024492904543876,1.5000000237487257,C,122653612371000
Raw,1676595148999,112136000000,,,-1360630254863921231,0.0,7.49223148374327,294.0,1.0,23,30,0.0,85026,435166916950552,14,42.19325637817383,-258.89235061220256,0.15,16,-28778.1982631959,340282346638528860000000000000000000000,1575420030,,,,0,,6,,37.993255615234375,-6.024492904543876,1.5000000237487257,-6.024492904543876,1.5000000237487257,C,122653612371000
Raw,1676595148999,112136000000,,,-1360630254863921231,0.0,7.49223148374327,294.0,1.0,23,34,0.0,85026,435166920543859,20,37.63200378417969,-182.40923914516816,0.15,16,-21030.266013171622,340282346638528860000000000000000000000,1575420030,,,,0,,6,,33.432003021240234,-6.024492904543876,1.5000000237487257,-6.024492904543876,1.5000000237487257,C,122653612371000
Raw,1676595148999,112136000000,,,-1360630254863921231,0.0,7.49223148374327,294.0,1.0,23,36,0.0,85026,435166920069417,38,29.956504821777344,346.8844600803161,0.7911420841314394,16,38002.91131596959,340282346638528860000000000000000000000,1575420030,,,,0,,6,,25.75650405883789,-6.024492904543876,1.5000000237487257,-6.024492904543876,1.5000000237487257,C,122653612371000
Raw,1676595148999,112136000000,,,-1360630254863921231,0.0,7.49223148374327,294.0,1.0,23,2,0.0,84003,435166921742277,10,38.81477737426758,212.7892502509926,0.15,16,23550.909117173123,340282346638528860000000000000000000000,1176450050,,,,0,,6,,34.714778900146484,-4.362151958048344,2.5471594938999376,-4.362151958048344,1.5000000237487257,Q,122653612371000
Raw,1676595148999,112136000000,,,-1360630254863921231,0.0,7.49223148374327,294.0,1.0,23,11,0.0,84003,435166908373960,19,30.05039405822754,624.4505886213665,0.783197410262134,16,68508.35338152866,340282346638528860000000000000000000000,1176450050,,,,0,,6,,25.950393676757812,4.134257324039933,2.5471594938999376,4.134257324039933,1.5000000237487257,Q,122653612371000
Raw,1676595148999,112136000000,,,-1360630254863921231,0.0,7.49223148374327,294.0,1.0,23,15,0.0,84003,435166907843243,8,34.138587951660156,-461.79066748553646,0.5992603834653369,16,-50688.72408685366,340282346638528860000000000000000000000,1176450050,,,,0,,6,,30.038589477539062,-11.196220293641087,2.5471594938999376,-11.196220293641087,1.5000000237487257,Q,122653612371000
Raw,1676595148999,112136000000,,,-1360630254863921231,0.0,7.49223148374327,294.0,1.0,23,25,0.0,84003,435166910784594,8,35.64078140258789,548.2643012681892,0.5322375655497198,16,59983.98125254271,340282346638528860000000000000000000000,1176450050,,,,0,,6,,31.540782928466797,-8.795061148703097,2.5471594938999376,-8.795061148703097,1.5000000237487257,Q,122653612371000
Raw,1676595148999,112136000000,,,-1360630254863921231,0.0,7.49223148374327,294.0,1.0,23,30,0.0,84003,435166916951096,18,30.771852493286133,-258.8824837410392,0.7522970037133536,16,-28428.06051490743,340282346638528860000000000000000000000,1176450050,,,,0,,6,,26.671852111816406,-8.425652049481869,2.5471594938999376,-8.425652049481869,1.5000000237487257,Q,122653612371000
Raw,1676595148999,112136000000,,,-1360630254863921231,0.0,7.49223148374327,294.0,1.0,23,34,0.0,84003,435166920544442,7,36.04370880126953,-182.28175371654459,0.15,16,-21171.199794468826,340282346638528860000000000000000000000,1176450050,,,,0,,6,,31.943708419799805,-10.0879929959774,2.5471594938999376,-10.0879929959774,1.5000000237487257,Q,122653612371000
Raw,1676595148999,112136000000,,,-1360630254863921231,0.0,7.49223148374327,294.0,1.0,23,36,0.0,84003,435166920069965,39,26.98741340637207,346.3326991916683,0.9230399260960556,16,38666.962534780774,340282346638528860000000000000000000000,1176450050,,,,0,,6,,22.887413024902344,-11.011515744030472,2.5471594938999376,-11.011515744030472,1.5000000237487257,Q,122653612371000
UncalMag,1676595150111,122653742153820,-30.133999,-8.8572,-109.189995,-45.491467,0.31409264,-60.09035
UncalGyro,1676595150105,122653736125316,0.14080444,0.30482176,-0.17073683,0.0005413151,-0.0009523277,-0.0032792455
UncalAccel,1676595150109,122653740616832,0.8380861,1.7700906,9.242876,0.006110925,-0.043260336,-0.038735468
OrientationDeg,1676595150082,122653713682017,278.0,0.0,-17.0
OrientationDeg,1676595150091,122653722661449,278.0,0.0,-17.0
OrientationDeg,1676595150109,122653740616832,279.0,0.0,-17.0
UncalGyro,1676595150114,122653745106212,0.07819075,0.322995,-0.14966199,0.0005413151,-0.0009523277,-0.0032792455
UncalGyro,1676595150124,122653754085949,0.0025961774,0.28787026,-0.1525636,0.0005413151,-0.0009523277,-0.0032792455
UncalAccel,1676595150119,122653749595592,0.6041877,2.2223341,9.025128,0.006110925,-0.043260336,-0.038735468
OrientationDeg,1676595150118,122653749595592,279.0,0.0,-17.0
UncalMag,1676595150121,122653752155285,-29.463,-9.0036,-109.202194,-45.491467,0.31409264,-60.09035
UncalAccel,1676595150128,122653758568981,0.2727818,2.617748,9.216555,0.006110925,-0.043260336,-0.038735468
OrientationDeg,1676595150128,122653758568981,279.0,0.0,-17.0
UncalMag,1676595150132,122653762155773,-30.9636,-9.3574,-111.1176,-45.491467,0.31409264,-60.09035
UncalGyro,1676595150132,122653763066051,-0.03894266,0.21227567,-0.16187929,0.0005413151,-0.0009523277,-0.0032792455
UncalAccel,1676595150136,122653767555125,0.18065812,2.661417,9.625728,0.006110925,-0.043260336,-0.038735468
OrientationDeg,1676595150136,122653767555125,279.0,0.0,-17.0
UncalGyro,1676595150141,122653772051341,-0.050396383,0.14492778,-0.15485434,0.0005413151,-0.0009523277,-0.0032792455
UncalMag,1676595150141,122653772148937,-26.3764,-7.6615996,-108.6166,-45.491467,0.31409264,-60.09035
UncalAccel,1676595150145,122653776536144,0.28235307,2.5938199,10.0881405,0.006110925,-0.043260336,-0.038735468
OrientationDeg,1676595150145,122653776536144,279.0,0.0,-17.0
UncalGyro,1676595150151,122653781026317,-0.02076942,0.10705414,-0.16172658,0.0005413151,-0.0009523277,-0.0032792455
UncalMag,1676595150152,122653782154308,-27.767199,-8.3692,-108.8118,-45.491467,0.31409264,-60.09035
UncalAccel,1676595150155,122653785514843,0.4211368,2.3868406,10.668998,0.006110925,-0.043260336,-0.038735468
OrientationDeg,1676595150154,122653785514843,279.0,0.0,-17.0
UncalGyro,1676595150160,122653790007030,0.06169739,0.13026701,-0.17180584,0.0005413151,-0.0009523277,-0.0032792455
UncalMag,1676595150162,122653792155285,-25.559,-7.1858,-110.3612,-45.491467,0.31409264,-60.09035
UncalAccel,1676595150164,122653794494884,0.46660042,1.8454645,11.233705,0.006110925,-0.043260336,-0.038735468
OrientationDeg,1676595150163,122653794494884,280.0,0.0,-17.0
UncalGyro,1676595150168,122653798985668,0.19807306,0.22602014,-0.12705997,0.0005413151,-0.0009523277,-0.0032792455
UncalMag,1676595150172,122653802154308,-23.1434,-6.6368,-107.604,-45.491467,0.31409264,-60.09035
UncalAccel,1676595150172,122653803473644,0.23868406,0.86859465,11.465808,0.006110925,-0.043260336,-0.038735468
OrientationDeg,1676595150172,122653803473644,280.0,0.0,-17.0
UncalGyro,1676595150177,122653807967967,0.33429602,0.36086863,0.04932737,0.0005413151,-0.0009523277,-0.0032792455
UncalMag,1676595150182,122653812155285,-22.472399,-6.7953997,-107.616196,-45.491467,0.31409264,-60.09035
UncalAccel,1676595150181,122653812457103,-0.10707881,0.43908295,11.386247,0.006110925,-0.043260336,-0.038735468
OrientationDeg,1676595150182,122653812457103,280.0,0.0,-17.0
UncalGyro,1676595150186,122653816944957,0.4728097,0.46731192,0.2770274,0.0005413151,-0.0009523277,-0.0032792455
UncalAccel,1676595150190,122653821435313,-0.14596218,0.6358926,11.820544,0.006110925,-0.043260336,-0.038735468
UncalMag,1676595150192,122653822155529,-22.0698,-6.3561997,-109.4462,-45.491467,0.31409264,-60.09035
OrientationDeg,1676595150190,122653821435313,279.0,0.0,-18.0
UncalGyro,1676595150194,122653825925243,0.6606508,0.5882632,0.46761733,0.0005413151,-0.0009523277,-0.0032792455
UncalAccel,1676595150200,122653830422313,0.4408776,1.2562319,12.631711,0.006110925,-0.043260336,-0.038735468
OrientationDeg,1676595150200,122653830422313,279.0,1.0,-18.0
UncalMag,1676595150202,122653832153576,-24.2902,-7.5274,-110.1782,-45.491467,0.31409264,-60.09035
UncalGyro,1676595150204,122653834908946,0.9257663,0.7556403,0.5888741,0.0005413151,-0.0009523277,-0.0032792455
UncalAccel,1676595150209,122653839396312,1.1144571,1.7174485,13.099507,0.006110925,-0.043260336,-0.038735468
OrientationDeg,1676595150208,122653839396312,279.0,1.0,-18.0
UncalMag,1676595150212,122653842154552,-27.9502,-10.797,-113.826,-45.491467,0.31409264,-60.09035
UncalGyro,1676595150212,122653843883617,1.2522738,0.9228647,0.64996064,0.0005413151,-0.0009523277,-0.0032792455
UncalAccel,1676595150218,122653848373302,1.5631114,2.2851455,12.899707,0.006110925,-0.043260336,-0.038735468
OrientationDeg,1676595150217,122653848373302,279.0,1.0,-19.0
UncalMag,1676595150221,122653852156261,-22.814,-8.686399,-105.5422,-45.491467,0.31409264,-60.09035
UncalGyro,1676595150222,122653852867137,1.6140587,0.9831876,0.6488916,0.0005413151,-0.0009523277,-0.0032792455
OrientationDeg,1676595150227,122653857353282,279.0,2.0,-20.0
UncalAccel,1676595150226,122653857353282,2.1068804,2.684747,12.384652,0.006110925,-0.043260336,-0.038735468
UncalGyro,1676595150230,122653861847484,1.992337,0.95829487,0.5708536,0.0005413151,-0.0009523277,-0.0032792455
UncalMag,1676595150232,122653862153331,-23.911999,-9.943,-105.652,-45.491467,0.31409264,-60.09035
OrientationDeg,1676595150236,122653866332652,278.0,2.0,-21.0
UncalAccel,1676595150236,122653866332652,2.352743,3.1812577,10.701301,0.006110925,-0.043260336,-0.038735468
UncalGyro,1676595150239,122653870823619,2.195755,0.65576386,0.32543847,0.0005413151,-0.0009523277,-0.0032792455
UncalMag,1676595150242,122653872154064,-23.0458,-10.5896,-104.859,-45.491467,0.31409264,-60.09035
UncalAccel,1676595150244,122653875312999,2.0548365,4.226323,6.068198,0.006110925,-0.043260336,-0.038735468
OrientationDeg,1676595150245,122653875312999,279.0,2.0,-22.0
UncalGyro,1676595150249,122653879806407,1.8872682,-0.33017266,-0.16600263,0.0005413151,-0.0009523277,-0.0032792455
UncalMag,1676595150251,122653882156017,-23.911999,-12.053599,-105.3958,-45.491467,0.31409264,-60.09035
UncalAccel,1676595150253,122653884293956,2.1212373,4.618746,4.788636,0.006110925,-0.043260336,-0.038735468
UncalGyro,1676595150258,122653888784069,1.4576772,-1.410946,-0.7405214,0.0005413151,-0.0009523277,-0.0032792455
OrientationDeg,1676595150254,122653884293956,279.0,2.0,-23.0
UncalMag,1676595150262,122653892158214,-23.4362,-12.1756,-104.493,-45.491467,0.31409264,-60.09035
UncalAccel,1676595150262,122653893270884,2.7218359,3.92064,7.570891,0.006110925,-0.043260336,-0.038735468
OrientationDeg,1676595150262,122653893270884,280.0,1.0,-24.0
UncalGyro,1676595150266,122653897763194,1.274723,-2.0291417,-1.1921035,0.0005413151,-0.0009523277,-0.0032792455
UncalMag,1676595150271,122653902155040,-25.973799,-12.968599,-106.4694,-45.491467,0.31409264,-60.09035
UncalAccel,1676595150272,122653902253978,2.7499514,3.5042887,9.937392,0.006110925,-0.043260336,-0.038735468
OrientationDeg,1676595150272,122653902253978,280.0,0.0,-25.0
UncalGyro,1676595150276,122653906742198,1.2585351,-2.2201898,-1.449125,0.0005413151,-0.0009523277,-0.0032792455
UncalAccel,1676595150281,122653911233471,2.7714868,2.6703901,11.043475,0.006110925,-0.043260336,-0.038735468
UncalMag,1676595150282,122653912154552,-25.229599,-12.248799,-104.493,-45.491467,0.31409264,-60.09035
OrientationDeg,1676595150280,122653911233471,281.0,0.0,-25.0
UncalGyro,1676595150285,122653915722179,1.2947289,-2.2273674,-1.5508342,0.0005413151,-0.0009523277,-0.0032792455
UncalAccel,1676595150290,122653920214611,3.1519456,2.3084757,10.700105,0.006110925,-0.043260336,-0.038735468
OrientationDeg,1676595150289,122653920214611,282.0,0.0,-26.0
UncalMag,1676595150291,122653922147472,-26.9132,-12.749,-105.5666,-45.491467,0.31409264,-60.09035
UncalGyro,1676595150293,122653924701427,1.3150401,-2.2296581,-1.5871806,0.0005413151,-0.0009523277,-0.0032792455
OrientationDeg,1676595150299,122653929194469,283.0,-1.0,-26.0
UncalAccel,1676595150298,122653929194469,3.5126636,2.7756743,9.8321085,0.006110925,-0.043260336,-0.038735468
UncalMag,1676595150302,122653932158214,-26.632599,-13.066199,-105.8594,-45.491467,0.31409264,-60.09035
UncalGyro,1676595150302,122653933688426,1.3089315,-2.2847888,-1.6598736,0.0005413151,-0.0009523277,-0.0032792455
UncalAccel,1676595150308,122653938170665,3.7250266,3.493521,9.403194,0.006110925,-0.043260336,-0.038735468
OrientationDeg,1676595150308,122653938170665,284.0,-2.0,-27.0
UncalMag,1676595150311,122653942154552,-25.619999,-12.5171995,-105.7252,-45.491467,0.31409264,-60.09035
UncalGyro,1676595150312,122653942661876,1.297325,-2.2922719,-1.7852536,0.0005413151,-0.0009523277,-0.0032792455
OrientationDeg,1676595150317,122653947147777,285.0,-3.0,-28.0
UncalAccel,1676595150316,122653947147777,3.3056846,3.6640096,9.626326,0.006110925,-0.043260336,-0.038735468
UncalGyro,1676595150321,122653951641979,1.284955,-2.1905627,-1.9158261,0.0005413151,-0.0009523277,-0.0032792455
UncalMag,1676595150321,122653952153576,-23.985199,-11.955999,-106.078995,-45.491467,0.31409264,-60.09035
UncalAccel,1676595150325,122653956130565,2.658426,3.7304106,9.47139,0.006110925,-0.043260336,-0.038735468
OrientationDeg,1676595150326,122653956130565,286.0,-3.0,-29.0
UncalGyro,1676595150330,122653960621959,1.2319624,-2.0248656,-2.0218112,0.0005413151,-0.0009523277,-0.0032792455
UncalMag,1676595150331,122653962154796,-24.461,-12.5904,-106.383995,-45.491467,0.31409264,-60.09035
UncalAccel,1676595150334,122653965110423,1.7958134,3.6203406,9.23809,0.006110925,-0.043260336,-0.038735468
OrientationDeg,1676595150335,122653965110423,287.0,-4.0,-29.0
UncalGyro,1676595150339,122653969594921,1.0881038,-1.7334828,-2.0815234,0.0005413151,-0.0009523277,-0.0032792455
UncalMag,1676595150342,122653972155529,-25.583399,-12.3586,-108.1286,-45.491467,0.31409264,-60.09035
UncalAccel,1676595150344,122653974089489,0.88295156,3.3523445,9.38465,0.006110925,-0.043260336,-0.038735468
OrientationDeg,1676595150344,122653974089489,289.0,-4.0,-30.0
UncalGyro,1676595150348,122653978583018,0.89934635,-1.2841915,-2.0670152,0.0005413151,-0.0009523277,-0.0032792455
UncalMag,1676595150352,122653982165294,-22.997,-11.346,-106.7256,-45.491467,0.31409264,-60.09035
UncalAccel,1676595150352,122653983084849,-1.8011973,3.0951161,9.080762,0.006110925,-0.043260336,-0.038735468
OrientationDeg,1676595150352,122653983084849,290.0,-4.0,-30.0
UncalGyro,1676595150356,122653987574107,0.73991054,-0.7554876,-1.7321084,0.0005413151,-0.0009523277,-0.0032792455
UncalAccel,1676595150362,122653992063365,-7.2233334,3.6789649,8.453842,0.006110925,-0.043260336,-0.038735468
UncalMag,1676595150361,122653992153576,-25.9006,-12.187799,-107.3844,-45.491467,0.31409264,-60.09035
OrientationDeg,1676595150361,122653992063365,290.0,-3.0,-31.0
UncalGyro,1676595150365,122653996550792,0.52778757,-0.32268956,-0.9111055,0.0005413151,-0.0009523277,-0.0032792455
UncalAccel,1676595150370,122654001039989,-7.589435,3.7525442,7.2993054,0.006110925,-0.043260336,-0.038735468
UncalMag,1676595150372,122654002154308,-24.765999,-11.773,-106.859795,-45.491467,0.31409264,-60.09035
OrientationDeg,1676595150371,122654001039989,291.0,-3.0,-31.0
UncalGyro,1676595150374,122654005531688,0.2012801,-0.071013086,-0.09666943,0.0005413151,-0.0009523277,-0.0032792455
UncalAccel,1676595150380,122654010019664,-2.6536403,2.475375,5.9712887,0.006110925,-0.043260336,-0.038735468
OrientationDeg,1676595150380,122654010019664,291.0,-3.0,-31.0
UncalMag,1676595150381,122654012165294,-24.338999,-11.6144,-105.8228,-45.491467,0.31409264,-60.09035
UncalGyro,1676595150383,122654014511364,-0.16325374,0.0143553335,0.2941316,0.0005413151,-0.0009523277,-0.0032792455
UncalAccel,1676595150388,122654018998852,1.0803595,2.2229323,6.2679987,0.006110925,-0.043260336,-0.038735468
OrientationDeg,1676595150388,122654018998852,290.0,-3.0,-31.0
UncalMag,1676595150392,122654022165539,-24.7538,-11.8949995,-107.481995,-45.491467,0.31409264,-60.09035
UncalGyro,1676595150393,122654023490489,-0.39461896,0.08078693,0.3743077,0.0005413151,-0.0009523277,-0.0032792455
UncalAccel,1676595150396,122654027980175,2.7266214,2.9718857,8.00459,0.006110925,-0.043260336,-0.038735468
OrientationDeg,1676595150396,122654027980175,290.0,-3.0,-30.0
UncalMag,1676595150401,122654032153576,-24.9124,-11.8218,-107.97,-45.491467,0.31409264,-60.09035
UncalGyro,1676595150401,122654032468944,-0.42836925,0.19440787,0.32818735,0.0005413151,-0.0009523277,-0.0032792455
UncalAccel,1676595150405,122654036954113,3.795615,3.1334012,9.001201,0.006110925,-0.043260336,-0.038735468
OrientationDeg,1676595150406,122654036954113,290.0,-3.0,-30.0
UncalGyro,1676595150411,122654041449779,-0.32834008,0.26542094,0.21487185,0.0005413151,-0.0009523277,-0.0032792455
UncalMag,1676595150411,122654042165539,-24.6562,-12.0292,-107.97,-45.491467,0.31409264,-60.09035
UncalAccel,1676595150414,122654045938610,4.2795634,3.8458643,10.51825,0.006110925,-0.043260336,-0.038735468
OrientationDeg,1676595150415,122654045938610,290.0,-3.0,-30.0
UncalGyro,1676595150420,122654050430796,-0.1498147,0.49327368,0.06261369,0.0005413151,-0.0009523277,-0.0032792455
UncalMag,1676595150421,122654052165294,-26.3154,-12.1024,-108.3726,-45.491467,0.31409264,-60.09035
UncalAccel,1676595150423,122654054915355,4.409972,4.3441696,11.96531,0.006110925,-0.043260336,-0.038735468
OrientationDeg,1676595150423,122654054915355,290.0,-3.0,-30.0
UncalGyro,1676595150428,122654059397899,0.09330966,0.8781188,-0.077579886,0.0005413151,-0.0009523277,-0.0032792455
UncalMag,1676595150431,122654062165294,-25.119799,-11.5412,-107.543,-45.491467,0.31409264,-60.09035
UncalAccel,1676595150432,122654063899303,4.0797625,4.384249,11.363515,0.006110925,-0.043260336,-0.038735468
OrientationDeg,1676595150432,122654063899303,290.0,-2.0,-30.0
UncalGyro,1676595150437,122654068389049,0.38026363,1.1282681,-0.1638646,0.0005413151,-0.0009523277,-0.0032792455
UncalMag,1676595150441,122654072165294,-26.9986,-12.3952,-106.628,-45.491467,0.31409264,-60.09035
UncalAccel,1676595150441,122654072881054,3.4941192,4.243073,9.963714,0.006110925,-0.043260336,-0.038735468
OrientationDeg,1676595150442,122654072881054,290.0,-2.0,-30.0
UncalGyro,1676595150446,122654077369762,0.63132924,1.1899655,-0.20677789,0.0005413151,-0.0009523277,-0.0032792455
UncalAccel,1676595150451,122654081857799,3.0933216,4.115655,8.907881,0.006110925,-0.043260336,-0.038735468
UncalMag,1676595150451,122654082159435,-27.376799,-13.2369995,-106.6524,-45.491467,0.31409264,-60.09035
OrientationDeg,1676595150451,122654081857799,290.0,-1.0,-31.0
UncalGyro,1676595150456,122654086348522,0.7677049,1.1406381,-0.24113905,0.0005413151,-0.0009523277,-0.0032792455
UncalAccel,1676595150459,122654090837047,2.6871397,3.868596,7.8089767,0.006110925,-0.043260336,-0.038735468
OrientationDeg,1676595150460,122654090837047,290.0,-1.0,-31.0
UncalMag,1676595150462,122654092165294,-27.376799,-13.2369995,-106.6524,-45.491467,0.31409264,-60.09035
UncalGyro,1676595150464,122654095328685,0.7725918,0.990518,-0.2733622,0.0005413151,-0.0009523277,-0.0032792455
UncalAccel,1676595150468,122654099818065,2.5058835,3.437888,7.071987,0.006110925,-0.043260336,-0.038735468
OrientationDeg,1676595150468,122654099818065,291.0,0.0,-31.0
UncalMag,1676595150472,122654102165539,-21.777,-12.2976,-104.4808,-45.491467,0.31409264,-60.09035
UncalGyro,1676595150474,122654104308300,0.70952,0.7910705,-0.28939742,0.0005413151,-0.0009523277,-0.0032792455
UncalAccel,1676595150477,122654108796947,2.6350958,3.129812,6.574878,0.006110925,-0.043260336,-0.038735468
OrientationDeg,1676595150477,122654108796947,291.0,0.0,-32.0
UncalMag,1676595150481,122654112165539,-21.2402,-12.4074,-102.479996,-45.491467,0.31409264,-60.09035
UncalGyro,1676595150482,122654113287548,0.63148195,0.5729916,-0.2950479,0.0005413151,-0.0009523277,-0.0032792455
UncalAccel,1676595150486,122654117774546,2.6386852,3.0963125,6.741778,0.006110925,-0.043260336,-0.038735468
OrientationDeg,1676595150487,122654117774546,291.0,0.0,-32.0
UncalMag,1676595150492,122654122165783,-23.4118,-13.261399,-106.4084,-45.491467,0.31409264,-60.09035
UncalGyro,1676595150491,122654122255931,0.5540548,0.42531493,-0.29520062,0.0005413151,-0.0009523277,-0.0032792455
UncalAccel,1676595150496,122654126744518,2.760719,3.0957143,7.1282187,0.006110925,-0.043260336,-0.038735468
OrientationDeg,1676595150495,122654126744518,291.0,0.0,-32.0
UncalGyro,1676595150500,122654131244517,0.47632217,0.377362,-0.29779682,0.0005413151,-0.0009523277,-0.0032792455
UncalMag,1676595150502,122654132165294,-25.6444,-15.0182,-110.3612,-45.491467,0.31409264,-60.09035
UncalAccel,1676595150505,122654135727611,3.2422748,3.2703903,7.3842506,0.006110925,-0.043260336,-0.038735468
OrientationDeg,1676595150505,122654135727611,292.0,0.0,-32.0
UncalGyro,1676595150509,122654140229930,0.39293906,0.38973203,-0.32055154,0.0005413151,-0.0009523277,-0.0032792455
UncalMag,1676595150512,122654142165294,-22.448,-13.1882,-105.4202,-45.491467,0.31409264,-60.09035
UncalAccel,1676595150514,122654144716319,3.5407794,3.4941192,7.181459,0.006110925,-0.043260336,-0.038735468
OrientationDeg,1676595150513,122654144716319,292.0,0.0,-33.0
UncalGyro,1676595150518,122654149210887,0.28848112,0.36132678,-0.3633121,0.0005413151,-0.0009523277,-0.0032792455
UncalMag,1676595150521,122654152165294,-24.3146,-14.03,-104.187996,-45.491467,0.31409264,-60.09035
UncalAccel,1676595150523,122654153695934,3.394817,3.5712879,6.814161,0.006110925,-0.043260336,-0.038735468
OrientationDeg,1676595150522,122654153695934,292.0,1.0,-33.0
UncalGyro,1676595150527,122654158186412,0.15958855,0.24633141,-0.40118575,0.0005413151,-0.0009523277,-0.0032792455
UncalMag,1676595150532,122654162165539,-24.7416,-14.274,-104.7858,-45.491467,0.31409264,-60.09035
UncalAccel,1676595150531,122654162675121,3.1070802,3.2997024,6.8452673,0.006110925,-0.043260336,-0.038735468
OrientationDeg,1676595150531,122654162675121,292.0,1.0,-33.0
UncalGyro,1676595150537,122654167166637,0.023518313,0.101556346,-0.4034765,0.0005413151,-0.0009523277,-0.0032792455
UncalAccel,1676595150541,122654171656444,2.969493,3.1232316,7.3579297,0.006110925,-0.043260336,-0.038735468
UncalMag,1676595150541,122654172153576,-25.0954,-13.8592,-104.968796,-45.491467,0.31409264,-60.09035
OrientationDeg,1676595150540,122654171656444,293.0,1.0,-33.0
UncalGyro,1676595150545,122654176146190,-0.083383106,0.035888333,-0.36972618,0.0005413151,-0.0009523277,-0.0032792455
UncalAccel,1676595150550,122654180635143,2.906083,3.4067812,8.036295,0.006110925,-0.043260336,-0.038735468
OrientationDeg,1676595150550,122654180635143,293.0,1.0,-33.0
UncalMag,1676595150552,122654182153820,-22.545599,-13.261399,-101.2112,-45.491467,0.31409264,-60.09035
UncalGyro,1676595150555,122654185125622,-0.12965615,0.07513642,-0.33276883,0.0005413151,-0.0009523277,-0.0032792455
UncalAccel,1676595150559,122654189614940,2.7038896,3.8781674,8.285149,0.006110925,-0.043260336,-0.038735468
OrientationDeg,1676595150558,122654189614940,293.0,1.0,-33.0
UncalMag,1676595150562,122654192165294,-24.534199,-13.7616,-104.0904,-45.491467,0.31409264,-60.09035
UncalGyro,1676595150563,122654194105785,-0.10445796,0.13790283,-0.30757064,0.0005413151,-0.0009523277,-0.0032792455
UncalAccel,1676595150567,122654198591929,2.3216362,4.287938,8.076375,0.006110925,-0.043260336,-0.038735468
OrientationDeg,1676595150567,122654198591929,293.0,1.0,-32.0
UncalMag,1676595150572,122654202165294,-24.3146,-13.359,-104.127,-45.491467,0.31409264,-60.09035
UncalGyro,1676595150573,122654203072887,-0.022907447,0.13255776,-0.29886582,0.0005413151,-0.0009523277,-0.0032792455
UncalAccel,1676595150576,122654207563671,2.1655045,4.9022956,7.7880397,0.006110925,-0.043260336,-0.038735468
OrientationDeg,1676595150577,122654207563671,293.0,2.0,-32.0
UncalGyro,1676595150581,122654212065624,0.061850104,0.079870634,-0.34697145,0.0005413151,-0.0009523277,-0.0032792455
UncalMag,1676595150581,122654212153576,-23.3752,-13.0296,-103.748795,-45.491467,0.31409264,-60.09035
UncalAccel,1676595150585,122654216556773,2.0949163,5.4592247,7.5140615,0.006110925,-0.043260336,-0.038735468
OrientationDeg,1676595150586,122654216556773,294.0,2.0,-33.0
UncalGyro,1676595150591,122654221044322,0.1207986,-0.01450805,-0.4427246,0.0005413151,-0.0009523277,-0.0032792455
UncalMag,1676595150592,122654222165539,-23.4728,-13.115,-105.2616,-45.491467,0.31409264,-60.09035
UncalAccel,1676595150595,122654225517162,1.6528423,5.3653064,7.111469,0.006110925,-0.043260336,-0.038735468
OrientationDeg,1676595150594,122654225517162,294.0,2.0,-33.0
UncalGyro,1676595150600,122654230024791,0.18448131,-0.19257528,-0.50243664,0.0005413151,-0.0009523277,-0.0032792455
UncalMag,1676595150601,122654232156994,-23.4362,-12.8588,-104.663795,-45.491467,0.31409264,-60.09035
UncalAccel,1676595150603,122654234513378,1.3351951,5.00758,7.1653075,0.006110925,-0.043260336,-0.038735468
OrientationDeg,1676595150603,122654234513378,294.0,2.0,-33.0
UncalGyro,1676595150609,122654239008922,0.2762638,-0.43325618,-0.5035057,0.0005413151,-0.0009523277,-0.0032792455
UncalMag,1676595150612,122654242165539,-23.7412,-12.9808,-105.2616,-45.491467,0.31409264,-60.09035
UncalAccel,1676595150613,122654243494396,1.3830515,4.9262238,7.055238,0.006110925,-0.043260336,-0.038735468
OrientationDeg,1676595150612,122654243494396,295.0,2.0,-33.0
UncalGyro,1676595150616,122654247984752,0.41080686,-0.7518224,-0.47128254,0.0005413151,-0.0009523277,-0.0032792455
OrientationDeg,1676595150621,122654252470103,295.0,1.0,-33.0
UncalMag,1676595150621,122654252165294,-23.3142,-13.176,-104.7736,-45.491467,0.31409264,-60.09035
UncalAccel,1676595150622,122654252470103,1.5469599,5.116453,6.9092755,0.006110925,-0.043260336,-0.038735468
UncalGyro,1676595150625,122654256952038,0.5804747,-1.1452196,-0.4454735,0.0005413151,-0.0009523277,-0.0032792455
UncalAccel,1676595150630,122654261452648,1.7533408,5.383851,7.059425,0.006110925,-0.043260336,-0.038735468
UncalMag,1676595150632,122654262153820,-21.9722,-12.7978,-104.8468,-45.491467,0.31409264,-60.09035
OrientationDeg,1676595150631,122654261452648,295.0,1.0,-33.0
UncalGyro,1676595150635,122654265940807,0.762818,-1.5357152,-0.43569964,0.0005413151,-0.0009523277,-0.0032792455
UncalAccel,1676595150640,122654270423716,1.9064814,5.435895,7.0839515,0.006110925,-0.043260336,-0.038735468
OrientationDeg,1676595150640,122654270423716,295.0,0.0,-34.0
UncalMag,1676595150641,122654272165294,-20.74,-12.0414,-99.1982,-45.491467,0.31409264,-60.09035
UncalGyro,1676595150643,122654274923778,0.91339624,-1.8403842,-0.4280638,0.0005413151,-0.0009523277,-0.0032792455
UncalAccel,1676595150648,122654279413463,1.6319051,5.078168,7.071389,0.006110925,-0.043260336,-0.038735468
OrientationDeg,1676595150648,122654279413463,296.0,0.0,-34.0
UncalMag,1676595150652,122654282165294,-23.4362,-13.4688,-99.6618,-45.491467,0.31409264,-60.09035
UncalGyro,1676595150652,122654283906139,0.9728029,-1.9663752,-0.38683042,0.0005413151,-0.0009523277,-0.0032792455
UncalAccel,1676595150658,122654288387950,0.6975078,4.8771706,6.742376,0.006110925,-0.043260336,-0.038735468
OrientationDeg,1676595150657,122654288387950,296.0,-1.0,-35.0
UncalMag,1676595150662,122654292165050,-21.654999,-12.2244,-100.3572,-45.491467,0.31409264,-60.09035
UncalGyro,1676595150661,122654292866527,0.9283624,-1.9737056,-0.2790127,0.0005413151,-0.0009523277,-0.0032792455
UncalAccel,1676595150667,122654297371654,-0.35473597,5.1182475,5.956932,0.006110925,-0.043260336,-0.038735468
OrientationDeg,1676595150666,122654297371654,296.0,-2.0,-35.0
UncalGyro,1676595150670,122654301862438,0.7866417,-1.9720258,-0.10170906,0.0005413151,-0.0009523277,-0.0032792455
UncalMag,1676595150671,122654302153576,-23.362999,-13.054,-101.247795,-45.491467,0.31409264,-60.09035
UncalAccel,1676595150676,122654306355479,-0.8207382,5.576473,5.3569317,0.006110925,-0.043260336,-0.038735468
OrientationDeg,1676595150675,122654306355479,296.0,-3.0,-36.0
UncalGyro,1676595150680,122654310842662,0.57971114,-2.0045543,0.094225965,0.0005413151,-0.0009523277,-0.0032792455
UncalMag,1676595150681,122654312165294,-24.0584,-13.785999,-100.174194,-45.491467,0.31409264,-60.09035
UncalAccel,1676595150684,122654315332225,-0.6664011,5.968298,4.668397,0.006110925,-0.043260336,-0.038735468
OrientationDeg,1676595150684,122654315332225,296.0,-4.0,-36.0
UncalGyro,1676595150689,122654319822094,0.35720345,-2.1533,0.28970283,0.0005413151,-0.0009523277,-0.0032792455
UncalMag,1676595150692,122654322165539,-24.375599,-13.724999,-100.4914,-45.491467,0.31409264,-60.09035
UncalAccel,1676595150693,122654324307872,-0.071186475,6.1178493,4.1240296,0.006110925,-0.043260336,-0.038735468
OrientationDeg,1676595150693,122654324307872,295.0,-5.0,-36.0
UncalGyro,1676595150697,122654328790477,0.14721853,-2.410627,0.48243082,0.0005413151,-0.0009523277,-0.0032792455
UncalMag,1676595150701,122654332148205,-25.388199,-13.7738,-101.2722,-45.491467,0.31409264,-60.09035
UncalAccel,1676595150703,122654333290966,0.67178494,6.017949,5.0368915,0.006110925,-0.043260336,-0.038735468
OrientationDeg,1676595150702,122654333290966,295.0,-7.0,-36.0
UncalGyro,1676595150707,122654337781993,-0.04734206,-2.640465,0.6730208,0.0005413151,-0.0009523277,-0.0032792455
UncalMag,1676595150711,122654342165294,-26.4862,-14.0788,-103.5414,-45.491467,0.31409264,-60.09035
UncalAccel,1676595150711,122654342270519,0.93738824,6.078966,6.3589263,0.006110925,-0.043260336,-0.038735468
OrientationDeg,1676595150711,122654342270519,295.0,-9.0,-36.0
UncalGyro,1676595150716,122654346749889,-0.25167647,-2.7310257,0.81245077,0.0005413151,-0.0009523277,-0.0032792455
UncalAccel,1676595150721,122654351251293,1.7306089,5.7200427,7.304091,0.006110925,-0.043260336,-0.038735468
UncalMag,1676595150722,122654352153576,-27.5598,-14.2252,-102.907,-45.491467,0.31409264,-60.09035
OrientationDeg,1676595150720,122654351251293,294.0,-10.0,-36.0
UncalGyro,1676595150725,122654355741100,-0.46654832,-2.674979,0.9482156,0.0005413151,-0.0009523277,-0.0032792455
UncalAccel,1676595150730,122654360233349,2.6895328,4.7509494,7.722835,0.006110925,-0.043260336,-0.038735468
OrientationDeg,1676595150730,122654360233349,293.0,-12.0,-35.0
UncalMag,1676595150731,122654362165539,-29.279999,-13.7982,-105.0542,-45.491467,0.31409264,-60.09035
UncalGyro,1676595150733,122654364718822,-0.6630942,-2.6444356,1.1951579,0.0005413151,-0.0009523277,-0.0032792455
UncalAccel,1676595150738,122654369198009,3.141776,4.8006005,7.9016986,0.006110925,-0.043260336,-0.038735468
OrientationDeg,1676595150738,122654369198009,293.0,-14.0,-35.0
UncalMag,1676595150741,122654372165294,-30.951399,-14.505799,-104.127,-45.491467,0.31409264,-60.09035
UncalGyro,1676595150742,122654373701000,-0.8219192,-2.738967,1.4588989,0.0005413151,-0.0009523277,-0.0032792455
UncalAccel,1676595150748,122654378189098,2.6135604,6.3338017,8.126026,0.006110925,-0.043260336,-0.038735468
OrientationDeg,1676595150747,122654378189098,292.0,-16.0,-34.0
UncalMag,1676595150751,122654382165294,-32.7692,-14.0788,-104.8956,-45.491467,0.31409264,-60.09035
UncalGyro,1676595150752,122654382683849,-0.88193667,-2.9460504,1.6052011,0.0005413151,-0.0009523277,-0.0032792455
UncalAccel,1676595150757,122654387169261,3.0622149,7.966305,8.598608,0.006110925,-0.043260336,-0.038735468
OrientationDeg,1676595150756,122654387169261,291.0,-18.0,-33.0
UncalGyro,1676595150761,122654391655529,-0.79412484,-3.1769574,1.617113,0.0005413151,-0.0009523277,-0.0032792455
UncalMag,1676595150762,122654392156261,-34.0624,-13.847,-106.676796,-45.491467,0.31409264,-60.09035
UncalAccel,1676595150765,122654396149303,3.8877387,7.8945203,9.250652,0.006110925,-0.043260336,-0.038735468
OrientationDeg,1676595150765,122654396149303,290.0,-20.0,-33.0
UncalGyro,1676595150769,122654400639782,-0.56382865,-3.3113477,1.5402967,0.0005413151,-0.0009523277,-0.0032792455
UncalMag,1676595150772,122654402165294,-38.5276,-14.8474,-106.713394,-45.491467,0.31409264,-60.09035
UncalAccel,1676595150775,122654405130259,4.0145583,7.7216387,10.384252,0.006110925,-0.043260336,-0.038735468
OrientationDeg,1676595150775,122654405130259,290.0,-22.0,-32.0
UncalGyro,1676595150779,122654409618053,-0.25671613,-3.1609223,1.2852604,0.0005413151,-0.0009523277,-0.0032792455
UncalMag,1676595150782,122654412165539,-39.4304,-14.8474,-107.0428,-45.491467,0.31409264,-60.09035
UncalAccel,1676595150783,122654414101940,3.4803605,7.6145597,11.196017,0.006110925,-0.043260336,-0.038735468
OrientationDeg,1676595150784,122654414101940,289.0,-24.0,-32.0
UncalGyro,1676595150787,122654418599742,-0.0036651916,-2.6719246,0.9440922,0.0005413151,-0.0009523277,-0.0032792455
UncalMag,1676595150792,122654422165539,-39.027798,-14.249599,-106.1034,-45.491467,0.31409264,-60.09035
UncalAccel,1676595150792,122654423089489,2.9395826,6.6735826,11.093724,0.006110925,-0.043260336,-0.038735468
OrientationDeg,1676595150793,122654423089489,289.0,-25.0,-32.0
UncalGyro,1676595150796,122654427580883,0.15210545,-2.0299053,0.7079928,0.0005413151,-0.0009523277,-0.0032792455
UncalAccel,1676595150802,122654432065501,3.2015967,6.1764736,8.418549,0.006110925,-0.043260336,-0.038735468
UncalMag,1676595150801,122654432149669,-38.4666,-14.2008,-106.847595,-45.491467,0.31409264,-60.09035
OrientationDeg,1676595150802,122654432065501,288.0,-26.0,-32.0
UncalGyro,1676595150805,122654436548717,0.22876903,-1.6151277,0.54809886,0.0005413151,-0.0009523277,-0.0032792455
UncalAccel,1676595150810,122654441047985,2.9066813,6.1441703,6.329614,0.006110925,-0.043260336,-0.038735468
OrientationDeg,1676595150811,122654441047985,288.0,-27.0,-32.0
UncalMag,1676595150812,122654442165783,-39.4548,-14.2374,-106.859795,-45.491467,0.31409264,-60.09035
UncalGyro,1676595150814,122654445538768,0.22464569,-1.4147639,0.45906523,0.0005413151,-0.0009523277,-0.0032792455
UncalAccel,1676595150820,122654450030223,2.6225336,6.1884375,5.0943193,0.006110925,-0.043260336,-0.038735468
OrientationDeg,1676595150819,122654450030223,288.0,-28.0,-32.0
UncalMag,1676595150821,122654452165539,-40.2234,-14.3716,-106.5914,-45.491467,0.31409264,-60.09035
UncalGyro,1676595150823,122654454514721,0.11942416,-1.2745703,0.42088616,0.0005413151,-0.0009523277,-0.0032792455
UncalAccel,1676595150827,122654458992687,3.1334012,6.4534426,4.430909,0.006110925,-0.043260336,-0.038735468
OrientationDeg,1676595150827,122654458992687,287.0,-29.0,-32.0
UncalMag,1676595150831,122654462165294,-40.5162,-13.9934,-107.298996,-45.491467,0.31409264,-60.09035
UncalGyro,1676595150833,122654463498668,-0.10873401,-1.0774136,0.3575089,0.0005413151,-0.0009523277,-0.0032792455
UncalAccel,1676595150836,122654467987255,3.6460636,6.7094746,4.2963133,0.006110925,-0.043260336,-0.038735468
OrientationDeg,1676595150836,122654467987255,287.0,-29.0,-32.0
UncalMag,1676595150841,122654472165294,-41.785,-14.2252,-106.5914,-45.491467,0.31409264,-60.09035
UncalGyro,1676595150842,122654472478953,-0.45677447,-0.7266242,0.24602598,0.0005413151,-0.0009523277,-0.0032792455
UncalAccel,1676595150846,122654476952220,3.7178483,6.579664,4.9345984,0.006110925,-0.043260336,-0.038735468
OrientationDeg,1676595150845,122654476952220,287.0,-29.0,-31.0
UncalGyro,1676595150850,122654481446178,-0.8523097,-0.19028452,0.13026701,0.0005413151,-0.0009523277,-0.0032792455
UncalMag,1676595150852,122654482165539,-45.384,-15.786799,-106.066795,-45.491467,0.31409264,-60.09035
UncalAccel,1676595150855,122654485946666,3.229114,5.9449677,5.4676,0.006110925,-0.043260336,-0.038735468
OrientationDeg,1676595150855,122654485946666,288.0,-29.0,-31.0
UncalGyro,1676595150860,122654490440868,-1.2226468,0.39828414,0.07651087,0.0005413151,-0.0009523277,-0.0032792455
UncalMag,1676595150862,122654492165294,-45.7012,-15.5306,-108.153,-45.491467,0.31409264,-60.09035
UncalAccel,1676595150863,122654494930491,2.4358935,5.087141,5.47418,0.006110925,-0.043260336,-0.038735468
OrientationDeg,1676595150864,122654494930491,288.0,-29.0,-30.0
UncalGyro,1676595150868,122654499417186,-1.5016595,0.86406887,0.12751812,0.0005413151,-0.0009523277,-0.0032792455
UncalMag,1676595150871,122654502165294,-45.2864,-14.6156,-107.7016,-45.491467,0.31409264,-60.09035
UncalAccel,1676595150873,122654503906688,2.0422742,4.1491547,4.64746,0.006110925,-0.043260336,-0.038735468
OrientationDeg,1676595150872,122654503906688,288.0,-28.0,-30.0
UncalGyro,1676595150877,122654508398082,-1.6575829,1.016938,0.25228736,0.0005409045,-0.00094682013,-0.0032784895
UncalMag,1676595150881,122654512165539,-42.883,-12.9442,-107.0428,-45.491467,0.31409264,-60.09035
UncalAccel,1676595150882,122654512886180,2.0015962,3.3768709,3.9188452,0.006110925,-0.043260336,-0.038735468
OrientationDeg,1676595150882,122654512886180,289.0,-27.0,-29.0
UncalGyro,1676595150887,122654517376842,-1.6777414,0.872621,0.39187005,0.0005406827,-0.00094384444,-0.003278081
UncalAccel,1676595150891,122654521865612,1.7473587,2.989832,3.6251264,0.006110925,-0.043260336,-0.038735468
UncalMag,1676595150892,122654522153576,-43.0904,-12.907599,-106.4572,-45.491467,0.31409264,-60.09035
OrientationDeg,1676595150891,122654521865612,289.0,-27.0,-28.0
UncalGyro,1676595150895,122654526357006,-1.5838208,0.54351735,0.5766568,0.0005406491,-0.00094339414,-0.0032780194
UncalAccel,1676595150900,122654530846324,1.0881361,2.6249263,3.3822548,0.006110925,-0.043260336,-0.038735468
OrientationDeg,1676595150899,122654530846324,289.0,-27.0,-27.0
UncalMag,1676595150902,122654532165539,-43.5906,-12.0414,-108.0676,-45.491467,0.31409264,-60.09035
UncalGyro,1676595150904,122654535336254,-1.4263704,0.087659165,0.9245446,0.00054064405,-0.00094332604,-0.0032780098
OrientationDeg,1676595150909,122654539825023,289.0,-27.0,-26.0
UncalAccel,1676595150909,122654539825023,0.6975078,2.3772693,2.9120653,0.006110925,-0.043260336,-0.038735468
UncalMag,1676595150912,122654542165294,-44.6398,-12.2366,-108.5068,-45.491467,0.31409264,-60.09035
UncalGyro,1676595150913,122654544315868,-1.2496775,-0.4896085,1.3040446,0.00054064323,-0.0009433157,-0.0032780084
UncalAccel,1676595150917,122654548805065,1.4027922,2.152344,2.6949165,0.006110925,-0.043260336,-0.038735468
OrientationDeg,1676595150917,122654548805065,288.0,-27.0,-25.0
UncalMag,1676595150921,122654552165539,-46.115997,-11.224,-109.861,-45.491467,0.31409264,-60.09035
UncalGyro,1676595150922,122654553295848,-1.078788,-1.0856602,1.4802792,0.0005406431,-0.00094331417,-0.0032780082
UncalAccel,1676595150927,122654557784557,2.4107687,1.9166509,2.836093,0.006110925,-0.043260336,-0.038735468
OrientationDeg,1676595150927,122654557784557,288.0,-28.0,-25.0
UncalMag,1676595150931,122654562165539,-46.494198,-10.809199,-110.580795,-45.491467,0.31409264,-60.09035
UncalGyro,1676595150931,122654562271861,-0.93676186,-1.5580118,1.485777,0.0005406431,-0.00094331393,-0.0032780082
UncalAccel,1676595150936,122654566753856,3.1160533,1.605584,3.3714871,0.006110925,-0.043260336,-0.038735468
OrientationDeg,1676595150935,122654566753856,287.0,-30.0,-24.0
UncalGyro,1676595150940,122654571255504,-0.8382598,-1.8261817,1.4498887,0.0005406431,-0.00094331393,-0.0032780082
UncalMag,1676595150942,122654572165294,-47.702,-10.1626,-113.948,-45.491467,0.31409264,-60.09035
UncalAccel,1676595150944,122654575744701,3.6000016,1.0564312,3.9714873,0.006110925,-0.043260336,-0.038735468
OrientationDeg,1676595150944,122654575744701,287.0,-31.0,-23.0
UncalGyro,1676595150949,122654580238475,-0.7893906,-1.9564487,1.4472924,0.0005406431,-0.00094331393,-0.0032780082
UncalMag,1676595150951,122654582165294,-47.750797,-10.2724,-112.545,-45.491467,0.31409264,-60.09035
UncalAccel,1676595150953,122654584724254,3.9649072,0.42592242,4.3465624,0.006110925,-0.043260336,-0.038735468
OrientationDeg,1676595150954,122654584724254,286.0,-32.0,-22.0
UncalGyro,1676595150958,122654589214977,-0.7780896,-2.054798,1.484708,0.0005406431,-0.00094331393,-0.0032780082
UncalMag,1676595150962,122654592165050,-50.9594,-10.4676,-114.0578,-45.491467,0.31409264,-60.09035
UncalAccel,1676595150963,122654593703624,4.3322053,0.050249275,4.770092,0.006110925,-0.043260336,-0.038735468
OrientationDeg,1676595150962,122654593703624,286.0,-33.0,-21.0
UncalGyro,1676595150967,122654598191478,-0.77198094,-2.1520782,1.5271631,0.0005406431,-0.00094331393,-0.0032780082
UncalMag,1676595150972,122654602165539,-51.8256,-9.6502,-114.5702,-45.491467,0.31409264,-60.09035
UncalAccel,1676595150972,122654602670787,4.9513483,-0.24586253,5.3102717,0.006110925,-0.043260336,-0.038735468
OrientationDeg,1676595150971,122654602670787,285.0,-35.0,-21.0
UncalGyro,1676595150977,122654607174449,-0.744492,-2.2085834,1.5344934,0.0005406431,-0.00094331393,-0.0032780082
UncalAccel,1676595150980,122654611663280,4.688736,-0.3397808,6.261419,0.006110925,-0.043260336,-0.038735468
UncalMag,1676595150982,122654612153820,-52.0574,-9.1866,-114.2896,-45.491467,0.31409264,-60.09035
OrientationDeg,1676595150981,122654611663280,285.0,-36.0,-20.0
UncalGyro,1676595150985,122654616157543,-0.70005155,-2.1426098,1.578934,0.0005406431,-0.00094331393,-0.0032780082
UncalAccel,1676595150990,122654620639842,4.3645086,-0.802792,6.538986,0.006110925,-0.043260336,-0.038735468
OrientationDeg,1676595150989,122654620639842,284.0,-37.0,-19.0
UncalMag,1676595150992,122654622154552,-51.8134,-8.2838,-114.2164,-45.491467,0.31409264,-60.09035
UncalGyro,1676595150994,122654625122509,-0.5879578,-2.0948095,1.6997325,0.0005406431,-0.00094331393,-0.0032780082
UncalAccel,1676595150999,122654629622875,4.1288157,-2.1343977,6.802795,0.006110925,-0.043260336,-0.038735468
OrientationDeg,1676595150998,122654629622875,284.0,-38.0,-18.0
UncalMag,1676595151002,122654632154064,-50.8008,-7.3566,-115.0338,-45.491467,0.31409264,-60.09035
UncalGyro,1676595151003,122654634114085,-0.5364924,-1.8096883,1.9712621,0.0005406431,-0.00094331393,-0.0032780082
UncalAccel,1676595151008,122654638606761,3.7393837,-2.4819553,6.951748,0.006110925,-0.043260336,-0.038735468
OrientationDeg,1676595151008,122654638606761,283.0,-39.0,-17.0
UncalMag,1676595151012,122654642165539,-54.119198,-8.418,-115.961,-45.491467,0.31409264,-60.09035
UncalGyro,1676595151013,122654643091991,-0.5981898,-1.4410311,2.3483188,0.0005406431,-0.00094331393,-0.0032780082
UncalAccel,1676595151016,122654647577159,3.6131623,-1.8729819,5.5387864,0.006110925,-0.043260336,-0.038735468
OrientationDeg,1676595151016,122654647577159,282.0,-40.0,-16.0
UncalGyro,1676595151021,122654652074291,-0.7228063,-1.3733778,2.7217102,0.0005406431,-0.00094331393,-0.0032780082
UncalMag,1676595151021,122654652158214,-53.924,-7.2956,-114.863,-45.491467,0.31409264,-60.09035
UncalAccel,1676595151025,122654656562206,3.912265,-1.5248263,4.398008,0.006110925,-0.043260336,-0.038735468
OrientationDeg,1676595151026,122654656562206,281.0,-41.0,-15.0
UncalGyro,1676595151031,122654661054516,-0.9045387,-1.6116152,3.046385,0.0005406431,-0.00094331393,-0.0032780082
UncalMag,1676595151032,122654662165294,-53.740997,-6.7465997,-113.2038,-45.491467,0.31409264,-60.09035
UncalAccel,1676595151035,122654665543285,4.5834517,-1.1742777,4.145565,0.006110925,-0.043260336,-0.038735468
OrientationDeg,1676595151034,122654665543285,280.0,-42.0,-13.0
UncalGyro,1676595151040,122654670040050,-1.0435106,-1.9498819,3.2786665,0.0005406431,-0.00094331393,-0.0032780082
UncalMag,1676595151041,122654672165539,-58.803997,-6.9174,-114.985,-45.491467,0.31409264,-60.09035
UncalAccel,1676595151043,122654674523082,4.7539406,-0.7435696,5.006383,0.006110925,-0.043260336,-0.038735468
OrientationDeg,1676595151044,122654674523082,280.0,-44.0,-11.0
UncalGyro,1676595151048,122654679012584,-1.0699304,-2.1346686,3.4952183,0.0005406431,-0.00094331393,-0.0032780082
UncalMag,1676595151051,122654682165294,-61.9394,-6.8564,-115.1314,-45.491467,0.31409264,-60.09035
UncalAccel,1676595151053,122654683499584,4.6689954,-0.92482597,5.519644,0.006110925,-0.043260336,-0.038735468
OrientationDeg,1676595151052,122654683499584,279.0,-45.0,-10.0
UncalGyro,1676595151056,122654687988780,-1.0251846,-2.1879666,3.7549887,0.0005406431,-0.00094331393,-0.0032780082
UncalMag,1676595151061,122654692165539,-62.8666,-5.4533997,-114.2774,-45.491467,0.31409264,-60.09035
UncalAccel,1676595151061,122654692466441,4.3854456,-1.5032908,6.058627,0.006110925,-0.043260336,-0.038735468
OrientationDeg,1676595151061,122654692466441,278.0,-46.0,-8.0
UncalGyro,1676595151065,122654696960277,-0.9640981,-2.0905335,4.095088,0.0005406431,-0.00094331393,-0.0032780082
UncalAccel,1676595151071,122654701460704,4.013362,-2.5698915,6.4612193,0.006110925,-0.043260336,-0.038735468
UncalMag,1676595151072,122654702153820,-63.610798,-4.4042,-113.716194,-45.491467,0.31409264,-60.09035
OrientationDeg,1676595151070,122654701460704,276.0,-47.0,-6.0
UncalGyro,1676595151075,122654705955272,-0.90576047,-1.8756617,4.553237,0.0005406431,-0.00094331393,-0.0032780082
Status,1676595148999,33,0,3,15,1602000000,41.48,299.0,81.0,1,1,1,37.275955
Status,1676595148999,33,1,1,11,1176450050,40.86,104.0,77.0,1,1,1,36.76198
Status,1676595148999,33,2,1,11,1575420030,39.90,104.0,77.0,1,1,1,35.699226
Status,1676595148999,33,3,6,2,1575420030,38.57,117.0,73.0,1,1,1,34.367943
Status,1676595148999,33,4,6,2,1176450050,39.76,117.0,73.0,1,1,1,35.660942
Status,1676595148999,33,5,3,17,1604249980,40.76,335.0,70.0,1,1,1,36.55608
Status,1676595148999,33,6,1,12,1575420030,42.68,330.0,69.0,1,1,1,38.47792
Status,1676595148999,33,7,6,34,1575420030,40.86,210.0,63.0,1,1,1,36.66164
Status,1676595148999,33,8,6,34,1176450050,37.70,210.0,63.0,1,1,1,33.604584
Status,1676595148999,33,9,6,36,1575420030,38.23,48.0,60.0,1,1,1,34.028057
Status,1676595148999,33,10,6,36,1176450050,34.67,48.0,60.0,1,1,1,30.571291
Status,1676595148999,33,11,6,30,1176450050,34.26,316.0,49.0,1,1,1,30.160246
Status,1676595148999,33,12,6,30,1575420030,42.03,316.0,49.0,1,1,1,37.834316
Status,1676595148999,33,13,3,14,1598062460,44.57,155.0,41.0,1,1,1,40.37204
Status,1676595148999,33,14,1,6,1176450050,39.76,46.0,41.0,1,1,1,35.658222
Status,1676595148999,33,15,1,6,1575420030,38.77,46.0,41.0,1,1,1,34.573338
Status,1676595148999,33,16,1,25,1575420030,38.13,313.0,39.0,1,1,1,33.93473
Status,1676595148999,33,17,1,25,1176450050,35.55,313.0,39.0,1,1,1,31.453386
Status,1676595148999,33,18,3,18,1600312450,43.51,244.0,39.0,1,1,1,39.30853
Status,1676595148999,33,19,1,24,1575420030,42.10,215.0,35.0,1,1,1,37.89511
Status,1676595148999,33,20,1,24,1176450050,42.26,215.0,35.0,1,1,1,38.161377
Status,1676595148999,33,21,1,20,1575420030,46.58,139.0,30.0,1,1,1,42.379566
Status,1676595148999,33,22,3,24,1603124990,41.51,36.0,26.0,1,1,1,37.308537
Status,1676595148999,33,23,3,16,1601437440,39.70,328.0,26.0,1,1,1,35.504887
Status,1676595148999,33,24,6,25,1575420030,44.60,129.0,23.0,1,1,1,40.403748
Status,1676595148999,33,25,6,25,1176450050,36.86,129.0,23.0,1,1,1,32.762505
Status,1676595148999,33,26,1,19,1575420030,38.60,63.0,22.0,1,1,1,34.400566
Status,1676595148999,33,27,1,29,1575420030,43.21,268.0,17.0,1,1,1,39.011497
Status,1676595148999,33,28,1,2,1575420030,39.74,219.0,15.0,1,1,1,35.540157
Status,1676595148999,33,29,6,15,1176450050,34.86,218.0,12.0,1,1,1,30.76151
Status,1676595148999,33,30,6,15,1575420030,40.03,218.0,12.0,0,1,1,35.83249
Status,1676595148999,33,31,6,11,1176450050,34.63,41.0,11.0,1,1,1,30.527386
Status,1676595148999,33,32,6,11,1575420030,33.15,41.0,11.0,1,1,1,28.948051
UncalAccel,1676595151079,122654710444713,3.8584266,-3.9738803,6.6681986,0.006110925,-0.043260336,-0.038735468
OrientationDeg,1676595151079,122654710444713,275.0,-48.0,-4.0
UncalMag,1676595151081,122654712165294,-64.367195,-3.5014,-112.484,-45.491467,0.31409264,-60.09035
Fix,GPS,37.4311299817,-122.1551480206,-6.9719112742002,0.17430791,3.0689611,192.60374,1676595149999,0.14976563,180.0,122654612368000,3.0
UncalGyro,1676595151084,122654714931591,-0.86620694,-1.6155858,5.118898,0.0005406431,-0.00094331393,-0.0032780082
Raw,1676595149999,113136000000,,,-1360630254863920939,0.0,7.290209202070551,293.0,1.0,23,2,0.0,16431,435167919694604,22,36.549259185791016,-536.832159206569,0.15,16,-60892.6072194044,340282346638528860000000000000000000000,1575420030,,,,0,,1,,32.34925842285156,0.0,1.0,0.0,1.0,C,122654612368000
Raw,1676595149999,113136000000,,,-1360630254863920939,0.0,7.290209202070551,293.0,1.0,23,6,0.0,16431,435167927012822,34,31.46645736694336,587.6688015419495,0.7237705867094424,16,66099.0348222527,340282346638528860000000000000000000000,1575420030,,,,0,,1,,27.26645851135254,0.320142130558394,1.0,0.320142130558394,1.0,C,122654612368000
Raw,1676595149999,113136000000,,,-1360630254863920939,0.0,7.290209202070551,293.0,1.0,23,11,0.0,16431,435167931981367,21,37.088462829589844,88.65012241497118,0.15,16,9423.101444683052,340282346638528860000000000000000000000,1575420030,,,,0,,1,,32.88846206665039,-0.20372681261465636,1.0,-0.20372681261465636,1.0,C,122654612368000
Raw,1676595149999,113136000000,,,-1360630254863920939,0.0,7.290209202070551,293.0,1.0,23,12,0.0,16431,435167931812737,16,40.53338623046875,-133.3229780500438,0.15,16,-15517.758310710948,340282346638528860000000000000000000000,1575420030,,,,0,,1,,36.3333854675293,-0.6984919076624261,1.0,-0.6984919076624261,1.0,C,122654612368000
Raw,1676595149999,113136000000,,,-1360630254863920939,0.0,7.290209202070551,293.0,1.0,23,19,0.0,16431,435167922565639,25,35.26997375488281,602.848786852644,0.551930934810253,16,68060.55929721367,340282346638528860000000000000000000000,1575420030,,,,0,,1,,31.06997299194336,0.0,1.0,0.0,1.0,C,122654612368000
