# 
# Header Description:
# 
# Version: v3.0.5.6 Platform: 13 Manufacturer: Google Model: Pixel 6
# 
# Raw,utcTimeMillis,TimeNanos,LeapSecond,TimeUncertaintyNanos,FullBiasNanos,BiasNanos,BiasUncertaintyNanos,DriftNanosPerSecond,DriftUncertaintyNanosPerSecond,HardwareClockDiscontinuityCount,Svid,TimeOffsetNanos,State,ReceivedSvTimeNanos,ReceivedSvTimeUncertaintyNanos,Cn0DbHz,PseudorangeRateMetersPerSecond,PseudorangeRateUncertaintyMetersPerSecond,AccumulatedDeltaRangeState,AccumulatedDeltaRangeMeters,AccumulatedDeltaRangeUncertaintyMeters,CarrierFrequencyHz,CarrierCycles,CarrierPhase,CarrierPhaseUncertainty,MultipathIndicator,SnrInDb,ConstellationType,AgcDb,BasebandCn0DbHz,FullInterSignalBiasNanos,FullInterSignalBiasUncertaintyNanos,SatelliteInterSignalBiasNanos,SatelliteInterSignalBiasUncertaintyNanos,CodeType,ChipsetElapsedRealtimeNanos
# 
# UncalAccel,utcTimeMillis,elapsedRealtimeNanos,UncalAccelXMps2,UncalAccelYMps2,UncalAccelZMps2,BiasXMps2,BiasYMps2,BiasZMps2
# 
# Accel,utcTimeMillis,elapsedRealtimeNanos,AccelXMps2,AccelYMps2,AccelZMps2
# 
# UncalGyro,utcTimeMillis,elapsedRealtimeNanos,UncalGyroXRadPerSec,UncalGyroYRadPerSec,UncalGyroZRadPerSec,DriftXRadPerSec,DriftYRadPerSec,DriftZRadPerSec
# 
# Gyro,utcTimeMillis,elapsedRealtimeNanos,GyroXRadPerSec,GyroYRadPerSec,GyroZRadPerSec
# 
# UncalMag,utcTimeMillis,elapsedRealtimeNanos,UncalMagXMicroT,UncalMagYMicroT,UncalMagZMicroT,BiasXMicroT,BiasYMicroT,BiasZMicroT
# 
# Mag,utcTimeMillis,elapsedRealtimeNanos,MagXMicroT,MagYMicroT,MagZMicroT
# 
# OrientationDeg,utcTimeMillis,elapsedRealtimeNanos,yawDeg,rollDeg,pitchDeg
# 
# Fix,Provider,LatitudeDegrees,LongitudeDegrees,AltitudeMeters,SpeedMps,AccuracyMeters,BearingDegrees,UnixTimeMillis,SpeedAccuracyMps,BearingAccuracyDegrees,elapsedRealtimeNanos,VerticalAccuracyMeters
# 
# Nav,Svid,Type,Status,MessageId,Sub-messageId,Data(Bytes)
# 
# Status,UnixTimeMillis,SignalCount,SignalIndex,ConstellationType,Svid,CarrierFrequencyHz,Cn0DbHz,AzimuthDegrees,ElevationDegrees,UsedInFix,HasAlmanacData,HasEphemerisData,BasebandCn0DbHz
# 
UncalAccel,1676592728005,120231635879771,0.89371926,3.611966,9.959526,0.006110925,-0.043260336,-0.038735468
UncalMag,1676592728006,120231637865734,-54.131397,10.418799,-112.3742,-48.275375,2.3914185,-62.760414
UncalMag,1676592728016,120231647868664,-55.2294,11.0166,-112.789,-48.275375,2.3914185,-62.760414
UncalGyro,1676592728013,120231644848644,-0.32406402,-0.8009971,-0.13591751,0.0006387392,-0.0009598478,-0.0033534612
UncalAccel,1676592728014,120231644848644,1.1599208,3.4187453,10.802996,0.006110925,-0.043260336,-0.038735468
UncalGyro,1676592728022,120231653827587,-0.24678956,-0.5190827,-0.10644327,0.0006387392,-0.0009598478,-0.0033534612
UncalAccel,1676592728023,120231653827587,1.2753744,3.2506495,11.312667,0.006110925,-0.043260336,-0.038735468
UncalMag,1676592728027,120231657867199,-54.4852,11.1996,-111.983795,-48.275375,2.3914185,-62.760414
Fix,FLP,37.4307956000,-122.1550692000,-15.80000114440918,0.17222267,3.826,339.24844,1676592727431,,,120231061136791,3.6990652
UncalGyro,1676592728032,120231662807323,-0.13820826,-0.17898351,-0.07391469,0.0006387392,-0.0009598478,-0.0033534612
UncalAccel,1676592728032,120231662807323,1.3184453,3.1686954,11.145768,0.006110925,-0.043260336,-0.038735468
Status,0,29,0,6,2,1575420030,40.19,48.0,79.0,1,1,1,35.9855
Status,0,29,1,6,2,1176450050,38.11,48.0,79.0,1,1,1,34.005146
Status,0,29,2,6,36,1176450050,37.78,75.0,71.0,1,1,1,33.67572
Status,0,29,3,3,17,1604249980,45.71,255.0,71.0,1,1,1,41.51237
Status,0,29,4,6,36,1575420030,38.42,75.0,71.0,1,1,1,34.21756
Status,0,29,5,1,11,1575420030,40.78,159.0,65.0,1,1,1,36.57597
Status,0,29,6,1,11,1176450050,40.81,159.0,65.0,1,1,1,36.71178
Status,0,29,7,3,14,1598062460,41.90,137.0,62.0,1,1,1,37.70231
Status,0,29,8,3,15,1602000000,46.42,331.0,59.0,1,1,1,42.217873
Status,0,29,9,1,6,1176450050,38.00,61.0,56.0,1,1,1,33.897438
Status,0,29,10,1,6,1575420030,42.56,61.0,56.0,1,1,1,38.363728
Status,0,29,11,1,12,1575420030,47.66,318.0,51.0,1,1,1,43.45654
Status,0,29,12,1,24,1176450050,41.24,233.0,49.0,1,1,1,37.13575
Status,0,29,13,1,24,1575420030,45.05,233.0,49.0,1,1,1,40.850574
Status,0,29,14,6,34,1575420030,40.96,199.0,46.0,1,1,1,36.757614
Status,0,29,15,6,34,1176450050,40.79,199.0,46.0,1,1,1,36.69499
Status,0,29,16,3,24,1603124990,44.17,29.0,45.0,1,1,1,39.973537
Status,0,29,17,6,30,1176450050,38.50,312.0,36.0,1,1,1,34.40133
Status,0,29,18,1,19,1575420030,44.26,51.0,36.0,1,1,1,40.057602
Status,0,29,19,6,30,1575420030,43.99,312.0,36.0,1,1,1,39.794804
Status,0,29,20,6,25,1575420030,38.12,116.0,34.0,1,1,1,33.922203
Status,0,29,21,6,25,1176450050,34.97,116.0,34.0,1,1,1,30.870962
Status,0,29,22,6,11,1575420030,36.51,41.0,24.0,1,1,1,32.305542
Status,0,29,23,6,11,1176450050,33.20,41.0,24.0,1,1,1,29.095226
Status,0,29,24,3,18,1600312450,45.40,225.0,23.0,1,1,1,41.20353
Status,0,29,25,1,25,1575420030,44.70,308.0,22.0,1,1,1,40.503742
Status,0,29,26,1,25,1176450050,43.16,308.0,22.0,1,1,1,39.062412
Status,0,29,27,1,20,1575420030,34.89,150.0,15.0,1,1,1,30.688745
Status,0,29,28,1,17,1575420030,40.96,63.0,10.0,1,1,1,36.761604
UncalMag,1676592728036,120231667860607,-56.181,10.98,-112.154594,-48.275375,2.3914185,-62.760414
UncalGyro,1676592728040,120231671787913,-0.047647487,0.09850202,-0.04734206,0.0006387392,-0.0009598478,-0.0033534612
UncalAccel,1676592728040,120231671787913,1.2747762,3.254837,10.469197,0.006110925,-0.043260336,-0.038735468
OrientationDeg,1676592728013,120231644848644,3.0,-6.0,-24.0
OrientationDeg,1676592728022,120231653827587,3.0,-6.0,-24.0
OrientationDeg,1676592728032,120231662807323,3.0,-6.0,-23.0
OrientationDeg,1676592728041,120231671787913,3.0,-6.0,-23.0
Fix,GPS,37.4307852053,-122.1550558290,-18.46362220715833,0.16497913,3.1760468,242.32555,1676592727000,0.103850156,180.0,120231572160000,3.0
Raw,1676592727000,686697000000,,,-1360627258303400323,0.0,7.99838109388168,285.0,1.0,15,6,0.0,16431,432744930696676,16,40.715904235839844,360.86453842666856,0.15,16,221504.90182688608,340282346638528860000000000000000000000,1575420030,,,,0,,1,,36.51590347290039,0.320142130558394,1.0,0.320142130558394,1.0,C,120231572160000
Raw,1676592727000,686697000000,,,-1360627258303400323,0.0,7.99838109388168,285.0,1.0,15,11,0.0,16431,432744931301837,20,37.843441009521484,-200.52058837647655,0.15,16,-163571.81833763307,340282346638528860000000000000000000000,1575420030,,,,0,,1,,33.64344024658203,-0.20372681261465636,1.0,-0.20372681261465636,1.0,C,120231572160000
Raw,1676592727000,686697000000,,,-1360627258303400323,0.0,7.99838109388168,285.0,1.0,15,12,0.0,16431,432744929775887,11,47.65653991699219,-303.31801471072936,0.15,16,-219179.102069567,340282346638528860000000000000000000000,1575420030,,,,0,,1,,43.456539154052734,-0.6984919076624261,1.0,-0.6984919076624261,1.0,C,120231572160000
Raw,1676592727000,686697000000,,,-1360627258303400323,0.0,7.99838109388168,285.0,1.0,15,17,0.0,16431,432744917700218,15,40.961605072021484,588.5075026320628,0.15,16,407554.15571399254,340282346638528860000000000000000000000,1575420030,,,,0,,1,,36.76160430908203,-0.7858034271858065,1.0,-0.7858034271858065,1.0,C,120231572160000
Raw,1676592727000,686697000000,,,-1360627258303400323,0.0,7.99838109388168,285.0,1.0,15,19,0.0,16431,432744927038511,17,39.9627799987793,552.0424438211123,0.15,16,372346.85789364955,340282346638528860000000000000000000000,1575420030,,,,0,,1,,35.762779235839844,0.0,1.0,0.0,1.0,C,120231572160000
Raw,1676592727000,686697000000,,,-1360627258303400323,0.0,7.99838109388168,285.0,1.0,15,20,0.0,16431,432744919922076,45,28.064678192138672,-491.17066523452513,0.8790668338845427,16,-335675.2552364357,340282346638528860000000000000000000000,1575420030,,,,0,,1,,23.86467933654785,0.0,1.0,0.0,1.0,C,120231572160000
Raw,1676592727000,686697000000,,,-1360627258303400323,0.0,7.99838109388168,285.0,1.0,15,24,0.0,16431,432744928496272,18,39.1407356262207,441.244501642695,0.15,16,279273.15032923,340282346638528860000000000000000000000,1575420030,,,,0,,1,,34.94073486328125,-0.20372681261465636,1.0,-0.20372681261465636,1.0,C,120231572160000
Raw,1676592727000,686697000000,,,-1360627258303400323,0.0,7.99838109388168,285.0,1.0,15,25,0.0,16431,432744923476258,11,44.70374298095703,-504.1266339272802,0.15,16,-349228.2057533273,340282346638528860000000000000000000000,1575420030,,,,0,,1,,40.50374221801758,-2.0372682255564105,1.0,-2.0372682255564105,1.0,C,120231572160000
Raw,1676592727000,686697000000,,,-1360627258303400323,0.0,7.99838109388168,285.0,1.0,15,6,0.0,81921,432744930697212,6,37.9974365234375,360.9206040676486,0.15,16,222369.40650821652,340282346638528860000000000000000000000,1176450050,,,,0,,1,,33.897438049316406,1.9208527336454408,1.3954781931555202,1.9208527336454408,1.0,Q,120231572160000
Raw,1676592727000,686697000000,,,-1360627258303400323,0.0,7.99838109388168,285.0,1.0,15,11,0.0,81921,432744931302395,17,36.412139892578125,-201.30169011506632,0.15,16,-164461.0714395551,340282346638528860000000000000000000000,1176450050,,,,0,,1,,32.31214141845703,0.0,1.3954781931555202,0.0,1.0,Q,120231572160000
Raw,1676592727000,686697000000,,,-1360627258303400323,0.0,7.99838109388168,285.0,1.0,15,24,0.0,81921,432744928496807,8,40.756431579589844,440.9230699952284,0.15,16,280402.11259435175,340282346638528860000000000000000000000,1176450050,,,,0,,1,,36.65643310546875,3.5215636101095664,1.3954781931555202,3.5215636101095664,1.0,Q,120231572160000
Raw,1676592727000,686697000000,,,-1360627258303400323,0.0,7.99838109388168,285.0,1.0,15,25,0.0,81921,432744923476799,9,43.162410736083984,-504.43753409568126,0.15,16,-350811.45563592133,340282346638528860000000000000000000000,1176450050,,,,0,,1,,39.06241226196289,1.0186341127782053,1.3954781931555202,1.0186341127782053,1.0,Q,120231572160000
Raw,1676592727000,686697000000,,,-1360627258303400323,0.0,7.99838109388168,285.0,1.0,15,14,0.0,32995,11526934712084,33,41.726966857910156,424.90097534876827,0.15,16,261332.12375095102,340282346638528860000000000000000000000,1598062460,,,,0,,3,,37.5269660949707,50.29141902923584,2.0000000474974513,50.29141902923584,2.0000000474974513,C,120231572160000
Raw,1676592727000,686697000000,,,-1360627258303400323,0.0,7.99838109388168,285.0,1.0,15,18,0.0,32995,11526926103094,33,45.40353012084961,-566.7988864445979,0.15,16,-404620.9947939407,340282346638528860000000000000000000000,1600312450,,,,0,,3,,41.203529357910156,50.29141902923584,2.0000000474974513,50.29141902923584,2.0000000474974513,C,120231572160000
Raw,1676592727000,686697000000,,,-1360627258303400323,0.0,7.99838109388168,285.0,1.0,15,15,0.0,32995,11526934316112,33,46.41787338256836,-325.3203875909644,0.15,16,-246817.9508167573,340282346638528860000000000000000000000,1602000000,,,,0,,3,,42.217872619628906,50.29141902923584,2.0000000474974513,50.29141902923584,2.0000000474974513,C,120231572160000
Raw,1676592727000,686697000000,,,-1360627258303400323,0.0,7.99838109388168,285.0,1.0,15,24,0.0,32995,11526931832530,40,37.98815155029297,634.2914207879367,0.15,16,419080.8009267348,340282346638528860000000000000000000000,1603124990,,,,0,,3,,33.788150787353516,50.29141902923584,2.0000000474974513,50.29141902923584,2.0000000474974513,C,120231572160000
Raw,1676592727000,686697000000,,,-1360627258303400323,0.0,7.99838109388168,285.0,1.0,15,17,0.0,32995,11526936262857,33,43.058536529541016,-51.662072568985224,0.15,16,-65703.07092235748,340282346638528860000000000000000000000,1604249980,,,,0,,3,,38.85853576660156,50.29141902923584,2.0000000474974513,50.29141902923584,2.0000000474974513,C,120231572160000
Raw,1676592727000,686697000000,,,-1360627258303400323,0.0,7.99838109388168,285.0,1.0,15,2,0.0,85026,432744922639305,21,37.195560455322266,68.7175174750675,0.15,16,36117.36073324231,340282346638528860000000000000000000000,1575420030,,,,0,,6,,32.99555969238281,-6.024492904543876,1.5000000237487257,-6.024492904543876,1.5000000237487257,C,120231572160000
Raw,1676592727000,686697000000,,,-1360627258303400323,0.0,7.99838109388168,285.0,1.0,15,11,0.0,85026,432744913025470,38,30.026458740234375,570.346972415992,0.7881683232325263,16,383005.08768563694,340282346638528860000000000000000000000,1575420030,,,,0,,6,,25.826457977294922,-6.024492904543876,1.5000000237487257,-6.024492904543876,1.5000000237487257,C,120231572160000
Raw,1676592727000,686697000000,,,-1360627258303400323,0.0,7.99838109388168,285.0,1.0,15,25,0.0,85026,432744914607823,36,30.77486801147461,450.707018541862,0.7547978039607148,16,300093.63641055964,340282346638528860000000000000000000000,1575420030,,,,0,,6,,26.574867248535156,-6.024492904543876,1.5000000237487257,-6.024492904543876,1.5000000237487257,C,120231572160000
Raw,1676592727000,686697000000,,,-1360627258303400323,0.0,7.99838109388168,285.0,1.0,15,30,0.0,85026,432744914350154,16,40.9323844909668,-321.6864138291328,0.15,16,-222967.03604921568,340282346638528860000000000000000000000,1575420030,,,,0,,6,,36.732383728027344,-6.024492904543876,1.5000000237487257,-6.024492904543876,1.5000000237487257,C,120231572160000
Raw,1676592727000,686697000000,,,-1360627258303400323,0.0,7.99838109388168,285.0,1.0,15,34,0.0,85026,432744918159312,15,40.95761489868164,-348.9417794034025,0.15,16,-252226.40241671132,340282346638528860000000000000000000000,1575420030,,,,0,,6,,36.75761413574219,-6.024492904543876,1.5000000237487257,-6.024492904543876,1.5000000237487257,C,120231572160000
Raw,1676592727000,686697000000,,,-1360627258303400323,0.0,7.99838109388168,285.0,1.0,15,36,0.0,85026,432744921943453,21,37.357879638671875,163.48447800648637,0.15,16,93007.71905953034,340282346638528860000000000000000000000,1575420030,,,,0,,6,,33.15787887573242,-6.024492904543876,1.5000000237487257,-6.024492904543876,1.5000000237487257,C,120231572160000
Raw,1676592727000,686697000000,,,-1360627258303400323,0.0,7.99838109388168,285.0,1.0,15,2,0.0,84003,432744922639853,20,32.612762451171875,68.52077649478957,0.6705366520146221,16,36087.59929522651,340282346638528860000000000000000000000,1176450050,,,,0,,6,,28.51276397705078,-4.362151958048344,1.895478216904246,-4.362151958048344,1.5000000237487257,Q,120231572160000
Raw,1676592727000,686697000000,,,-1360627258303400323,0.0,7.99838109388168,285.0,1.0,15,11,0.0,84003,432744913026023,15,33.19522476196289,570.2197766882489,0.6426145995083097,16,384220.4804706448,340282346638528860000000000000000000000,1176450050,,,,0,,6,,29.095226287841797,4.134257324039933,1.895478216904246,4.134257324039933,1.5000000237487257,Q,120231572160000
Raw,1676592727000,686697000000,,,-1360627258303400323,0.0,7.99838109388168,285.0,1.0,15,25,0.0,84003,432744914608288,52,26.132614135742188,450.25375595256514,0.9604969452184116,16,299771.9971054569,340282346638528860000000000000000000000,1176450050,,,,0,,6,,22.03261375427246,-8.795061148703097,1.895478216904246,-8.795061148703097,1.5000000237487257,Q,120231572160000
Raw,1676592727000,686697000000,,,-1360627258303400323,0.0,7.99838109388168,285.0,1.0,15,30,0.0,84003,432744914350681,7,37.53556823730469,-321.7815720477445,0.15,16,-222665.87570405324,340282346638528860000000000000000000000,1176450050,,,,0,,6,,33.435569763183594,-8.425652049481869,1.895478216904246,-8.425652049481869,1.5000000237487257,Q,120231572160000
Raw,1676592727000,686697000000,,,-1360627258303400323,0.0,7.99838109388168,285.0,1.0,15,34,0.0,84003,432744918159837,9,40.794986724853516,-348.8627081042696,0.15,16,-253354.08497110676,340282346638528860000000000000000000000,1176450050,,,,0,,6,,36.69498825073242,-10.0879929959774,1.895478216904246,-10.0879929959774,1.5000000237487257,Q,120231572160000
Raw,1676592727000,686697000000,,,-1360627258303400323,0.0,7.99838109388168,285.0,1.0,15,36,0.0,84003,432744921943978,13,37.39470291137695,163.54550264489046,0.15,16,93152.77345772508,340282346638528860000000000000000000000,1176450050,,,,0,,6,,33.29470443725586,-11.011515744030472,1.895478216904246,-11.011515744030472,1.5000000237487257,Q,120231572160000
UncalMag,1676592728047,120231677864269,-55.6564,11.626599,-116.485596,-48.275375,2.3914185,-62.760414
Fix,FLP,37.4307966000,-122.1550687000,-15.80000114440918,0.17430401,3.869,339.05087,1676592727969,,,120231599945262,3.1005666
UncalGyro,1676592728049,120231680780773,0.0071776668,0.2582433,-0.025350908,0.0006387392,-0.0009598478,-0.0033534612
UncalAccel,1676592728049,120231680780773,1.1222339,3.409174,9.687941,0.006110925,-0.043260336,-0.038735468
OrientationDeg,1676592728049,120231680780773,3.0,-6.0,-23.0
UncalMag,1676592728057,120231687865246,-54.717,10.613999,-112.459595,-48.275375,2.3914185,-62.760414
UncalGyro,1676592728059,120231689749034,0.022602014,0.30833423,-0.003970624,0.0006387392,-0.0009598478,-0.0033534612
UncalAccel,1676592728058,120231689749034,0.9840483,3.6011982,9.006584,0.006110925,-0.043260336,-0.038735468
OrientationDeg,1676592728059,120231689749034,3.0,-6.0,-23.0
UncalMag,1676592728067,120231697865001,-56.937397,10.309,-112.728,-48.275375,2.3914185,-62.760414
UncalGyro,1676592728068,120231698727733,0.007483099,0.27855456,0.014049901,0.0006387392,-0.0009598478,-0.0033534612
UncalAccel,1676592728067,120231698727733,1.0025927,3.8069808,8.545368,0.006110925,-0.043260336,-0.038735468
OrientationDeg,1676592728067,120231698727733,3.0,-5.0,-23.0
UncalGyro,1676592728076,120231707715465,0.0009162979,0.18997909,0.018784106,0.0006387392,-0.0009598478,-0.0033534612
UncalAccel,1676592728076,120231707715465,1.1001002,3.9601214,8.274979,0.006110925,-0.043260336,-0.038735468
UncalMag,1676592728076,120231707873058,-55.912598,11.0532,-113.826,-48.275375,2.3914185,-62.760414
OrientationDeg,1676592728076,120231707715465,3.0,-5.0,-23.0
UncalGyro,1676592728086,120231716689219,0.0076358155,0.058337633,-0.008246681,0.0006387392,-0.0009598478,-0.0033534612
UncalAccel,1676592728085,120231716689219,1.2155539,4.069593,8.2145605,0.006110925,-0.043260336,-0.038735468
OrientationDeg,1676592728086,120231716689219,3.0,-5.0,-23.0
UncalMag,1676592728087,120231717865001,-57.34,10.2114,-113.996796,-48.275375,2.3914185,-62.760414
UncalGyro,1676592728095,120231725674144,0.02565634,-0.048258353,-0.065973446,0.0006387392,-0.0009598478,-0.0033534612
OrientationDeg,1676592728094,120231725674144,3.0,-5.0,-23.0
UncalAccel,1676592728094,120231725674144,1.2729816,4.1312084,8.276773,0.006110925,-0.043260336,-0.038735468
UncalMag,1676592728096,120231727865734,-54.5584,11.3582,-113.1306,-48.275375,2.3914185,-62.760414
UncalGyro,1676592728104,120231734654735,0.028252518,-0.11835514,-0.13622294,0.0006387392,-0.0009598478,-0.0033534612
UncalAccel,1676592728103,120231734654735,1.21017,4.074379,8.380861,0.006110925,-0.043260336,-0.038735468
OrientationDeg,1676592728103,120231734654735,3.0,-5.0,-23.0
UncalMag,1676592728106,120231737867199,-53.2286,11.8462,-112.5816,-48.275375,2.3914185,-62.760414
UncalGyro,1676592728113,120231743629223,-0.0015271631,-0.1301143,-0.18707748,0.0006387392,-0.0009598478,-0.0033534612
UncalAccel,1676592728113,120231743629223,1.0408778,3.8835511,8.536395,0.006110925,-0.043260336,-0.038735468
OrientationDeg,1676592728113,120231743629223,3.0,-5.0,-23.0
UncalMag,1676592728116,120231747865246,-54.204597,11.3826,-112.7158,-48.275375,2.3914185,-62.760414
UncalGyro,1676592728122,120231752608409,-0.062155537,-0.1085813,-0.19379699,0.0006387392,-0.0009598478,-0.0033534612
UncalAccel,1676592728122,120231752608409,0.8470592,3.6352959,8.834899,0.006110925,-0.043260336,-0.038735468
OrientationDeg,1676592728121,120231752608409,3.0,-5.0,-23.0
UncalMag,1676592728127,120231757864757,-52.9358,11.834,-111.3128,-48.275375,2.3914185,-62.760414
UncalGyro,1676592728131,120231761592052,-0.11911872,-0.056199603,-0.15027285,0.0006387392,-0.0009598478,-0.0033534612
UncalAccel,1676592728131,120231761592052,0.7435696,3.3631122,9.151948,0.006110925,-0.043260336,-0.038735468
OrientationDeg,1676592728130,120231761592052,3.0,-5.0,-23.0
UncalMag,1676592728136,120231767866222,-57.9866,9.308599,-117.9618,-48.275375,2.3914185,-62.760414
UncalGyro,1676592728140,120231770571605,-0.15699236,0.0106901415,-0.09101892,0.0006387392,-0.0009598478,-0.0033534612
UncalAccel,1676592728140,120231770571605,0.79800636,3.1663027,9.370294,0.006110925,-0.043260336,-0.038735468
OrientationDeg,1676592728139,120231770571605,3.0,-5.0,-23.0
UncalMag,1676592728147,120231777864513,-53.1554,11.9925995,-112.154594,-48.275375,2.3914185,-62.760414
UncalGyro,1676592728149,120231779551952,-0.18402316,0.07925977,-0.05009095,0.0006387392,-0.0009598478,-0.0033534612
UncalAccel,1676592728149,120231779551952,0.9822537,3.0885358,9.513863,0.006110925,-0.043260336,-0.038735468
OrientationDeg,1676592728148,120231779551952,3.0,-5.0,-23.0
UncalMag,1676592728157,120231787868419,-53.899597,11.8218,-112.9598,-48.275375,2.3914185,-62.760414
UncalGyro,1676592728158,120231788532482,-0.19883664,0.16401732,-0.027030786,0.0006387392,-0.0009598478,-0.0033534612
UncalAccel,1676592728157,120231788532482,1.1288141,3.0729825,9.743574,0.006110925,-0.043260336,-0.038735468
OrientationDeg,1676592728157,120231788532482,3.0,-5.0,-23.0
UncalGyro,1676592728166,120231797513011,-0.19501872,0.27351493,-0.0035124752,0.0006387392,-0.0009598478,-0.0033534612
UncalAccel,1676592728166,120231797513011,1.1994023,2.9766715,9.866804,0.006110925,-0.043260336,-0.038735468
UncalMag,1676592728166,120231797864269,-55.2294,11.5412,-115.168,-48.275375,2.3914185,-62.760414
OrientationDeg,1676592728167,120231797513011,3.0,-5.0,-23.0
OrientationDeg,1676592728176,120231806493724,3.0,-5.0,-23.0
UncalGyro,1676592728175,120231806493724,-0.1815797,0.36010507,0.02397646,0.0006387392,-0.0009598478,-0.0033534612
UncalAccel,1676592728175,120231806493724,1.2711871,2.9431717,9.757333,0.006110925,-0.043260336,-0.038735468
UncalMag,1676592728176,120231807865001,-53.960598,11.5412,-111.825195,-48.275375,2.3914185,-62.760414
UncalGyro,1676592728184,120231815472911,-0.15225816,0.39095375,0.041996986,0.0006387392,-0.0009598478,-0.0033534612
UncalAccel,1676592728184,120231815472911,1.204188,2.7852457,9.55155,0.006110925,-0.043260336,-0.038735468
OrientationDeg,1676592728184,120231815472911,3.0,-5.0,-23.0
UncalMag,1676592728186,120231817865734,-54.350998,11.8706,-112.435196,-48.275375,2.3914185,-62.760414
OrientationDeg,1676592728194,120231824452098,3.0,-4.0,-23.0
UncalGyro,1676592728193,120231824452098,-0.12629639,0.3642284,0.042455133,0.0006387392,-0.0009598478,-0.0033534612
UncalAccel,1676592728193,120231824452098,0.96909314,2.5609183,9.520443,0.006110925,-0.043260336,-0.038735468
UncalMag,1676592728197,120231827864757,-54.6194,11.1874,-111.264,-48.275375,2.3914185,-62.760414
UncalGyro,1676592728202,120231833435436,-0.10552697,0.30634892,0.035888333,0.0006387392,-0.0009598478,-0.0033534612
UncalAccel,1676592728202,120231833435436,0.74835527,2.385046,9.49472,0.006110925,-0.043260336,-0.038735468
OrientationDeg,1676592728202,120231833435436,3.0,-4.0,-23.0
UncalMag,1676592728207,120231837866710,-55.985798,11.333799,-114.2408,-48.275375,2.3914185,-62.760414
UncalGyro,1676592728212,120231842420787,-0.09254608,0.18875736,0.035124753,0.0006387392,-0.0009598478,-0.0033534612
UncalAccel,1676592728212,120231842420787,0.61435723,2.3665016,9.646665,0.006110925,-0.043260336,-0.038735468
OrientationDeg,1676592728211,120231842420787,3.0,-4.0,-22.0
UncalMag,1676592728217,120231847865246,-58.7796,10.5652,-116.497795,-48.275375,2.3914185,-62.760414
UncalGyro,1676592728220,120231851395640,-0.07498371,0.10186178,0.038179077,0.0006387392,-0.0009598478,-0.0033534612
UncalAccel,1676592728220,120231851395640,0.5407779,2.4005992,10.080363,0.006110925,-0.043260336,-0.038735468
OrientationDeg,1676592728221,120231851395640,3.0,-4.0,-22.0
UncalMag,1676592728227,120231857865001,-55.2782,11.760799,-114.253,-48.275375,2.3914185,-62.760414
UncalGyro,1676592728230,120231860380016,-0.04810564,0.102319926,0.07895433,0.0006387392,-0.0009598478,-0.0033534612
UncalAccel,1676592728230,120231860380016,0.42831525,2.2869403,10.54158,0.006110925,-0.043260336,-0.038735468
OrientationDeg,1676592728230,120231860380016,3.0,-4.0,-22.0
UncalMag,1676592728237,120231867866710,-55.1562,11.5534,-113.533195,-48.275375,2.3914185,-62.760414
UncalGyro,1676592728239,120231869354259,0.032223143,0.20051652,0.31490102,0.0006387392,-0.0009598478,-0.0033534612
UncalAccel,1676592728238,120231869354259,-0.15553348,1.3507484,11.444272,0.006110925,-0.043260336,-0.038735468
OrientationDeg,1676592728238,120231869354259,3.0,-4.0,-22.0
UncalMag,1676592728247,120231877869152,-52.826,12.0048,-112.0814,-48.275375,2.3914185,-62.760414
UncalGyro,1676592728248,120231878335521,0.18829921,0.45478916,0.65270954,0.0006387392,-0.0009598478,-0.0033534612
UncalAccel,1676592728247,120231878335521,-0.33020952,1.6396817,12.531811,0.006110925,-0.043260336,-0.038735468
OrientationDeg,1676592728247,120231878335521,3.0,-4.0,-22.0
UncalGyro,1676592728256,120231887317333,0.36911532,0.70066243,0.9407325,0.0006387392,-0.0009598478,-0.0033534612
UncalAccel,1676592728257,120231887317333,-0.0526421,1.5756737,12.17528,0.006110925,-0.043260336,-0.038735468
UncalMag,1676592728257,120231887865490,-52.8504,12.4318,-112.179,-48.275375,2.3914185,-62.760414
OrientationDeg,1676592728256,120231887317333,2.0,-4.0,-23.0
UncalGyro,1676592728266,120231896296642,0.52549684,0.8045095,1.162782,0.0006387392,-0.0009598478,-0.0033534612
UncalAccel,1676592728265,120231896296642,0.41694933,1.9322042,11.292328,0.006110925,-0.043260336,-0.038735468
OrientationDeg,1676592728265,120231896296642,1.0,-4.0,-23.0
UncalMag,1676592728266,120231897865734,-52.4478,12.2976,-113.240395,-48.275375,2.3914185,-62.760414
UncalGyro,1676592728274,120231905290905,0.6933321,0.7811439,1.2519683,0.0006387392,-0.0009598478,-0.0033534612
UncalAccel,1676592728275,120231905290905,0.9314062,2.7678976,10.736595,0.006110925,-0.043260336,-0.038735468
OrientationDeg,1676592728275,120231905290905,1.0,-4.0,-23.0
UncalMag,1676592728277,120231907875988,-53.6922,11.1751995,-113.948,-48.275375,2.3914185,-62.760414
UncalGyro,1676592728283,120231914266918,0.87979865,0.7275405,1.180497,0.0006387392,-0.0009598478,-0.0033534612
UncalAccel,1676592728284,120231914266918,1.4069797,3.6137605,10.286146,0.006110925,-0.043260336,-0.038735468
OrientationDeg,1676592728284,120231914266918,0.0,-3.0,-23.0
UncalMag,1676592728286,120231917875988,-50.934998,10.943399,-111.9106,-48.275375,2.3914185,-62.760414
UncalGyro,1676592728292,120231923247264,1.0575604,0.66431594,0.9955576,0.0006387392,-0.0009598478,-0.0033534612
UncalAccel,1676592728293,120231923247264,1.7922242,4.1671004,9.366106,0.006110925,-0.043260336,-0.038735468
OrientationDeg,1676592728293,120231923247264,359.0,-3.0,-24.0
UncalMag,1676592728297,120231927864269,-54.9976,9.15,-114.801994,-48.275375,2.3914185,-62.760414
UncalGyro,1676592728301,120231932230602,1.2562444,0.46318856,0.7463246,0.0006387392,-0.0009598478,-0.0033534612
UncalAccel,1676592728301,120231932230602,1.8520447,4.4255257,8.314461,0.006110925,-0.043260336,-0.038735468
OrientationDeg,1676592728302,120231932230602,359.0,-3.0,-25.0
UncalMag,1676592728306,120231937875988,-53.8386,8.6986,-114.0822,-48.275375,2.3914185,-62.760414
UncalGyro,1676592728310,120231941208934,1.5183055,0.11071932,0.50503284,0.0006387392,-0.0009598478,-0.0033534612
UncalAccel,1676592728310,120231941208934,1.4560326,4.0390844,7.7623167,0.006110925,-0.043260336,-0.038735468
OrientationDeg,1676592728310,120231941208934,358.0,-3.0,-25.0
UncalMag,1676592728317,120231947875988,-54.412,8.2838,-114.777596,-48.275375,2.3914185,-62.760414
UncalGyro,1676592728319,120231950188426,1.796402,-0.33337972,0.3474296,0.0006387392,-0.0009598478,-0.0033534612
UncalAccel,1676592728320,120231950188426,0.90807617,3.4713874,6.8656063,0.006110925,-0.043260336,-0.038735468
OrientationDeg,1676592728320,120231950188426,358.0,-4.0,-26.0
UncalMag,1676592728327,120231957876232,-55.6564,6.7953997,-116.2782,-48.275375,2.3914185,-62.760414
UncalGyro,1676592728328,120231959165965,1.9107865,-1.072374,0.27382034,0.0006387392,-0.0009598478,-0.0033534612
UncalAccel,1676592728329,120231959165965,0.6658029,3.4432719,4.7485566,0.006110925,-0.043260336,-0.038735468
OrientationDeg,1676592728329,120231959165965,358.0,-4.0,-27.0
UncalMag,1676592728336,120231967875988,-53.863,6.771,-113.874794,-48.275375,2.3914185,-62.760414
UncalGyro,1676592728337,120231968148937,1.7295122,-2.1410828,0.26145032,0.0006387392,-0.0009598478,-0.0033534612
UncalAccel,1676592728337,120231968148937,0.9553344,3.7094734,3.397808,0.006110925,-0.043260336,-0.038735468
OrientationDeg,1676592728338,120231968148937,358.0,-6.0,-28.0
UncalGyro,1676592728347,120231977130016,1.4982997,-3.2543845,0.1872302,0.0006387392,-0.0009598478,-0.0033534612
UncalAccel,1676592728346,120231977130016,3.07717,3.4666018,3.9780676,0.006110925,-0.043260336,-0.038735468
UncalMag,1676592728346,120231977864513,-53.4482,7.0638,-114.2652,-48.275375,2.3914185,-62.760414
OrientationDeg,1676592728346,120231977130016,357.0,-8.0,-29.0
UncalGyro,1676592728355,120231986109569,1.3949108,-4.146706,-0.013133603,0.0006387392,-0.0009598478,-0.0033534612
UncalAccel,1676592728356,120231986109569,4.4685965,3.4109688,4.932804,0.006110925,-0.043260336,-0.038735468
OrientationDeg,1676592728356,120231986109569,357.0,-10.0,-30.0
UncalMag,1676592728357,120231987875988,-53.899597,6.9417996,-114.460396,-48.275375,2.3914185,-62.760414
UncalGyro,1676592728365,120231995091198,1.3319917,-4.840649,-0.31581733,0.0006387392,-0.0009598478,-0.0033534612
UncalAccel,1676592728364,120231995091198,5.558527,3.6251264,5.620142,0.006110925,-0.043260336,-0.038735468
OrientationDeg,1676592728364,120231995091198,357.0,-12.0,-30.0
UncalMag,1676592728366,120231997864513,-57.315598,5.3924,-113.3502,-48.275375,2.3914185,-62.760414
UncalGyro,1676592728373,120232004070201,1.1837041,-5.2951326,-0.6844745,0.0006387392,-0.0009598478,-0.0033534612
UncalAccel,1676592728374,120232004070201,6.445666,3.955934,6.040681,0.006110925,-0.043260336,-0.038735468
OrientationDeg,1676592728373,120232004070201,358.0,-15.0,-31.0
UncalMag,1676592728377,120232007875988,-61.439198,4.9288,-115.3632,-48.275375,2.3914185,-62.760414
UncalGyro,1676592728383,120232013050304,0.9094256,-5.5089355,-1.0842859,0.0006387392,-0.0009598478,-0.0033534612
UncalAccel,1676592728383,120232013050304,6.987042,3.8374894,6.27099,0.006110925,-0.043260336,-0.038735468
OrientationDeg,1676592728383,120232013050304,358.0,-18.0,-32.0
UncalMag,1676592728386,120232017864513,-62.0248,4.0138,-109.8976,-48.275375,2.3914185,-62.760414
UncalGyro,1676592728392,120232022030712,0.56001073,-5.3951616,-1.4634804,0.0006387392,-0.0009598478,-0.0033534612
UncalAccel,1676592728392,120232022030712,7.082755,3.2907293,7.2789664,0.006110925,-0.043260336,-0.038735468
OrientationDeg,1676592728392,120232022030712,359.0,-20.0,-32.0
UncalMag,1676592728397,120232027875988,-66.2704,3.1964,-111.6422,-48.275375,2.3914185,-62.760414
UncalGyro,1676592728400,120232031014293,0.21991149,-4.8117857,-1.8257235,0.0006387392,-0.0009598478,-0.0033534612
UncalAccel,1676592728400,120232031014293,6.906883,3.114857,8.801998,0.006110925,-0.043260336,-0.038735468
OrientationDeg,1676592728400,120232031014293,0.0,-22.0,-33.0
UncalMag,1676592728407,120232037875988,-65.5872,3.4282,-107.0916,-48.275375,2.3914185,-62.760414
UncalGyro,1676592728408,120232039991405,-0.062155537,-3.7352881,-2.186134,0.0006387392,-0.0009598478,-0.0033534612
UncalAccel,1676592728408,120232039991405,6.6370916,3.2997024,10.584651,0.006110925,-0.043260336,-0.038735468
OrientationDeg,1676592728409,120232039991405,1.0,-23.0,-33.0
UncalMag,1676592728416,120232047881847,-69.3692,2.3058,-108.872795,-48.275375,2.3914185,-62.760414
UncalGyro,1676592728418,120232048973704,-0.4382958,-2.0257819,-2.568841,0.0006387392,-0.0009598478,-0.0033534612
UncalAccel,1676592728418,120232048973704,6.263213,4.016951,12.130414,0.006110925,-0.043260336,-0.038735468
OrientationDeg,1676592728418,120232048973704,3.0,-24.0,-33.0
UncalMag,1676592728427,120232057875988,-68.076,2.2814,-108.6532,-48.275375,2.3914185,-62.760414
UncalGyro,1676592728426,120232057948375,-0.70066243,-0.2967278,-2.942996,0.0006387392,-0.0009598478,-0.0033534612
UncalAccel,1676592728426,120232057948375,5.5710893,4.0642095,11.422139,0.006110925,-0.043260336,-0.038735468
OrientationDeg,1676592728427,120232057948375,4.0,-23.0,-33.0
UncalGyro,1676592728436,120232066931957,-0.9068295,1.2872458,-3.2656856,0.0006387392,-0.0009598478,-0.0033534612
UncalAccel,1676592728435,120232066931957,4.9292145,4.398008,10.615758,0.006110925,-0.043260336,-0.038735468
UncalMag,1676592728436,120232067864513,-66.526596,2.1715999,-107.3722,-48.275375,2.3914185,-62.760414
OrientationDeg,1676592728436,120232066931957,6.0,-21.0,-34.0
UncalGyro,1676592728445,120232075913280,-1.1815661,2.322204,-3.479183,0.0006387392,-0.0009598478,-0.0033534612
UncalAccel,1676592728444,120232075913280,3.9188452,4.753342,8.249256,0.006110925,-0.043260336,-0.038735468
UncalMag,1676592728447,120232077864757,-68.32,1.586,-110.6174,-48.275375,2.3914185,-62.760414
OrientationDeg,1676592728445,120232075913280,9.0,-18.0,-34.0
UncalGyro,1676592728453,120232084893993,-1.557401,2.5935812,-3.5278995,0.0006387392,-0.0009598478,-0.0033534612
UncalAccel,1676592728454,120232084893993,2.5375884,4.8855457,6.289534,0.006110925,-0.043260336,-0.038735468
OrientationDeg,1676592728454,120232084893993,11.0,-15.0,-33.0
UncalMag,1676592728457,120232087876232,-61.902798,3.355,-107.3478,-48.275375,2.3914185,-62.760414
UncalGyro,1676592728462,120232093876476,-1.8031214,2.0259347,-3.18948,0.0006387392,-0.0009598478,-0.0033534612
UncalAccel,1676592728462,120232093876476,-4.3764725,4.691727,5.40419,0.006110925,-0.043260336,-0.038735468
OrientationDeg,1676592728463,120232093876476,13.0,-13.0,-33.0
UncalMag,1676592728467,120232097875744,-65.5384,2.3668,-110.6296,-48.275375,2.3914185,-62.760414
UncalGyro,1676592728472,120232102836376,-1.6928604,0.8425359,-1.6342173,0.0006387392,-0.0009598478,-0.0033534612
UncalAccel,1676592728471,120232102836376,-13.338192,5.2348976,7.1300135,0.006110925,-0.043260336,-0.038735468
OrientationDeg,1676592728471,120232102836376,15.0,-12.0,-32.0
UncalMag,1676592728477,120232107861828,-63.854797,2.9401999,-110.0074,-48.275375,2.3914185,-62.760414
UncalGyro,1676592728481,120232111834117,-1.4920384,0.26068676,-0.052534413,0.0006387392,-0.0009598478,-0.0033534612
UncalAccel,1676592728481,120232111834117,-5.404788,4.7946186,8.221141,0.006110925,-0.043260336,-0.038735468
OrientationDeg,1676592728480,120232111834117,15.0,-12.0,-32.0
UncalMag,1676592728487,120232117875744,-59.9264,5.5388,-107.5552,-48.275375,2.3914185,-62.760414
UncalGyro,1676592728490,120232120812266,-1.347416,0.22983804,0.68508536,0.0006387392,-0.0009598478,-0.0033534612
UncalAccel,1676592728490,120232120812266,2.0410776,2.841477,8.106883,0.006110925,-0.043260336,-0.038735468
OrientationDeg,1676592728489,120232120812266,15.0,-12.0,-31.0
UncalMag,1676592728496,120232127875988,-64.904,4.1846,-110.776,-48.275375,2.3914185,-62.760414
UncalGyro,1676592728499,120232129794872,-1.2038627,0.32421672,0.84039783,0.0006387392,-0.0009598478,-0.0033534612
UncalAccel,1676592728498,120232129794872,4.5762734,2.3569303,8.535198,0.006110925,-0.043260336,-0.038735468
OrientationDeg,1676592728498,120232129794872,14.0,-12.0,-30.0
UncalMag,1676592728506,120232137876232,-60.7926,6.0634,-109.507195,-48.275375,2.3914185,-62.760414
UncalGyro,1676592728507,120232138774302,-1.065349,0.3287982,0.7136433,0.0006387392,-0.0009598478,-0.0033534612
UncalAccel,1676592728507,120232138774302,5.6584272,3.0263224,8.567501,0.006110925,-0.043260336,-0.038735468
OrientationDeg,1676592728508,120232138774302,14.0,-12.0,-29.0
UncalGyro,1676592728517,120232147755565,-0.9305005,0.07345655,0.49021935,0.0006387392,-0.0009598478,-0.0033534612
UncalAccel,1676592728517,120232147755565,5.793622,3.8213377,8.538788,0.006110925,-0.043260336,-0.038735468
UncalMag,1676592728517,120232147866222,-66.9536,4.5871997,-112.776794,-48.275375,2.3914185,-62.760414
OrientationDeg,1676592728517,120232147755565,14.0,-12.0,-29.0
UncalGyro,1676592728526,120232156740855,-0.7467828,-0.2677117,0.32711834,0.0006387392,-0.0009598478,-0.0033534612
UncalAccel,1676592728526,120232156740855,4.9106703,4.205984,9.299107,0.006110925,-0.043260336,-0.038735468
UncalMag,1676592728527,120232157875988,-61.975998,6.2464,-108.336,-48.275375,2.3914185,-62.760414
OrientationDeg,1676592728525,120232156740855,14.0,-12.0,-28.0
UncalGyro,1676592728534,120232165716014,-0.5172501,-0.40408736,0.24801129,0.0006387392,-0.0009598478,-0.0033534612
UncalAccel,1676592728534,120232165716014,4.0869412,4.2687955,10.101301,0.006110925,-0.043260336,-0.038735468
OrientationDeg,1676592728535,120232165716014,13.0,-12.0,-28.0
UncalMag,1676592728537,120232167875988,-64.8064,5.8315997,-110.6784,-48.275375,2.3914185,-62.760414
UncalGyro,1676592728543,120232174696483,-0.28924468,-0.26435193,0.1966986,0.0006387392,-0.0009598478,-0.0033534612
OrientationDeg,1676592728543,120232174696483,13.0,-13.0,-28.0
UncalAccel,1676592728543,120232174696483,3.8177485,4.1312084,10.356734,0.006110925,-0.043260336,-0.038735468
UncalMag,1676592728546,120232177875744,-64.7332,6.3684,-111.4348,-48.275375,2.3914185,-62.760414
UncalGyro,1676592728553,120232183676647,-0.09437868,0.0070249503,0.1375974,0.0006387392,-0.0009598478,-0.0033534612
UncalAccel,1676592728552,120232183676647,3.7136607,3.9254255,9.897313,0.006110925,-0.043260336,-0.038735468
OrientationDeg,1676592728553,120232183676647,13.0,-13.0,-28.0
UncalMag,1676592728557,120232187876232,-63.2692,6.6489997,-109.824394,-48.275375,2.3914185,-62.760414
OrientationDeg,1676592728562,120232192658397,13.0,-13.0,-28.0
UncalGyro,1676592728562,120232192658397,0.03634648,0.21975878,0.07437284,0.0006387392,-0.0009598478,-0.0033534612
UncalAccel,1676592728561,120232192658397,3.3930225,3.7304106,8.956335,0.006110925,-0.043260336,-0.038735468
UncalMag,1676592728566,120232197875988,-66.0508,6.0146,-112.9842,-48.275375,2.3914185,-62.760414
UncalGyro,1676592728571,120232201637218,0.09239337,0.2864958,0.043676864,0.0006387392,-0.0009598478,-0.0033534612
UncalAccel,1676592728571,120232201637218,2.894119,3.3834512,7.999206,0.006110925,-0.043260336,-0.038735468
OrientationDeg,1676592728570,120232201637218,13.0,-12.0,-28.0
UncalMag,1676592728577,120232207876232,-62.0248,6.4782,-109.5926,-48.275375,2.3914185,-62.760414
UncalGyro,1676592728580,120232210617626,0.10338894,0.2753475,0.07147124,0.0006387392,-0.0009598478,-0.0033534612
UncalAccel,1676592728580,120232210617626,2.4789643,2.8103702,8.156534,0.006110925,-0.043260336,-0.038735468
OrientationDeg,1676592728579,120232210617626,13.0,-12.0,-28.0
UncalMag,1676592728587,120232217876232,-63.8914,6.6489997,-111.068794,-48.275375,2.3914185,-62.760414
UncalGyro,1676592728589,120232219597789,0.116980694,0.34895676,0.14950927,0.0006387392,-0.0009598478,-0.0033534612
UncalAccel,1676592728588,120232219597789,2.5028925,2.4939194,8.712267,0.006110925,-0.043260336,-0.038735468
OrientationDeg,1676592728589,120232219597789,13.0,-12.0,-28.0
UncalMag,1676592728597,120232227875988,-61.3172,7.9666,-104.980995,-48.275375,2.3914185,-62.760414
UncalGyro,1676592728597,120232228579540,0.14340061,0.34804046,0.23426682,0.0006387392,-0.0009598478,-0.0033534612
UncalAccel,1676592728597,120232228579540,2.7714868,2.4532413,7.350153,0.006110925,-0.043260336,-0.038735468
OrientationDeg,1676592728597,120232228579540,13.0,-12.0,-28.0
UncalGyro,1676592728607,120232237558544,0.18448131,0.20662516,0.3042109,0.0006387392,-0.0009598478,-0.0033534612
UncalAccel,1676592728606,120232237558544,3.1046875,2.431706,6.4797635,0.006110925,-0.043260336,-0.038735468
UncalMag,1676592728606,120232237860363,-60.731598,7.4175997,-105.7862,-48.275375,2.3914185,-62.760414
OrientationDeg,1676592728606,120232237558544,13.0,-12.0,-28.0
UncalGyro,1676592728616,120232246539195,0.26923886,0.047800206,0.36560285,0.0006387392,-0.0009598478,-0.0033534612
UncalAccel,1676592728615,120232246539195,3.4516466,2.4011974,6.567102,0.006110925,-0.043260336,-0.038735468
OrientationDeg,1676592728616,120232246539195,12.0,-12.0,-28.0
UncalMag,1676592728617,120232247875988,-64.5746,6.3318,-107.164795,-48.275375,2.3914185,-62.760414
UncalGyro,1676592728624,120232255519237,0.39202276,-0.1432479,0.42210788,0.0006387392,-0.0009598478,-0.0033534612
UncalAccel,1676592728624,120232255519237,3.6891344,2.2319052,6.443273,0.006110925,-0.043260336,-0.038735468
UncalMag,1676592728627,120232257876232,-61.756397,6.8686,-106.4694,-48.275375,2.3914185,-62.760414
OrientationDeg,1676592728625,120232255519237,12.0,-13.0,-28.0
UncalGyro,1676592728634,120232264500926,0.519999,-0.32818735,0.48517972,0.0006387392,-0.0009598478,-0.0033534612
UncalAccel,1676592728634,120232264500926,3.8027935,2.000998,6.3421764,0.006110925,-0.043260336,-0.038735468
OrientationDeg,1676592728633,120232264500926,12.0,-13.0,-28.0
UncalMag,1676592728636,120232267875988,-65.026,5.2093997,-106.701195,-48.275375,2.3914185,-62.760414
UncalGyro,1676592728642,120232273479930,0.6238461,-0.4372268,0.569021,0.0006387392,-0.0009598478,-0.0033534612
UncalAccel,1676592728643,120232273479930,3.758526,1.8095721,6.3128643,0.006110925,-0.043260336,-0.038735468
OrientationDeg,1676592728643,120232273479930,11.0,-13.0,-29.0
UncalMag,1676592728647,120232277875499,-62.952,6.2464,-106.628,-48.275375,2.3914185,-62.760414
UncalGyro,1676592728652,120232282449657,0.67256266,-0.47311515,0.70371675,0.0006387392,-0.0009598478,-0.0033534612
UncalAccel,1676592728652,120232282449657,3.6047873,1.5517455,6.1435723,0.006110925,-0.043260336,-0.038735468
OrientationDeg,1676592728651,120232282449657,11.0,-14.0,-29.0
UncalMag,1676592728657,120232287875988,-63.745,5.4778,-105.469,-48.275375,2.3914185,-62.760414
UncalGyro,1676592728661,120232291440807,0.6553057,-0.44715336,0.87109387,0.0006387392,-0.0009598478,-0.0033534612
UncalAccel,1676592728661,120232291440807,3.5318062,1.2496517,5.9844494,0.006110925,-0.043260336,-0.038735468
OrientationDeg,1676592728660,120232291440807,10.0,-14.0,-29.0
UncalMag,1676592728667,120232297875988,-65.4286,5.1117997,-107.8602,-48.275375,2.3914185,-62.760414
UncalGyro,1676592728670,120232300421825,0.58032197,-0.32284227,1.0395399,0.0006387392,-0.0009598478,-0.0033534612
UncalAccel,1676592728669,120232300421825,3.7034912,1.1479566,5.7750773,0.006110925,-0.043260336,-0.038735468
OrientationDeg,1676592728670,120232300421825,9.0,-15.0,-29.0
UncalMag,1676592728676,120232307875988,-62.1102,5.9048,-104.615,-48.275375,2.3914185,-62.760414
UncalGyro,1676592728679,120232309401317,0.46181414,-0.09193522,1.1713341,0.0006387392,-0.0009598478,-0.0033534612
UncalAccel,1676592728678,120232309401317,3.799204,1.099502,5.718248,0.006110925,-0.043260336,-0.038735468
OrientationDeg,1676592728678,120232309401317,9.0,-15.0,-29.0
UncalMag,1676592728687,120232317875744,-64.4648,5.8682,-106.6036,-48.275375,2.3914185,-62.760414
UncalGyro,1676592728688,120232318379833,0.3184135,0.15271631,1.2851077,0.0006387392,-0.0009598478,-0.0033534612
UncalAccel,1676592728687,120232318379833,3.7076788,0.93679005,5.5836515,0.006110925,-0.043260336,-0.038735468
OrientationDeg,1676592728687,120232318379833,8.0,-16.0,-29.0
UncalGyro,1676592728697,120232327362010,0.16279559,0.33169982,1.3929255,0.0006387392,-0.0009598478,-0.0033534612
UncalAccel,1676592728697,120232327362010,3.6789649,0.6011967,5.1625147,0.006110925,-0.043260336,-0.038735468
UncalMag,1676592728697,120232327864513,-61.1708,6.9052,-104.2734,-48.275375,2.3914185,-62.760414
OrientationDeg,1676592728696,120232327362010,7.0,-16.0,-29.0
UncalGyro,1676592728706,120232336343456,-0.02443461,0.4147775,1.5265522,0.0006387392,-0.0009598478,-0.0033534612
UncalAccel,1676592728706,120232336343456,3.2721848,0.5168497,4.3686957,0.006110925,-0.043260336,-0.038735468
OrientationDeg,1676592728706,120232336343456,6.0,-16.0,-29.0
UncalMag,1676592728706,120232337876476,-62.9764,6.4294,-106.676796,-48.275375,2.3914185,-62.760414
UncalGyro,1676592728715,120232345322704,-0.20158553,0.30192015,1.7041613,0.0006387392,-0.0009598478,-0.0033534612
UncalAccel,1676592728714,120232345322704,3.1405797,0.8865408,3.5647075,0.006110925,-0.043260336,-0.038735468
OrientationDeg,1676592728714,120232345322704,5.0,-17.0,-28.0
UncalMag,1676592728717,120232347880138,-64.525795,5.6486,-106.3474,-48.275375,2.3914185,-62.760414
UncalGyro,1676592728723,120232354301891,-0.3275765,-0.004428773,1.864208,0.0006387392,-0.0009598478,-0.0033534612
UncalAccel,1676592728723,120232354301891,3.3876386,0.9954142,2.9186454,0.006110925,-0.043260336,-0.038735468
OrientationDeg,1676592728724,120232354301891,4.0,-17.0,-28.0
UncalMag,1676592728727,120232357875988,-61.988197,7.015,-105.2616,-48.275375,2.3914185,-62.760414
UncalGyro,1676592728733,120232363283336,-0.40759984,-0.37766743,1.9836322,0.0006387392,-0.0009598478,-0.0033534612
UncalAccel,1676592728733,120232363283336,3.5700915,1.0516455,2.7290142,0.006110925,-0.043260336,-0.038735468
OrientationDeg,1676592728733,120232363283336,3.0,-18.0,-27.0
UncalMag,1676592728737,120232367864025,-63.464397,7.381,-105.1762,-48.275375,2.3914185,-62.760414
UncalGyro,1676592728742,120232372264842,-0.43386704,-0.7377725,2.094046,0.0006387392,-0.0009598478,-0.0033534612
UncalAccel,1676592728741,120232372264842,3.714259,1.3674982,2.9455647,0.006110925,-0.043260336,-0.038735468
OrientationDeg,1676592728741,120232372264842,2.0,-19.0,-27.0
UncalMag,1676592728747,120232377875988,-62.5494,8.6986,-105.8838,-48.275375,2.3914185,-62.760414
UncalGyro,1676592728750,120232381232433,-0.39293906,-1.1409435,2.1714733,0.0006387392,-0.0009598478,-0.0033534612
UncalAccel,1676592728750,120232381232433,4.063611,1.835295,3.4881372,0.006110925,-0.043260336,-0.038735468
OrientationDeg,1676592728751,120232381232433,1.0,-20.0,-26.0
UncalMag,1676592728757,120232387875744,-63.696198,9.3452,-105.773994,-48.275375,2.3914185,-62.760414
UncalGyro,1676592728760,120232390224559,-0.32421672,-1.5829046,2.1471913,0.0006387392,-0.0009598478,-0.0033534612
UncalAccel,1676592728760,120232390224559,4.715057,2.5124638,3.8374894,0.006110925,-0.043260336,-0.038735468
OrientationDeg,1676592728759,120232390224559,0.0,-21.0,-26.0
UncalMag,1676592728767,120232397875744,-63.501,9.394,-103.577995,-48.275375,2.3914185,-62.760414
UncalGyro,1676592728768,120232399204601,-0.2695443,-2.0798435,2.0215058,0.0006387392,-0.0009598478,-0.0033534612
UncalAccel,1676592728768,120232399204601,5.1332026,2.6249263,4.2406797,0.006110925,-0.043260336,-0.038735468
OrientationDeg,1676592728769,120232399204601,359.0,-23.0,-25.0
UncalMag,1676592728777,120232407875988,-67.941795,8.4911995,-105.6764,-48.275375,2.3914185,-62.760414
UncalGyro,1676592728777,120232408186534,-0.24083363,-2.3977988,1.8887954,0.0006387392,-0.0009598478,-0.0033534612
UncalAccel,1676592728777,120232408186534,5.435895,1.9525433,5.6392846,0.006110925,-0.043260336,-0.038735468
OrientationDeg,1676592728778,120232408186534,358.0,-25.0,-25.0
UncalGyro,1676592728786,120232417156078,-0.24938573,-2.3817637,1.853976,0.0006387392,-0.0009598478,-0.0033534612
UncalAccel,1676592728787,120232417156078,5.642276,0.97866446,6.812366,0.006110925,-0.043260336,-0.038735468
UncalMag,1676592728786,120232417865246,-64.111,10.418799,-101.7968,-48.275375,2.3914185,-62.760414
OrientationDeg,1676592728786,120232417156078,357.0,-26.0,-24.0
UncalGyro,1676592728795,120232426145641,-0.32330042,-2.2036965,1.9642372,0.0006387392,-0.0009598478,-0.0033534612
UncalAccel,1676592728796,120232426145641,5.6297135,0.019740786,6.9409804,0.006110925,-0.043260336,-0.038735468
UncalMag,1676592728797,120232427876232,-63.317997,12.1024,-100.894,-48.275375,2.3914185,-62.760414
OrientationDeg,1676592728796,120232426145641,356.0,-28.0,-23.0
UncalGyro,1676592728805,120232435125926,-0.49418998,-2.0540345,2.1870503,0.0006387392,-0.0009598478,-0.0033534612
UncalAccel,1676592728805,120232435125926,5.2223353,-0.6113662,6.38764,0.006110925,-0.043260336,-0.038735468
OrientationDeg,1676592728805,120232435125926,355.0,-29.0,-22.0
UncalMag,1676592728807,120232437875988,-64.3184,11.8828,-101.6382,-48.275375,2.3914185,-62.760414
UncalGyro,1676592728813,120232444107616,-0.73563445,-2.051591,2.4611762,0.0006387392,-0.0009598478,-0.0033534612
UncalAccel,1676592728814,120232444107616,4.833502,-0.78664047,5.675177,0.006110925,-0.043260336,-0.038735468
OrientationDeg,1676592728814,120232444107616,354.0,-31.0,-21.0
UncalMag,1676592728817,120232447874523,-66.917,12.1024,-101.687,-48.275375,2.3914185,-62.760414
UncalGyro,1676592728822,120232453086376,-0.93309665,-2.1598668,2.7693577,0.0006387392,-0.0009598478,-0.0033534612
UncalAccel,1676592728823,120232453086376,5.078168,-0.92662054,6.13759,0.006110925,-0.043260336,-0.038735468
OrientationDeg,1676592728823,120232453086376,353.0,-32.0,-20.0
UncalMag,1676592728827,120232457864269,-70.15,12.870999,-102.345795,-48.275375,2.3914185,-62.760414
UncalGyro,1676592728832,120232462067088,-0.9627236,-2.2585216,3.0744848,0.0006387392,-0.0009598478,-0.0033534612
UncalAccel,1676592728832,120232462067088,5.99761,-0.9320044,7.204789,0.006110925,-0.043260336,-0.038735468
OrientationDeg,1676592728832,120232462067088,352.0,-34.0,-19.0
UncalMag,1676592728837,120232467875988,-69.1374,13.9567995,-100.711,-48.275375,2.3914185,-62.760414
UncalGyro,1676592728841,120232471047557,-0.8196284,-2.3144157,3.2517884,0.0006387392,-0.0009598478,-0.0033534612
UncalAccel,1676592728840,120232471047557,7.420741,-0.34097722,7.5954175,0.006110925,-0.043260336,-0.038735468
OrientationDeg,1676592728840,120232471047557,351.0,-35.0,-18.0
UncalMag,1676592728847,120232477875988,-71.3456,14.518,-100.4182,-48.275375,2.3914185,-62.760414
UncalGyro,1676592728850,120232480029002,-0.57818395,-2.3698518,3.246596,0.0006387392,-0.0009598478,-0.0033534612
UncalAccel,1676592728849,120232480029002,8.407183,0.16630118,7.4739814,0.006110925,-0.043260336,-0.038735468
OrientationDeg,1676592728849,120232480029002,349.0,-37.0,-16.0
UncalMag,1676592728856,120232487875988,-70.028,15.4818,-98.2466,-48.275375,2.3914185,-62.760414
UncalGyro,1676592728859,120232489008067,-0.3294091,-2.4110851,3.1902437,0.0006387392,-0.0009598478,-0.0033534612
UncalAccel,1676592728859,120232489008067,8.383254,-0.044865426,7.143772,0.006110925,-0.043260336,-0.038735468
OrientationDeg,1676592728859,120232489008067,348.0,-39.0,-15.0
UncalMag,1676592728866,120232497875744,-69.3936,17.2264,-97.722,-48.275375,2.3914185,-62.760414
UncalGyro,1676592728866,120232497985057,-0.14584407,-2.4938574,3.200934,0.0006387392,-0.0009598478,-0.0033534612
UncalAccel,1676592728867,120232497985057,8.283952,-0.3272185,6.527022,0.006110925,-0.043260336,-0.038735468
OrientationDeg,1676592728867,120232497985057,347.0,-40.0,-14.0
UncalGyro,1676592728876,120232506968883,-0.083383106,-2.5810583,3.3179145,0.0006387392,-0.0009598478,-0.0033534612
UncalAccel,1676592728876,120232506968883,8.477173,-1.1389836,5.809175,0.006110925,-0.043260336,-0.038735468
UncalMag,1676592728877,120232507864269,-73.81,16.3968,-99.832596,-48.275375,2.3914185,-62.760414
OrientationDeg,1676592728875,120232506968883,346.0,-42.0,-13.0
UncalGyro,1676592728884,120232515941295,-0.14920384,-2.6018279,3.488957,0.0006387392,-0.0009598478,-0.0033534612
UncalAccel,1676592728884,120232515941295,8.641081,-1.7922242,5.425127,0.006110925,-0.043260336,-0.038735468
OrientationDeg,1676592728885,120232515941295,344.0,-44.0,-11.0
UncalMag,1676592728886,120232517875988,-72.6266,18.031599,-96.7582,-48.275375,2.3914185,-62.760414
OrientationDeg,1676592728893,120232524929393,343.0,-45.0,-10.0
UncalGyro,1676592728893,120232524929393,-0.30787608,-2.5369234,3.6593883,0.0006387392,-0.0009598478,-0.0033534612
UncalAccel,1676592728893,120232524929393,8.7984085,-2.1003,4.971089,0.006110925,-0.043260336,-0.038735468
UncalMag,1676592728896,120232527875988,-71.3334,19.9104,-95.342995,-48.275375,2.3914185,-62.760414
OrientationDeg,1676592728902,120232533909618,342.0,-47.0,-8.0
UncalGyro,1676592728903,120232533909618,-0.49296826,-2.4987442,3.8453968,0.0006387392,-0.0009598478,-0.0033534612
UncalAccel,1676592728903,120232533909618,9.352347,-2.9862428,4.3495536,0.006110925,-0.043260336,-0.038735468
UncalMag,1676592728906,120232537876232,-72.443596,20.3984,-96.9168,-48.275375,2.3914185,-62.760414
UncalGyro,1676592728912,120232542875743,-0.64599,-2.589916,4.060879,0.0006387392,-0.0009598478,-0.0033534612
UncalAccel,1676592728912,120232542875743,10.293923,-3.76391,3.6640096,0.006110925,-0.043260336,-0.038735468
OrientationDeg,1676592728911,120232542875743,341.0,-48.0,-6.0
UncalMag,1676592728916,120232547864513,-72.6632,21.472,-95.806595,-48.275375,2.3914185,-62.760414
OrientationDeg,1676592728921,120232551871837,340.0,-50.0,-5.0
UncalGyro,1676592728920,120232551871837,-0.7145596,-2.860682,4.289343,0.0006387392,-0.0009598478,-0.0033534612
UncalAccel,1676592728920,120232551871837,11.483754,-3.6993039,3.1310084,0.006110925,-0.043260336,-0.038735468
UncalMag,1676592728927,120232557875988,-74.005196,22.704199,-95.660194,-48.275375,2.3914185,-62.760414
UncalGyro,1676592728929,120232560850414,-0.7115053,-3.275612,4.4857364,0.0006387392,-0.0009598478,-0.0033534612
UncalAccel,1676592728929,120232560850414,13.086347,-3.1627133,2.8695927,0.006110925,-0.043260336,-0.038735468
OrientationDeg,1676592728929,120232560850414,338.0,-52.0,-2.0
UncalMag,1676592728936,120232567876232,-74.151596,23.9974,-94.4768,-48.275375,2.3914185,-62.760414
OrientationDeg,1676592728939,120232569830944,337.0,-54.0,0.0
UncalGyro,1676592728938,120232569830944,-0.6794349,-3.657861,4.5798097,0.0006387392,-0.0009598478,-0.0033534612
UncalAccel,1676592728938,120232569830944,14.426926,-2.4508486,3.6891344,0.006110925,-0.043260336,-0.038735468
UncalMag,1676592728946,120232577875988,-74.1394,25.681,-94.9526,-48.275375,2.3914185,-62.760414
UncalGyro,1676592728948,120232578811534,-0.6395759,-3.8570032,4.5779767,0.0006387392,-0.0009598478,-0.0033534612
UncalAccel,1676592728947,120232578811534,15.54916,-1.4356936,4.843073,0.006110925,-0.043260336,-0.038735468
OrientationDeg,1676592728948,120232578811534,336.0,-56.0,1.0
UncalGyro,1676592728957,120232587792919,-0.59391373,-3.9041924,4.5011606,0.0006387392,-0.0009598478,-0.0033534612
UncalAccel,1676592728956,120232587792919,16.65285,-1.1449656,5.788836,0.006110925,-0.043260336,-0.038735468
UncalMag,1676592728956,120232587858410,-75.090996,27.0108,-93.9766,-48.275375,2.3914185,-62.760414
OrientationDeg,1676592728956,120232587792919,335.0,-58.0,3.0
UncalGyro,1676592728965,120232596772106,-0.5849035,-3.7406332,4.429842,0.0006387392,-0.0009598478,-0.0033534612
UncalAccel,1676592728966,120232596772106,16.429121,-2.1068804,7.0504518,0.006110925,-0.043260336,-0.038735468
UncalMag,1676592728966,120232597864757,-75.0788,27.938,-93.8546,-48.275375,2.3914185,-62.760414
OrientationDeg,1676592728965,120232596772106,334.0,-59.0,5.0
UncalGyro,1676592728974,120232605752696,-0.6409504,-3.29348,4.475657,0.0006387392,-0.0009598478,-0.0033534612
UncalAccel,1676592728974,120232605752696,15.1244335,-3.2685957,7.9154572,0.006110925,-0.043260336,-0.038735468
OrientationDeg,1676592728975,120232605752696,333.0,-61.0,7.0
UncalMag,1676592728977,120232607875744,-74.908,29.463,-91.133995,-48.275375,2.3914185,-62.760414
UncalGyro,1676592728983,120232614732860,-0.80970186,-2.7366762,4.637231,0.0006387392,-0.0009598478,-0.0033534612
UncalAccel,1676592728983,120232614732860,14.090137,-4.106084,7.539186,0.006110925,-0.043260336,-0.038735468
OrientationDeg,1676592728984,120232614732860,333.0,-62.0,10.0
UncalMag,1676592728987,120232617875988,-74.8348,30.792799,-90.645996,-48.275375,2.3914185,-62.760414
UncalGyro,1676592728993,120232623702586,-1.0192287,-2.2696698,4.8218646,0.0006387392,-0.0009598478,-0.0033534612
UncalAccel,1676592728993,120232623702586,14.000405,-4.5565324,6.769295,0.006110925,-0.043260336,-0.038735468
OrientationDeg,1676592728993,120232623702586,332.0,-63.0,12.0
UncalMag,1676592728997,120232627875988,-72.6876,32.9644,-88.645195,-48.275375,2.3914185,-62.760414
UncalGyro,1676592729002,120232632693553,-1.1749994,-1.9908098,4.9512157,0.0006387392,-0.0009598478,-0.0033534612
UncalAccel,1676592729002,120232632693553,14.16551,-4.5822554,6.040681,0.006110925,-0.043260336,-0.038735468
OrientationDeg,1676592729001,120232632693553,331.0,-64.0,15.0
UncalMag,1676592729006,120232637875744,-72.4192,34.0624,-87.413,-48.275375,2.3914185,-62.760414
UncalGyro,1676592729011,120232641673534,-1.2287555,-1.9257526,4.978857,0.0006387392,-0.0009598478,-0.0033534612
UncalAccel,1676592729010,120232641673534,14.697913,-4.3986063,5.6297135,0.006110925,-0.043260336,-0.038735468
OrientationDeg,1676592729010,120232641673534,331.0,-65.0,17.0
UncalMag,1676592729016,120232647867443,-71.4188,35.526398,-87.705795,-48.275375,2.3914185,-62.760414
UncalGyro,1676592729019,120232650654247,-1.1582005,-1.8639026,4.9092183,0.0006387392,-0.0009598478,-0.0033534612
UncalAccel,1676592729020,120232650654247,14.539987,-4.1665025,7.126424,0.006110925,-0.043260336,-0.038735468
OrientationDeg,1676592729020,120232650654247,330.0,-66.0,20.0
UncalMag,1676592729026,120232657875988,-71.0894,37.1246,-85.4976,-48.275375,2.3914185,-62.760414
UncalGyro,1676592729029,120232659635631,-0.9783007,-1.6685784,4.8369837,0.0006387392,-0.0009598478,-0.0033534612
UncalAccel,1676592729028,120232659635631,13.969897,-4.17727,8.687142,0.006110925,-0.043260336,-0.038735468
OrientationDeg,1676592729028,120232659635631,330.0,-66.0,22.0
UncalMag,1676592729037,120232667875988,-70.0158,38.064,-85.216995,-48.275375,2.3914185,-62.760414
UncalGyro,1676592729038,120232668615001,-0.7877107,-1.4480561,4.7962084,0.0006387392,-0.0009598478,-0.0033534612
UncalAccel,1676592729037,120232668615001,13.808381,-4.549952,8.932407,0.006110925,-0.043260336,-0.038735468
OrientationDeg,1676592729037,120232668615001,329.0,-67.0,25.0
UncalGyro,1676592729046,120232677595104,-0.64476824,-1.2904528,4.776661,0.0006387392,-0.0009598478,-0.0033534612
UncalAccel,1676592729046,120232677595104,13.910674,-4.6372905,8.350951,0.006110925,-0.043260336,-0.038735468
UncalMag,1676592729046,120232677877697,-67.465996,39.9184,-84.3508,-48.275375,2.3914185,-62.760414
OrientationDeg,1676592729047,120232677595104,328.0,-67.0,27.0
Status,1676592727000,29,0,6,2,1575420030,40.03,48.0,79.0,1,1,1,35.83294
Status,1676592727000,29,1,6,2,1176450050,37.39,48.0,79.0,1,1,1,33.291683
Status,1676592727000,29,2,6,36,1176450050,37.71,75.0,71.0,1,1,1,33.610924
Status,1676592727000,29,3,6,36,1575420030,38.40,75.0,71.0,1,1,1,34.20158
Status,1676592727000,29,4,3,17,1604249980,45.51,255.0,71.0,1,1,1,41.309566
Status,1676592727000,29,5,1,11,1575420030,40.41,159.0,64.0,1,1,1,36.207123
Status,1676592727000,29,6,1,11,1176450050,40.02,159.0,64.0,1,1,1,35.92014
Status,1676592727000,29,7,3,14,1598062460,41.83,137.0,62.0,1,1,1,37.626408
Status,1676592727000,29,8,3,15,1602000000,46.34,331.0,59.0,1,1,1,42.141724
Status,1676592727000,29,9,1,6,1575420030,42.11,61.0,56.0,1,1,1,37.91117
Status,1676592727000,29,10,1,6,1176450050,37.81,61.0,56.0,1,1,1,33.714325
Status,1676592727000,29,11,1,12,1575420030,47.53,318.0,51.0,1,1,1,43.333126
Status,1676592727000,29,12,1,24,1176450050,41.45,233.0,49.0,1,1,1,37.350258
Status,1676592727000,29,13,1,24,1575420030,44.41,233.0,49.0,1,1,1,40.212986
Status,1676592727000,29,14,6,34,1176450050,40.63,199.0,46.0,1,1,1,36.53089
Status,1676592727000,29,15,6,34,1575420030,40.84,199.0,46.0,1,1,1,36.6411
Status,1676592727000,29,16,3,24,1603124990,43.80,29.0,45.0,1,1,1,39.603615
Status,1676592727000,29,17,1,19,1575420030,43.72,51.0,36.0,1,1,1,39.5231
Status,1676592727000,29,18,6,30,1176450050,38.18,312.0,36.0,1,1,1,34.08263
Status,1676592727000,29,19,6,30,1575420030,43.45,312.0,36.0,1,1,1,39.251965
Status,1676592727000,29,20,6,25,1176450050,33.82,116.0,34.0,1,1,1,29.715616
Status,1676592727000,29,21,6,25,1575420030,37.30,116.0,34.0,1,1,1,33.098473
Status,1676592727000,29,22,6,11,1176450050,33.04,41.0,24.0,1,1,1,28.935804
Status,1676592727000,29,23,6,11,1575420030,35.42,41.0,24.0,1,1,1,31.215088
Status,1676592727000,29,24,3,18,1600312450,45.27,225.0,23.0,1,1,1,41.067703
Status,1676592727000,29,25,1,25,1575420030,44.50,308.0,22.0,1,1,1,40.300568
Status,1676592727000,29,26,1,25,1176450050,42.85,308.0,22.0,1,1,1,38.74922
Status,1676592727000,29,27,1,20,1575420030,34.13,150.0,15.0,1,1,1,29.927046
Status,1676592727000,29,28,1,17,1575420030,40.77,63.0,10.0,1,1,1,36.571598
UncalGyro,1676592729055,120232686575633,-0.5296202,-1.2423472,4.7444377,0.0006387392,-0.0009598478,-0.0033534612
