# 
# Header Description:
# 
# Version: v3.0.5.6 Platform: 13 Manufacturer: Google Model: Pixel 6
# 
# Raw,utcTimeMillis,TimeNanos,LeapSecond,TimeUncertaintyNanos,FullBiasNanos,BiasNanos,BiasUncertaintyNanos,DriftNanosPerSecond,DriftUncertaintyNanosPerSecond,HardwareClockDiscontinuityCount,Svid,TimeOffsetNanos,State,ReceivedSvTimeNanos,ReceivedSvTimeUncertaintyNanos,Cn0DbHz,PseudorangeRateMetersPerSecond,PseudorangeRateUncertaintyMetersPerSecond,AccumulatedDeltaRangeState,AccumulatedDeltaRangeMeters,AccumulatedDeltaRangeUncertaintyMeters,CarrierFrequencyHz,CarrierCycles,CarrierPhase,CarrierPhaseUncertainty,MultipathIndicator,SnrInDb,ConstellationType,AgcDb,BasebandCn0DbHz,FullInterSignalBiasNanos,FullInterSignalBiasUncertaintyNanos,SatelliteInterSignalBiasNanos,SatelliteInterSignalBiasUncertaintyNanos,CodeType,ChipsetElapsedRealtimeNanos
# 
# UncalAccel,utcTimeMillis,elapsedRealtimeNanos,UncalAccelXMps2,UncalAccelYMps2,UncalAccelZMps2,BiasXMps2,BiasYMps2,BiasZMps2
# 
# Accel,utcTimeMillis,elapsedRealtimeNanos,AccelXMps2,AccelYMps2,AccelZMps2
# 
# UncalGyro,utcTimeMillis,elapsedRealtimeNanos,UncalGyroXRadPerSec,UncalGyroYRadPerSec,UncalGyroZRadPerSec,DriftXRadPerSec,DriftYRadPerSec,DriftZRadPerSec
# 
# Gyro,utcTimeMillis,elapsedRealtimeNanos,GyroXRadPerSec,GyroYRadPerSec,GyroZRadPerSec
# 
# UncalMag,utcTimeMillis,elapsedRealtimeNanos,UncalMagXMicroT,UncalMagYMicroT,UncalMagZMicroT,BiasXMicroT,BiasYMicroT,BiasZMicroT
# 
# Mag,utcTimeMillis,elapsedRealtimeNanos,MagXMicroT,MagYMicroT,MagZMicroT
# 
# OrientationDeg,utcTimeMillis,elapsedRealtimeNanos,yawDeg,rollDeg,pitchDeg
# 
# Fix,Provider,LatitudeDegrees,LongitudeDegrees,AltitudeMeters,SpeedMps,AccuracyMeters,BearingDegrees,UnixTimeMillis,SpeedAccuracyMps,BearingAccuracyDegrees,elapsedRealtimeNanos,VerticalAccuracyMeters
# 
# Nav,Svid,Type,Status,MessageId,Sub-messageId,Data(Bytes)
# 
# Status,UnixTimeMillis,SignalCount,SignalIndex,ConstellationType,Svid,CarrierFrequencyHz,Cn0DbHz,AzimuthDegrees,ElevationDegrees,UsedInFix,HasAlmanacData,HasEphemerisData,BasebandCn0DbHz
# 
UncalGyro,1676592404555,119908185329906,-0.083383106,-0.8352055,-0.06414085,0.0006135892,-0.00073981576,-0.0031140875
UncalAccel,1676592404555,119908185329906,1.538585,3.505485,9.475577,0.006110925,-0.043260336,-0.038735468
UncalMag,1676592404556,119908187867931,-56.0956,12.8588,-116.1196,-47.646854,1.2478232,-64.42538
UncalGyro,1676592404563,119908194310008,-0.07437284,-0.75640386,-0.06658431,0.0006135892,-0.00073981576,-0.0031140875
UncalAccel,1676592404563,119908194310008,1.6570296,3.2081769,10.065409,0.006110925,-0.043260336,-0.038735468
UncalMag,1676592404566,119908197866466,-55.217197,13.2126,-115.546196,-47.646854,1.2478232,-64.42538
OrientationDeg,1676592404563,119908194310008,357.0,-9.0,-20.0
UncalGyro,1676592404573,119908203292247,-0.081397794,-0.5309946,-0.049785517,0.0006135892,-0.00073981576,-0.0031140875
UncalAccel,1676592404573,119908203292247,1.6336997,2.964109,10.573883,0.006110925,-0.043260336,-0.038735468
OrientationDeg,1676592404572,119908203292247,357.0,-9.0,-20.0
Fix,FLP,37.4307925000,-122.1550559000,-15.80000114440918,0.08157803,3.818,,1676592404249,,,119907880014537,4.5840282
UncalMag,1676592404576,119908207866955,-54.3388,13.3102,-112.752396,-47.646854,1.2478232,-64.42538
UncalGyro,1676592404581,119908212269908,-0.11591168,-0.21365012,-0.010079277,0.0006135892,-0.00073981576,-0.0031140875
UncalAccel,1676592404582,119908212269908,1.5846468,2.8109684,10.6205435,0.006110925,-0.043260336,-0.038735468
OrientationDeg,1676592404582,119908212269908,357.0,-9.0,-20.0
UncalMag,1676592404587,119908217864513,-54.119198,14.2984,-109.9952,-47.646854,1.2478232,-64.42538
UncalGyro,1676592404590,119908221250561,-0.16920967,0.10140363,0.04153884,0.0006135892,-0.00073981576,-0.0031140875
UncalAccel,1676592404591,119908221250561,1.4823537,2.8785655,10.220344,0.006110925,-0.043260336,-0.038735468
OrientationDeg,1676592404591,119908221250561,357.0,-9.0,-19.0
UncalMag,1676592404597,119908227871349,-51.545,15.1158,-109.5316,-47.646854,1.2478232,-64.42538
UncalGyro,1676592404600,119908230231334,-0.24083363,0.3202461,0.086437434,0.0006135892,-0.00073981576,-0.0031140875
UncalAccel,1676592404600,119908230231334,1.3824533,3.065804,9.477372,0.006110925,-0.043260336,-0.038735468
OrientationDeg,1676592404599,119908230231334,357.0,-9.0,-19.0
UncalMag,1676592404607,119908237867443,-51.5816,15.1036,-110.287994,-47.646854,1.2478232,-64.42538
UncalGyro,1676592404608,119908239216503,-0.3211624,0.3817908,0.10842858,0.0006135892,-0.00073981576,-0.0031140875
UncalAccel,1676592404608,119908239216503,1.2915261,3.2243285,8.839087,0.006110925,-0.043260336,-0.038735468
OrientationDeg,1676592404609,119908239216503,357.0,-9.0,-19.0
UncalMag,1676592404616,119908247864269,-54.277798,14.4326,-111.032196,-47.646854,1.2478232,-64.42538
UncalGyro,1676592404617,119908248191356,-0.38744128,0.3211624,0.11728613,0.0006135892,-0.00073981576,-0.0031140875
UncalAccel,1676592404617,119908248191356,1.2975081,3.2476585,8.572288,0.006110925,-0.043260336,-0.038735468
OrientationDeg,1676592404617,119908248191356,357.0,-9.0,-19.0
UncalGyro,1676592404626,119908257173351,-0.4008803,0.22021692,0.11804971,0.0006135892,-0.00073981576,-0.0031140875
UncalAccel,1676592404627,119908257173351,1.311865,3.3487554,8.711071,0.006110925,-0.043260336,-0.038735468
UncalMag,1676592404627,119908257864513,-53.131,14.408199,-110.422195,-47.646854,1.2478232,-64.42538
OrientationDeg,1676592404627,119908257173351,357.0,-9.0,-19.0
UncalGyro,1676592404635,119908266152355,-0.35124752,0.10567969,0.100792766,0.0006135892,-0.00073981576,-0.0031140875
UncalAccel,1676592404636,119908266152355,1.4883357,3.4576287,8.893523,0.006110925,-0.043260336,-0.038735468
OrientationDeg,1676592404636,119908266152355,357.0,-9.0,-18.0
UncalMag,1676592404637,119908267864757,-53.3872,14.969399,-109.629196,-47.646854,1.2478232,-64.42538
UncalGyro,1676592404645,119908275143504,-0.25870144,-0.02443461,0.05955936,0.0006135892,-0.00073981576,-0.0031140875
UncalAccel,1676592404645,119908275143504,1.7312071,3.5234313,9.099904,0.006110925,-0.043260336,-0.038735468
OrientationDeg,1676592404644,119908275143504,357.0,-9.0,-18.0
UncalMag,1676592404647,119908277876232,-51.7768,15.5794,-109.1534,-47.646854,1.2478232,-64.42538
UncalGyro,1676592404654,119908284125438,-0.16417004,-0.16187929,-0.0012217305,0.0006135892,-0.00073981576,-0.0031140875
UncalAccel,1676592404654,119908284125438,1.9447666,3.4839497,9.219545,0.006110925,-0.043260336,-0.038735468
OrientationDeg,1676592404654,119908284125438,357.0,-9.0,-18.0
UncalMag,1676592404656,119908287875744,-52.6186,15.2866,-109.507195,-47.646854,1.2478232,-64.42538
UncalGyro,1676592404663,119908293097240,-0.0786489,-0.25473082,-0.0720821,0.0006135892,-0.00073981576,-0.0031140875
UncalAccel,1676592404662,119908293097240,1.9710877,3.4600215,9.582058,0.006110925,-0.043260336,-0.038735468
OrientationDeg,1676592404662,119908293097240,357.0,-9.0,-18.0
UncalMag,1676592404667,119908297863781,-51.301,15.8356,-109.629196,-47.646854,1.2478232,-64.42538
UncalGyro,1676592404671,119908302082836,0.0027488936,-0.26526824,-0.13515393,0.0006135892,-0.00073981576,-0.0031140875
UncalAccel,1676592404672,119908302082836,1.8873389,3.278167,9.928419,0.006110925,-0.043260336,-0.038735468
OrientationDeg,1676592404672,119908302082836,357.0,-9.0,-18.0
UncalMag,1676592404677,119908307875988,-53.191998,15.2987995,-109.653595,-47.646854,1.2478232,-64.42538
UncalGyro,1676592404681,119908311063182,0.08857546,-0.21151209,-0.17959438,0.0006135892,-0.00073981576,-0.0031140875
UncalAccel,1676592404680,119908311063182,1.7838492,3.039483,10.202995,0.006110925,-0.043260336,-0.038735468
OrientationDeg,1676592404680,119908311063182,357.0,-9.0,-18.0
UncalMag,1676592404687,119908317864269,-57.461998,12.9808,-116.9248,-47.646854,1.2478232,-64.42538
UncalGyro,1676592404689,119908320043102,0.16920967,-0.13209961,-0.20662516,0.0006135892,-0.00073981576,-0.0031140875
UncalAccel,1676592404689,119908320043102,1.6767704,2.8965118,10.416555,0.006110925,-0.043260336,-0.038735468
OrientationDeg,1676592404690,119908320043102,357.0,-9.0,-18.0
UncalMag,1676592404697,119908327875499,-54.4608,14.7132,-110.1782,-47.646854,1.2478232,-64.42538
UncalGyro,1676592404698,119908329024547,0.24678956,-0.025198191,-0.2049453,0.0006135892,-0.00073981576,-0.0031140875
UncalAccel,1676592404698,119908329024547,1.5451652,2.609373,10.633704,0.006110925,-0.043260336,-0.038735468
OrientationDeg,1676592404699,119908329024547,357.0,-9.0,-19.0
UncalMag,1676592404706,119908337875988,-56.1078,13.920199,-111.812996,-47.646854,1.2478232,-64.42538
UncalGyro,1676592404707,119908338001109,0.30665436,0.1611157,-0.13713925,0.0006135892,-0.00073981576,-0.0031140875
UncalAccel,1676592404708,119908338001109,1.3316058,2.3042881,10.922039,0.006110925,-0.043260336,-0.038735468
OrientationDeg,1676592404707,119908338001109,357.0,-9.0,-19.0
UncalGyro,1676592404715,119908346983715,0.35964692,0.42088616,-0.004886922,0.0006135892,-0.00073981576,-0.0031140875
UncalAccel,1676592404716,119908346983715,1.1353943,2.2528424,10.944771,0.006110925,-0.043260336,-0.038735468
UncalMag,1676592404717,119908347864269,-56.7422,13.4688,-111.654396,-47.646854,1.2478232,-64.42538
OrientationDeg,1676592404716,119908346983715,357.0,-9.0,-19.0
UncalGyro,1676592404724,119908355966869,0.39492437,0.66446865,0.13500121,0.0006135892,-0.00073981576,-0.0031140875
UncalAccel,1676592404724,119908355966869,1.0875379,2.4634109,10.402198,0.006110925,-0.043260336,-0.038735468
OrientationDeg,1676592404724,119908355966869,357.0,-8.0,-19.0
UncalMag,1676592404727,119908357876232,-56.217598,13.5664,-111.4348,-47.646854,1.2478232,-64.42538
UncalGyro,1676592404733,119908364945384,0.3817908,0.80939645,0.24862215,0.0006135892,-0.00073981576,-0.0031140875
UncalAccel,1676592404733,119908364945384,1.1599208,2.7601209,9.626924,0.006110925,-0.043260336,-0.038735468
OrientationDeg,1676592404733,119908364945384,357.0,-8.0,-19.0
UncalMag,1676592404737,119908367875988,-55.6564,13.3712,-111.7886,-47.646854,1.2478232,-64.42538
UncalGyro,1676592404742,119908373922435,0.3315471,0.8168796,0.30711251,0.0006135892,-0.00073981576,-0.0031140875
UncalAccel,1676592404742,119908373922435,1.3280165,3.1280174,9.048459,0.006110925,-0.043260336,-0.038735468
OrientationDeg,1676592404743,119908373922435,357.0,-8.0,-19.0
UncalMag,1676592404747,119908377875988,-53.582397,13.603,-110.568596,-47.646854,1.2478232,-64.42538
UncalGyro,1676592404752,119908382904430,0.28237244,0.68279463,0.32375857,0.0006135892,-0.00073981576,-0.0031140875
UncalAccel,1676592404751,119908382904430,1.4279169,3.4677982,8.617152,0.006110925,-0.043260336,-0.038735468
OrientationDeg,1676592404751,119908382904430,357.0,-7.0,-19.0
UncalMag,1676592404757,119908387866222,-55.4368,12.9808,-113.057396,-47.646854,1.2478232,-64.42538
UncalGyro,1676592404761,119908391886852,0.26160303,0.45540005,0.2959642,0.0006135892,-0.00073981576,-0.0031140875
UncalAccel,1676592404761,119908391886852,1.4410775,3.9517467,8.619545,0.006110925,-0.043260336,-0.038735468
OrientationDeg,1676592404761,119908391886852,357.0,-7.0,-20.0
UncalMag,1676592404767,119908397875744,-50.068798,14.5668,-110.0074,-47.646854,1.2478232,-64.42538
UncalGyro,1676592404769,119908400866039,0.28328875,0.24663684,0.21975878,0.0006135892,-0.00073981576,-0.0031140875
UncalAccel,1676592404769,119908400866039,1.5320047,4.39741,9.203394,0.006110925,-0.043260336,-0.038735468
OrientationDeg,1676592404769,119908400866039,356.0,-7.0,-20.0
UncalMag,1676592404777,119908407875744,-51.6182,14.1032,-110.3978,-47.646854,1.2478232,-64.42538
UncalGyro,1676592404778,119908409845165,0.35430184,0.16920967,0.11942416,0.0006135892,-0.00073981576,-0.0031140875
UncalAccel,1676592404778,119908409845165,1.628914,4.3782673,9.870992,0.006110925,-0.043260336,-0.038735468
OrientationDeg,1676592404778,119908409845165,356.0,-7.0,-20.0
UncalMag,1676592404786,119908417875988,-52.216,13.542,-110.2148,-47.646854,1.2478232,-64.42538
UncalGyro,1676592404788,119908418825145,0.4538729,0.22464569,0.05131268,0.0006135892,-0.00073981576,-0.0031140875
UncalAccel,1676592404788,119908418825145,1.7461623,3.830909,10.374083,0.006110925,-0.043260336,-0.038735468
OrientationDeg,1676592404787,119908418825145,356.0,-7.0,-20.0
UncalGyro,1676592404797,119908427805492,0.5493206,0.36942077,0.054825157,0.0006135892,-0.00073981576,-0.0031140875
UncalAccel,1676592404796,119908427805492,1.8873389,3.0388846,10.456037,0.006110925,-0.043260336,-0.038735468
UncalMag,1676592404796,119908427871593,-49.715,14.335,-109.2144,-47.646854,1.2478232,-64.42538
OrientationDeg,1676592404797,119908427805492,356.0,-7.0,-20.0
UncalGyro,1676592404806,119908436786388,0.6375906,0.46868637,0.13897185,0.0006135892,-0.00073981576,-0.0031140875
UncalAccel,1676592404806,119908436786388,1.8173488,2.4161527,10.243075,0.006110925,-0.043260336,-0.038735468
UncalMag,1676592404806,119908437876232,-52.093998,13.297999,-111.202995,-47.646854,1.2478232,-64.42538
OrientationDeg,1676592404805,119908436786388,356.0,-7.0,-21.0
UncalGyro,1676592404814,119908445765758,0.7715228,0.4625777,0.23991732,0.0006135892,-0.00073981576,-0.0031140875
UncalAccel,1676592404814,119908445765758,1.9411774,2.8660033,9.926624,0.006110925,-0.043260336,-0.038735468
OrientationDeg,1676592404815,119908445765758,356.0,-6.0,-21.0
UncalMag,1676592404816,119908447876232,-51.4596,12.993,-110.9834,-47.646854,1.2478232,-64.42538
UncalGyro,1676592404823,119908454745983,0.9242391,0.36300668,0.27748555,0.0006135892,-0.00073981576,-0.0031140875
UncalAccel,1676592404823,119908454745983,2.341377,3.822534,9.523434,0.006110925,-0.043260336,-0.038735468
OrientationDeg,1676592404823,119908454745983,356.0,-6.0,-22.0
UncalMag,1676592404827,119908457876232,-51.6548,12.3708,-112.1912,-47.646854,1.2478232,-64.42538
UncalGyro,1676592404833,119908463726207,1.0651963,0.15653422,0.22052236,0.0006135892,-0.00073981576,-0.0031140875
UncalAccel,1676592404832,119908463726207,2.3928227,4.450052,8.797811,0.006110925,-0.043260336,-0.038735468
OrientationDeg,1676592404832,119908463726207,355.0,-6.0,-22.0
UncalMag,1676592404837,119908467875988,-53.07,11.285,-111.7642,-47.646854,1.2478232,-64.42538
UncalGyro,1676592404842,119908472707652,1.0884092,-0.26465738,0.033292156,0.0006135892,-0.00073981576,-0.0031140875
UncalAccel,1676592404841,119908472707652,2.5328028,5.2109694,7.6588273,0.006110925,-0.043260336,-0.038735468
OrientationDeg,1676592404842,119908472707652,355.0,-7.0,-23.0
UncalMag,1676592404847,119908477876232,-51.5084,11.3094,-111.4836,-47.646854,1.2478232,-64.42538
UncalGyro,1676592404850,119908481686595,1.0253373,-0.7770206,-0.27000242,0.0006135892,-0.00073981576,-0.0031140875
UncalAccel,1676592404850,119908481686595,2.9724839,5.7690954,7.2873416,0.006110925,-0.043260336,-0.038735468
OrientationDeg,1676592404850,119908481686595,355.0,-7.0,-23.0
UncalMag,1676592404857,119908487875744,-54.826797,10.1382,-113.0208,-47.646854,1.2478232,-64.42538
UncalGyro,1676592404859,119908490666576,1.0094548,-1.3909402,-0.61727935,0.0006135892,-0.00073981576,-0.0031140875
UncalAccel,1676592404860,119908490666576,3.8733816,5.5094743,6.9326053,0.006110925,-0.043260336,-0.038735468
OrientationDeg,1676592404860,119908490666576,356.0,-8.0,-24.0
UncalMag,1676592404866,119908497875499,-54.6194,9.2842,-112.5694,-47.646854,1.2478232,-64.42538
UncalGyro,1676592404869,119908499646861,1.0596985,-1.9488128,-0.93370754,0.0006135892,-0.00073981576,-0.0031140875
UncalAccel,1676592404868,119908499646861,3.976273,5.0679984,7.5643106,0.006110925,-0.043260336,-0.038735468
OrientationDeg,1676592404868,119908499646861,356.0,-9.0,-24.0
UncalMag,1676592404876,119908507875988,-54.6194,9.2842,-112.5694,-47.646854,1.2478232,-64.42538
UncalGyro,1676592404877,119908508628124,1.1530081,-2.3252585,-1.1798862,0.0006135892,-0.00073981576,-0.0031140875
UncalAccel,1676592404877,119908508628124,4.113262,4.582854,8.024929,0.006110925,-0.043260336,-0.038735468
OrientationDeg,1676592404878,119908508628124,357.0,-10.0,-25.0
UncalGyro,1676592404886,119908517606945,1.2211196,-2.5158484,-1.3687963,0.0006135892,-0.00073981576,-0.0031140875
UncalAccel,1676592404886,119908517606945,3.8129628,4.1868415,8.474181,0.006110925,-0.043260336,-0.038735468
UncalMag,1676592404887,119908517867687,-53.3872,9.6624,-111.373795,-47.646854,1.2478232,-64.42538
OrientationDeg,1676592404887,119908517606945,357.0,-11.0,-26.0
UncalGyro,1676592404896,119908526587169,1.2211196,-2.5189028,-1.5070046,0.0006135892,-0.00073981576,-0.0031140875
UncalAccel,1676592404895,119908526587169,3.3026934,4.0414777,9.18126,0.006110925,-0.043260336,-0.038735468
UncalMag,1676592404896,119908527864269,-54.8756,9.0646,-112.910995,-47.646854,1.2478232,-64.42538
OrientationDeg,1676592404896,119908526587169,358.0,-12.0,-27.0
UncalGyro,1676592404904,119908535567821,1.0914634,-2.3107505,-1.6039795,0.0006135892,-0.00073981576,-0.0031140875
UncalAccel,1676592404904,119908535567821,2.8845477,3.9631126,9.77468,0.006110925,-0.043260336,-0.038735468
OrientationDeg,1676592404904,119908535567821,359.0,-12.0,-27.0
UncalMag,1676592404907,119908537876232,-56.059,8.1252,-112.0204,-47.646854,1.2478232,-64.42538
UncalGyro,1676592404914,119908544549266,0.8594874,-1.9504927,-1.6745343,0.0006135892,-0.00073981576,-0.0031140875
UncalAccel,1676592404914,119908544549266,2.9318058,3.6747773,9.473185,0.006110925,-0.043260336,-0.038735468
OrientationDeg,1676592404914,119908544549266,0.0,-13.0,-28.0
UncalMag,1676592404916,119908547876232,-58.8894,6.9174,-115.4974,-47.646854,1.2478232,-64.42538
UncalGyro,1676592404922,119908553527904,0.6763805,-1.5624406,-1.7166841,0.0006135892,-0.00073981576,-0.0031140875
UncalAccel,1676592404923,119908553527904,2.9994032,3.583252,9.144172,0.006110925,-0.043260336,-0.038735468
OrientationDeg,1676592404923,119908553527904,0.0,-13.0,-29.0
UncalMag,1676592404927,119908557875744,-58.169598,7.0271997,-114.801994,-47.646854,1.2478232,-64.42538
UncalGyro,1676592404931,119908562496166,0.4802928,-1.1950052,-1.7345519,0.0006135892,-0.00073981576,-0.0031140875
UncalAccel,1676592404932,119908562496166,2.836093,3.7710886,8.663215,0.006110925,-0.043260336,-0.038735468
OrientationDeg,1676592404932,119908562496166,1.0,-14.0,-29.0
UncalMag,1676592404937,119908567875988,-58.315998,6.71,-113.5698,-47.646854,1.2478232,-64.42538
UncalGyro,1676592404940,119908571488658,0.28527406,-0.92347556,-1.7333301,0.0006135892,-0.00073981576,-0.0031140875
UncalAccel,1676592404940,119908571488658,2.53041,4.065406,8.248658,0.006110925,-0.043260336,-0.038735468
OrientationDeg,1676592404940,119908571488658,2.0,-14.0,-29.0
UncalMag,1676592404947,119908577875988,-58.3404,6.588,-114.960594,-47.646854,1.2478232,-64.42538
UncalGyro,1676592404949,119908580469676,0.10430524,-0.77778417,-1.7128662,0.0006135892,-0.00073981576,-0.0031140875
UncalAccel,1676592404949,119908580469676,2.2677977,4.3064823,7.7910304,0.006110925,-0.043260336,-0.038735468
OrientationDeg,1676592404949,119908580469676,3.0,-13.0,-30.0
UncalMag,1676592404957,119908587864269,-55.997997,7.503,-115.2168,-47.646854,1.2478232,-64.42538
UncalGyro,1676592404959,119908589447825,-0.025045475,-0.72189003,-1.6757561,0.0006135892,-0.00073981576,-0.0031140875
UncalAccel,1676592404959,119908589447825,1.9591235,4.408776,7.6947193,0.006110925,-0.043260336,-0.038735468
OrientationDeg,1676592404958,119908589447825,4.0,-13.0,-30.0
UncalMag,1676592404967,119908597875988,-58.682,6.1854,-114.192,-47.646854,1.2478232,-64.42538
UncalGyro,1676592404968,119908598426281,-0.07849618,-0.7118107,-1.6100881,0.0006135892,-0.00073981576,-0.0031140875
UncalAccel,1676592404968,119908598426281,1.2544373,4.595416,7.7880397,0.006110925,-0.043260336,-0.038735468
OrientationDeg,1676592404967,119908598426281,5.0,-13.0,-30.0
UncalGyro,1676592404976,119908607409617,-0.10338894,-0.66843927,-1.4052955,0.0006135892,-0.00073981576,-0.0031140875
UncalAccel,1676592404977,119908607409617,-1.0606186,4.877769,7.888538,0.006110925,-0.043260336,-0.038735468
UncalMag,1676592404977,119908607864513,-58.5234,6.3073997,-113.1062,-47.646854,1.2478232,-64.42538
OrientationDeg,1676592404976,119908607409617,6.0,-13.0,-30.0
UncalGyro,1676592404985,119908616389904,-0.122020334,-0.63194007,-0.93844175,0.0006135892,-0.00073981576,-0.0031140875
UncalAccel,1676592404986,119908616389904,-4.02054,4.9866424,7.9567337,0.006110925,-0.043260336,-0.038735468
UncalMag,1676592404987,119908617864513,-61.1586,5.6608,-114.8142,-47.646854,1.2478232,-64.42538
OrientationDeg,1676592404986,119908616389904,7.0,-13.0,-30.0
UncalGyro,1676592404994,119908625359386,-0.13362677,-0.5983425,-0.30818152,0.0006135892,-0.00073981576,-0.0031140875
UncalAccel,1676592404995,119908625359386,-4.325027,4.566104,8.229515,0.006110925,-0.043260336,-0.038735468
UncalMag,1676592404997,119908627875988,-58.2794,6.6489997,-112.2522,-47.646854,1.2478232,-64.42538
OrientationDeg,1676592404995,119908625359386,7.0,-13.0,-30.0
UncalGyro,1676592405004,119908634350108,-0.14538592,-0.5213735,0.20952678,0.0006135892,-0.00073981576,-0.0031140875
UncalAccel,1676592405003,119908634350108,-1.7156538,3.5198421,8.183454,0.006110925,-0.043260336,-0.038735468
OrientationDeg,1676592405003,119908634350108,7.0,-14.0,-30.0
UncalMag,1676592405007,119908637875988,-60.341198,5.6974,-114.7166,-47.646854,1.2478232,-64.42538
UncalGyro,1676592405012,119908643332958,-0.14477506,-0.4653266,0.48456886,0.0006135892,-0.00073981576,-0.0031140875
UncalAccel,1676592405012,119908643332958,1.0983056,2.9850461,7.969296,0.006110925,-0.043260336,-0.038735468
OrientationDeg,1676592405013,119908643332958,6.0,-14.0,-30.0
UncalMag,1676592405017,119908647864513,-62.5494,5.3192,-114.2164,-47.646854,1.2478232,-64.42538
UncalGyro,1676592405021,119908652310558,-0.114689946,-0.42546764,0.573297,0.0006135892,-0.00073981576,-0.0031140875
UncalAccel,1676592405021,119908652310558,2.8444679,2.792424,8.338388,0.006110925,-0.043260336,-0.038735468
OrientationDeg,1676592405021,119908652310558,6.0,-14.0,-30.0
UncalMag,1676592405027,119908657875744,-60.829197,6.5148,-112.1058,-47.646854,1.2478232,-64.42538
UncalGyro,1676592405030,119908661289928,-0.042455133,-0.2941316,0.571159,0.0006135892,-0.00073981576,-0.0031140875
UncalAccel,1676592405031,119908661289928,3.4797623,2.9473593,9.324232,0.006110925,-0.043260336,-0.038735468
OrientationDeg,1676592405030,119908661289928,6.0,-15.0,-29.0
UncalMag,1676592405037,119908667875988,-61.585598,6.5392,-114.8996,-47.646854,1.2478232,-64.42538
UncalGyro,1676592405039,119908670271007,0.049785517,-0.0852157,0.5705481,0.0006135892,-0.00073981576,-0.0031140875
UncalAccel,1676592405040,119908670271007,3.342175,3.0825539,9.419347,0.006110925,-0.043260336,-0.038735468
OrientationDeg,1676592405039,119908670271007,5.0,-15.0,-29.0
UncalMag,1676592405046,119908677875988,-62.5006,5.4656,-114.2408,-47.646854,1.2478232,-64.42538
UncalGyro,1676592405048,119908679250377,0.12889257,0.047494773,0.6056729,0.0006135892,-0.00073981576,-0.0031140875
UncalAccel,1676592405049,119908679250377,3.0699914,3.6927235,8.539984,0.006110925,-0.043260336,-0.038735468
OrientationDeg,1676592405049,119908679250377,5.0,-15.0,-29.0
Status,0,29,0,6,2,1575420030,42.80,37.0,79.0,1,1,1,38.599884
Status,0,29,1,6,2,1176450050,37.71,37.0,79.0,1,1,1,33.61482
Status,0,29,2,6,36,1176450050,36.96,81.0,71.0,1,1,1,32.86055
Status,0,29,3,6,36,1575420030,38.01,81.0,71.0,1,1,1,33.80529
Status,0,29,4,3,17,1604249980,42.76,247.0,70.0,1,1,1,38.556637
Status,0,29,5,3,14,1598062460,41.79,133.0,65.0,1,1,1,37.588882
Status,0,29,6,1,11,1575420030,38.50,162.0,62.0,0,1,1,34.301434
Status,0,29,7,1,11,1176450050,38.50,162.0,62.0,1,1,1,34.404793
Status,0,29,8,1,6,1176450050,37.95,64.0,58.0,1,1,1,33.853268
Status,0,29,9,1,6,1575420030,41.76,64.0,58.0,1,1,1,37.563892
Status,0,29,10,3,15,1602000000,44.78,331.0,56.0,1,1,1,40.577225
Status,0,29,11,1,24,1176450050,45.43,236.0,51.0,1,1,1,41.32705
Status,0,29,12,1,24,1575420030,42.37,236.0,51.0,1,1,1,38.171707
Status,0,29,13,1,12,1575420030,48.76,317.0,49.0,1,1,1,44.56466
Status,0,29,14,3,24,1603124990,45.20,28.0,48.0,1,1,1,41.00278
Status,0,29,15,6,34,1176450050,36.18,198.0,44.0,1,1,1,32.083916
Status,0,29,16,6,34,1575420030,42.10,198.0,44.0,1,1,1,37.90415
Status,0,29,17,1,19,1575420030,44.55,50.0,38.0,1,1,1,40.345566
Status,0,29,18,6,25,1176450050,35.12,114.0,36.0,1,1,1,31.019188
Status,0,29,19,6,25,1575420030,36.25,114.0,36.0,0,1,1,32.049484
Status,0,29,20,6,30,1575420030,46.51,312.0,34.0,1,1,1,42.308556
Status,0,29,21,6,30,1176450050,35.73,312.0,34.0,1,1,1,31.633919
Status,0,29,22,6,11,1575420030,37.71,42.0,25.0,1,1,1,33.50601
Status,0,29,23,6,11,1176450050,31.13,42.0,25.0,1,1,1,27.025986
Status,0,29,24,3,18,1600312450,43.72,223.0,21.0,1,1,1,39.524555
Status,0,29,25,1,25,1575420030,40.18,307.0,20.0,1,1,1,35.97788
Status,0,29,26,1,25,1176450050,34.21,307.0,20.0,1,1,1,30.114655
Status,0,29,27,1,20,1575420030,36.72,152.0,13.0,1,1,1,32.51641
Status,0,29,28,1,17,1575420030,42.91,61.0,12.0,1,1,1,38.709435
Raw,1676592404000,363697000000,,,-1360627258303492389,0.0,8.422117555003723,288.0,1.0,15,6,0.0,16431,432421931066170,14,41.763893127441406,324.72680752816314,0.15,16,110541.48847405417,340282346638528860000000000000000000000,1575420030,,,,0,,1,,37.56389236450195,0.320142130558394,1.0,0.320142130558394,1.0,C,119908567146000
Raw,1676592404000,363697000000,,,-1360627258303492389,0.0,8.422117555003723,288.0,1.0,15,11,0.0,16430,432421931065763,1000000000,30.356124877929688,-235.98174843054767,299792458,16,-92988.05857698813,340282346638528860000000000000000000000,1575420030,,,,0,,1,,26.156126022338867,-0.20372681261465636,1.0,-0.20372681261465636,1.0,C,119908567146000
Raw,1676592404000,363697000000,,,-1360627258303492389,0.0,8.422117555003723,288.0,1.0,15,12,0.0,16431,432421929440479,10,48.18854904174805,-319.21397018559855,0.15,16,-118809.50159316133,340282346638528860000000000000000000000,1575420030,,,,0,,1,,43.988548278808594,-0.6984919076624261,1.0,-0.6984919076624261,1.0,C,119908567146000
Raw,1676592404000,363697000000,,,-1360627258303492389,0.0,8.422117555003723,288.0,1.0,15,17,0.0,16431,432421918336999,13,42.9094352722168,593.1122470030336,0.15,16,216444.7521818141,340282346638528860000000000000000000000,1575420030,,,,0,,1,,38.709434509277344,-0.7858034271858065,1.0,-0.7858034271858065,1.0,C,119908567146000
Raw,1676592404000,363697000000,,,-1360627258303492389,0.0,8.422117555003723,288.0,1.0,15,19,0.0,16431,432421927628303,13,42.67351531982422,542.6208599522292,0.15,16,195353.77023894573,340282346638528860000000000000000000000,1575420030,,,,0,,1,,38.473514556884766,0.0,1.0,0.0,1.0,C,119908567146000
Raw,1676592404000,363697000000,,,-1360627258303492389,0.0,8.422117555003723,288.0,1.0,15,20,0.0,16431,432421919393000,27,34.349117279052734,-489.7321469920669,0.5963675684006655,16,-177288.60570784798,340282346638528860000000000000000000000,1575420030,,,,1,,1,,30.14911651611328,0.0,1.0,0.0,1.0,C,119908567146000
Raw,1676592404000,363697000000,,,-1360627258303492389,0.0,8.422117555003723,288.0,1.0,15,24,0.0,16431,432421928954103,16,40.688175201416016,408.35980488946575,0.15,16,141823.16502742958,340282346638528860000000000000000000000,1575420030,,,,0,,1,,36.48817443847656,-0.20372681261465636,1.0,-0.20372681261465636,1.0,C,119908567146000
Raw,1676592404000,363697000000,,,-1360627258303492389,0.0,8.422117555003723,288.0,1.0,15,25,0.0,16431,432421922930076,23,36.021461486816406,-509.10424037261055,0.15,16,-185694.58634628652,340282346638528860000000000000000000000,1575420030,,,,0,,1,,31.821462631225586,-2.0372682255564105,1.0,-2.0372682255564105,1.0,C,119908567146000
Raw,1676592404000,363697000000,,,-1360627258303492389,0.0,8.422117555003723,288.0,1.0,15,6,0.0,81921,432421931066707,12,35.54655075073242,324.53829746113547,0.5365256977455917,16,111425.97229556406,340282346638528860000000000000000000000,1176450050,,,,0,,1,,31.446552276611328,1.9208527336454408,1.5381055516271724,1.9208527336454408,1.0,Q,119908567146000
Raw,1676592404000,363697000000,,,-1360627258303492389,0.0,8.422117555003723,288.0,1.0,15,11,0.0,81921,432421931066304,14,38.504791259765625,-237.09360336846305,0.15,16,-93863.79562323102,340282346638528860000000000000000000000,1176450050,,,,0,,1,,34.40479278564453,0.0,1.5381055516271724,0.0,1.0,Q,119908567146000
Raw,1676592404000,363697000000,,,-1360627258303492389,0.0,8.422117555003723,288.0,1.0,15,24,0.0,81921,432421928954636,9,45.42704772949219,408.49490774712217,0.15,16,142969.68958360146,340282346638528860000000000000000000000,1176450050,,,,0,,1,,41.327049255371094,3.5215636101095664,1.5381055516271724,3.5215636101095664,1.0,Q,119908567146000
Raw,1676592404000,363697000000,,,-1360627258303492389,0.0,8.422117555003723,288.0,1.0,15,25,0.0,81921,432421922930631,7,33.605934143066406,-509.3241403820957,0.6223296133877247,16,-187283.915420262,340282346638528860000000000000000000000,1176450050,,,,0,,1,,29.50593376159668,1.0186341127782053,1.5381055516271724,1.0186341127782053,1.0,Q,119908567146000
Raw,1676592404000,363697000000,,,-1360627258303492389,0.0,8.422117555003723,288.0,1.0,15,14,0.0,32995,11203935147293,33,41.788883209228516,382.8987102388394,0.15,16,130649.9068977849,340282346638528860000000000000000000000,1598062460,,,,0,,3,,37.58888244628906,50.29141902923584,2.0000000474974513,50.29141902923584,2.0000000474974513,C,119908567146000
Raw,1676592404000,363697000000,,,-1360627258303492389,0.0,8.422117555003723,288.0,1.0,15,18,0.0,32995,11203925480089,33,42.921234130859375,-589.1165561301254,0.15,16,-218113.54096805316,340282346638528860000000000000000000000,1600312450,,,,0,,3,,38.72123336791992,50.29141902923584,2.0000000474974513,50.29141902923584,2.0000000474974513,C,119908567146000
Raw,1676592404000,363697000000,,,-1360627258303492389,0.0,8.422117555003723,288.0,1.0,15,15,0.0,32995,11203933947725,33,44.777225494384766,-357.9932277944479,0.15,16,-136575.56449424455,340282346638528860000000000000000000000,1602000000,,,,0,,3,,40.57722473144531,50.29141902923584,2.0000000474974513,50.29141902923584,2.0000000474974513,C,119908567146000
Raw,1676592404000,363697000000,,,-1360627258303492389,0.0,8.422117555003723,288.0,1.0,15,24,0.0,32995,11203932504014,33,43.61482238769531,611.5649661188745,0.15,16,217627.9935030828,340282346638528860000000000000000000000,1603124990,,,,0,,3,,39.41482162475586,50.29141902923584,2.0000000474974513,50.29141902923584,2.0000000474974513,C,119908567146000
Raw,1676592404000,363697000000,,,-1360627258303492389,0.0,8.422117555003723,288.0,1.0,15,17,0.0,32995,11203936184545,33,41.0203857421875,-93.76241420786556,0.15,16,-42428.68114408842,340282346638528860000000000000000000000,1604249980,,,,0,,3,,36.82038497924805,50.29141902923584,2.0000000474974513,50.29141902923584,2.0000000474974513,C,119908567146000
Raw,1676592404000,363697000000,,,-1360627258303492389,0.0,8.422117555003723,288.0,1.0,15,2,0.0,85026,432421922704645,19,38.286033630371094,52.82272506402714,0.15,16,16357.260180928808,340282346638528860000000000000000000000,1575420030,,,,0,,6,,34.08603286743164,-6.024492904543876,1.5000000237487257,-6.024492904543876,1.5000000237487257,C,119908567146000
Raw,1676592404000,363697000000,,,-1360627258303492389,0.0,8.422117555003723,288.0,1.0,15,11,0.0,85026,432421913633730,24,35.68410110473633,558.6770370552122,0.533859877166746,16,200595.22241745357,340282346638528860000000000000000000000,1575420030,,,,1,,6,,31.484102249145508,-6.024492904543876,1.5000000237487257,-6.024492904543876,1.5000000237487257,C,119908567146000
Raw,1676592404000,363697000000,,,-1360627258303492389,0.0,8.422117555003723,288.0,1.0,15,25,0.0,85026,432421915086022,61,24.910728454589844,438.986027661211,299.79300256240117,16,156554.13563614018,340282346638528860000000000000000000000,1575420030,,,,0,,6,,20.710729598999023,-6.024492904543876,1.5000000237487257,-6.024492904543876,1.5000000237487257,C,119908567146000
Raw,1676592404000,363697000000,,,-1360627258303492389,0.0,8.422117555003723,288.0,1.0,15,30,0.0,85026,432421914001448,12,46.5085563659668,-325.51039728607907,0.15,16,-118610.69434678728,340282346638528860000000000000000000000,1575420030,,,,0,,6,,42.308555603027344,-6.024492904543876,1.5000000237487257,-6.024492904543876,1.5000000237487257,C,119908567146000
Raw,1676592404000,363697000000,,,-1360627258303492389,0.0,8.422117555003723,288.0,1.0,15,34,0.0,85026,432421917773348,23,36.33443832397461,-367.4397941039622,0.15,16,-136769.52488151623,340282346638528860000000000000000000000,1575420030,,,,0,,6,,32.134437561035156,-6.024492904543876,1.5000000237487257,-6.024492904543876,1.5000000237487257,C,119908567146000
Raw,1676592404000,363697000000,,,-1360627258303492389,0.0,8.422117555003723,288.0,1.0,15,36,0.0,85026,432421922105248,30,33.10449981689453,137.30921956188104,0.6499464548331835,16,44292.02376094831,340282346638528860000000000000000000000,1575420030,,,,0,,6,,28.904499053955078,-6.024492904543876,1.5000000237487257,-6.024492904543876,1.5000000237487257,C,119908567146000
Raw,1676592404000,363697000000,,,-1360627258303492389,0.0,8.422117555003723,288.0,1.0,15,2,0.0,84003,432421922705192,12,36.58245086669922,52.47088334472804,0.15,16,16310.68536212944,340282346638528860000000000000000000000,1176450050,,,,0,,6,,32.482452392578125,-4.362151958048344,2.038105575375898,-4.362151958048344,1.5000000237487257,Q,119908567146000
Raw,1676592404000,363697000000,,,-1360627258303492389,0.0,8.422117555003723,288.0,1.0,15,11,0.0,84003,432421913634284,28,28.72477912902832,558.6041346807099,0.8437549459368889,16,201647.38336187645,340282346638528860000000000000000000000,1176450050,,,,0,,6,,24.624778747558594,4.134257324039933,2.038105575375898,4.134257324039933,1.5000000237487257,Q,119908567146000
Raw,1676592404000,363697000000,,,-1360627258303492389,0.0,8.422117555003723,288.0,1.0,15,25,0.0,84003,432421915086589,44,26.16420555114746,437.67139914821314,0.9591622708955945,16,156129.1265974577,340282346638528860000000000000000000000,1176450050,,,,0,,6,,22.064205169677734,-8.795061148703097,2.038105575375898,-8.795061148703097,1.5000000237487257,Q,119908567146000
Raw,1676592404000,363697000000,,,-1360627258303492389,0.0,8.422117555003723,288.0,1.0,15,30,0.0,84003,432421914001984,18,35.733917236328125,-325.48688039107833,0.5286280203886009,16,-118304.12154766746,340282346638528860000000000000000000000,1176450050,,,,0,,6,,31.63391876220703,-8.425652049481869,2.038105575375898,-8.425652049481869,1.5000000237487257,Q,119908567146000
Raw,1676592404000,363697000000,,,-1360627258303492389,0.0,8.422117555003723,288.0,1.0,15,34,0.0,84003,432421917773871,35,28.516782760620117,-367.5940172197279,0.8538529387585378,16,-137800.01327674775,340282346638528860000000000000000000000,1176450050,,,,0,,6,,24.41678237915039,-10.0879929959774,2.038105575375898,-10.0879929959774,1.5000000237487257,Q,119908567146000
Raw,1676592404000,363697000000,,,-1360627258303492389,0.0,8.422117555003723,288.0,1.0,15,36,0.0,84003,432421922105740,70,30.8493709564209,137.12179161284797,0.7497382899168228,16,44504.00956382997,340282346638528860000000000000000000000,1176450050,,,,0,,6,,26.749370574951172,-11.011515744030472,2.038105575375898,-11.011515744030472,1.5000000237487257,Q,119908567146000
Fix,GPS,37.4307877165,-122.1550534915,-17.584303979325313,0.099045835,3.3660197,327.92526,1676592404000,0.11381046,56.22502,119908567146000,3.0
Fix,FLP,37.4307926000,-122.1550560000,-15.80000114440918,0.08268948,3.863,,1676592404787,,,119908418825145,5.0718255
UncalMag,1676592405057,119908687873790,-65.770195,4.5018,-116.790596,-47.646854,1.2478232,-64.42538
UncalGyro,1676592405057,119908688232066,0.16707164,0.06734789,0.62873304,0.0006135892,-0.00073981576,-0.0031140875
UncalAccel,1676592405057,119908688232066,2.8474588,4.743771,7.838887,0.006110925,-0.043260336,-0.038735468
OrientationDeg,1676592405057,119908688232066,5.0,-15.0,-29.0
UncalGyro,1676592405066,119908697210521,0.15592335,0.020922136,0.59528816,0.0006135892,-0.00073981576,-0.0031140875
UncalAccel,1676592405067,119908697210521,2.5256243,5.36411,7.4309106,0.006110925,-0.043260336,-0.038735468
UncalMag,1676592405067,119908697864513,-61.0854,7.198,-116.1074,-47.646854,1.2478232,-64.42538
OrientationDeg,1676592405066,119908697210521,4.0,-15.0,-29.0
UncalGyro,1676592405075,119908706190502,0.11713341,-0.07467828,0.5166393,0.0006135892,-0.00073981576,-0.0031140875
UncalAccel,1676592405075,119908706190502,2.0590239,5.395815,7.2711897,0.006110925,-0.043260336,-0.038735468
OrientationDeg,1676592405076,119908706190502,4.0,-15.0,-29.0
UncalMag,1676592405077,119908707875988,-61.134197,6.1,-114.0334,-47.646854,1.2478232,-64.42538
UncalGyro,1676592405085,119908715170421,0.08002335,-0.17989981,0.4289801,0.0006135892,-0.00073981576,-0.0031140875
UncalAccel,1676592405085,119908715170421,1.7605193,5.12423,7.468598,0.006110925,-0.043260336,-0.038735468
OrientationDeg,1676592405084,119908715170421,4.0,-16.0,-29.0
UncalMag,1676592405087,119908717875744,-61.7076,6.6246,-116.571,-47.646854,1.2478232,-64.42538
UncalGyro,1676592405094,119908724152172,0.058948494,-0.29794952,0.35414913,0.0006135892,-0.00073981576,-0.0031140875
UncalAccel,1676592405093,119908724152172,2.0051854,4.7826543,7.606185,0.006110925,-0.043260336,-0.038735468
OrientationDeg,1676592405093,119908724152172,4.0,-16.0,-29.0
UncalMag,1676592405097,119908727876232,-62.891,5.673,-113.7284,-47.646854,1.2478232,-64.42538
UncalGyro,1676592405102,119908733132336,0.060170226,-0.4250095,0.3043636,0.0006135892,-0.00073981576,-0.0031140875
UncalAccel,1676592405102,119908733132336,2.3874388,4.267001,7.6343007,0.006110925,-0.043260336,-0.038735468
OrientationDeg,1676592405103,119908733132336,3.0,-16.0,-29.0
UncalMag,1676592405107,119908737864269,-63.0252,5.917,-113.277,-47.646854,1.2478232,-64.42538
UncalGyro,1676592405111,119908742111522,0.07345655,-0.5343544,0.26984972,0.0006135892,-0.00073981576,-0.0031140875
UncalAccel,1676592405111,119908742111522,2.809772,4.1784663,7.821539,0.006110925,-0.043260336,-0.038735468
OrientationDeg,1676592405111,119908742111522,3.0,-17.0,-29.0
UncalMag,1676592405116,119908747858654,-61.2684,6.6612,-114.192,-47.646854,1.2478232,-64.42538
UncalGyro,1676592405121,119908751088939,0.032528576,-0.4972443,0.19410244,0.0006135892,-0.00073981576,-0.0031140875
UncalAccel,1676592405120,119908751088939,3.1866415,4.4350967,8.2678,0.006110925,-0.043260336,-0.038735468
OrientationDeg,1676592405121,119908751088939,3.0,-17.0,-29.0
UncalMag,1676592405127,119908757875988,-63.1838,5.917,-112.9964,-47.646854,1.2478232,-64.42538
UncalGyro,1676592405130,119908760073131,-0.0050396384,-0.43844852,0.07925977,0.0006135892,-0.00073981576,-0.0031140875
UncalAccel,1676592405129,119908760073131,3.3882368,4.520042,8.1020975,0.006110925,-0.043260336,-0.038735468
OrientationDeg,1676592405129,119908760073131,3.0,-17.0,-29.0
UncalMag,1676592405137,119908767875988,-64.0134,5.856,-116.8638,-47.646854,1.2478232,-64.42538
UncalGyro,1676592405138,119908769055309,-0.06093381,-0.4005749,-0.07040222,0.0006135892,-0.00073981576,-0.0031140875
UncalAccel,1676592405138,119908769055309,3.4193435,4.898706,8.132606,0.006110925,-0.043260336,-0.038735468
OrientationDeg,1676592405138,119908769055309,3.0,-17.0,-29.0
UncalMag,1676592405146,119908777875988,-61.902798,6.2098,-114.0334,-47.646854,1.2478232,-64.42538
UncalGyro,1676592405148,119908778029064,-0.12904528,-0.32360587,-0.23350324,0.0006135892,-0.00073981576,-0.0031140875
UncalAccel,1676592405147,119908778029064,3.2033913,4.910072,8.384451,0.006110925,-0.043260336,-0.038735468
OrientationDeg,1676592405147,119908778029064,3.0,-18.0,-29.0
UncalGyro,1676592405157,119908787012828,-0.19058995,-0.2510656,-0.36270124,0.0006135892,-0.00073981576,-0.0031140875
UncalAccel,1676592405156,119908787012828,2.8743782,4.8299127,8.320442,0.006110925,-0.043260336,-0.038735468
UncalMag,1676592405156,119908787864269,-63.3302,6.1854,-114.923996,-47.646854,1.2478232,-64.42538
OrientationDeg,1676592405156,119908787012828,3.0,-18.0,-29.0
UncalGyro,1676592405164,119908795996715,-0.24587326,-0.16905695,-0.43890667,0.0006135892,-0.00073981576,-0.0031140875
UncalAccel,1676592405165,119908795996715,2.4299114,4.7898326,8.56152,0.006110925,-0.043260336,-0.038735468
UncalMag,1676592405167,119908797876232,-61.585598,7.259,-113.3258,-47.646854,1.2478232,-64.42538
OrientationDeg,1676592405165,119908795996715,4.0,-17.0,-29.0
UncalGyro,1676592405174,119908804972728,-0.30955598,-0.033750303,-0.4447099,0.0006135892,-0.00073981576,-0.0031140875
UncalAccel,1676592405174,119908804972728,1.9034904,4.65404,8.711071,0.006110925,-0.043260336,-0.038735468
OrientationDeg,1676592405173,119908804972728,4.0,-17.0,-29.0
UncalMag,1676592405177,119908807875988,-63.232597,5.7706,-113.081795,-47.646854,1.2478232,-64.42538
UncalGyro,1676592405182,119908813953258,-0.3817908,0.19822577,-0.37782016,0.0006135892,-0.00073981576,-0.0031140875
UncalAccel,1676592405182,119908813953258,1.5667006,4.3782673,8.955737,0.006110925,-0.043260336,-0.038735468
OrientationDeg,1676592405182,119908813953258,4.0,-17.0,-29.0
UncalMag,1676592405187,119908817875744,-62.9398,6.771,-114.4238,-47.646854,1.2478232,-64.42538
UncalGyro,1676592405192,119908822933483,-0.4353942,0.52610767,-0.2666427,0.0006135892,-0.00073981576,-0.0031140875
UncalAccel,1676592405192,119908822933483,1.2867404,4.0827537,9.143574,0.006110925,-0.043260336,-0.038735468
OrientationDeg,1676592405192,119908822933483,5.0,-17.0,-29.0
UncalMag,1676592405197,119908827864513,-62.305397,6.6368,-111.6422,-47.646854,1.2478232,-64.42538
UncalGyro,1676592405200,119908831914928,-0.45738536,0.91996306,-0.13179417,0.0006135892,-0.00073981576,-0.0031140875
UncalAccel,1676592405200,119908831914928,0.9708878,3.9260237,9.236894,0.006110925,-0.043260336,-0.038735468
OrientationDeg,1676592405201,119908831914928,5.0,-16.0,-29.0
UncalMag,1676592405206,119908837875988,-60.3046,7.3566,-112.3742,-47.646854,1.2478232,-64.42538
UncalGyro,1676592405210,119908840893688,-0.4549419,1.3437508,0.07391469,0.0006135892,-0.00073981576,-0.0031140875
UncalAccel,1676592405209,119908840893688,0.016151553,3.1986058,9.357133,0.006110925,-0.043260336,-0.038735468
OrientationDeg,1676592405210,119908840893688,5.0,-15.0,-28.0
UncalMag,1676592405216,119908847875988,-61.488,6.9905996,-112.3742,-47.646854,1.2478232,-64.42538
UncalGyro,1676592405218,119908849873851,-0.46105054,1.6157386,0.3475823,0.0006135892,-0.00073981576,-0.0031140875
UncalAccel,1676592405218,119908849873851,-0.232702,3.7507496,8.477173,0.006110925,-0.043260336,-0.038735468
OrientationDeg,1676592405219,119908849873851,5.0,-14.0,-28.0
UncalMag,1676592405227,119908857875988,-60.207,7.7836,-113.6308,-47.646854,1.2478232,-64.42538
UncalGyro,1676592405227,119908858853893,-0.49938235,1.7276796,0.5458081,0.0006135892,-0.00073981576,-0.0031140875
UncalAccel,1676592405227,119908858853893,0.6472585,4.8287163,7.548159,0.006110925,-0.043260336,-0.038735468
OrientationDeg,1676592405228,119908858853893,4.0,-14.0,-28.0
UncalGyro,1676592405237,119908867835826,-0.517861,1.6554449,0.62109727,0.0006135892,-0.00073981576,-0.0031140875
UncalAccel,1676592405237,119908867835826,1.2705889,5.337789,6.6574306,0.006110925,-0.043260336,-0.038735468
UncalMag,1676592405237,119908867864269,-59.6946,8.161799,-112.5084,-47.646854,1.2478232,-64.42538
OrientationDeg,1676592405237,119908867835826,4.0,-13.0,-27.0
UncalGyro,1676592405246,119908876814220,-0.473726,1.4361442,0.6401868,0.0006135892,-0.00073981576,-0.0031140875
UncalAccel,1676592405245,119908876814220,1.5074782,5.6189456,6.4121666,0.006110925,-0.043260336,-0.038735468
UncalMag,1676592405246,119908877865246,-60.048397,7.6738,-114.765396,-47.646854,1.2478232,-64.42538
OrientationDeg,1676592405245,119908876814220,4.0,-12.0,-27.0
UncalGyro,1676592405254,119908885788707,-0.37965274,1.1691961,0.63499445,0.0006135892,-0.00073981576,-0.0031140875
UncalAccel,1676592405254,119908885788707,1.5164514,5.743971,6.727421,0.006110925,-0.043260336,-0.038735468
OrientationDeg,1676592405255,119908885788707,4.0,-12.0,-27.0
UncalMag,1676592405256,119908887870128,-59.4506,8.3692,-115.961,-47.646854,1.2478232,-64.42538
UncalGyro,1676592405263,119908894774547,-0.27198774,0.9764681,0.6075055,0.0006135892,-0.00073981576,-0.0031140875
UncalAccel,1676592405263,119908894774547,1.3172488,5.5968122,7.2693954,0.006110925,-0.043260336,-0.038735468
OrientationDeg,1676592405264,119908894774547,3.0,-12.0,-27.0
UncalMag,1676592405266,119908897876232,-56.8642,8.418,-112.5084,-47.646854,1.2478232,-64.42538
UncalGyro,1676592405272,119908903756236,-0.17944166,0.8527679,0.5552765,0.0006135892,-0.00073981576,-0.0031140875
UncalAccel,1676592405273,119908903756236,1.1048858,5.2719865,7.2472615,0.006110925,-0.043260336,-0.038735468
OrientationDeg,1676592405273,119908903756236,3.0,-11.0,-26.0
UncalMag,1676592405276,119908907875988,-59.0846,8.7474,-114.436,-47.646854,1.2478232,-64.42538
UncalGyro,1676592405281,119908912735485,-0.10399981,0.72250086,0.4896085,0.0006135892,-0.00073981576,-0.0031140875
UncalAccel,1676592405281,119908912735485,1.1419746,4.8975096,6.902695,0.006110925,-0.043260336,-0.038735468
OrientationDeg,1676592405281,119908912735485,3.0,-11.0,-26.0
UncalMag,1676592405287,119908917875988,-56.3274,8.8938,-113.4478,-47.646854,1.2478232,-64.42538
UncalGyro,1676592405290,119908921714916,-0.04642576,0.52534413,0.42531493,0.0006135892,-0.00073981576,-0.0031140875
UncalAccel,1676592405290,119908921714916,1.3944174,4.6899323,6.678368,0.006110925,-0.043260336,-0.038735468
OrientationDeg,1676592405291,119908921714916,2.0,-11.0,-26.0
UncalMag,1676592405296,119908927876232,-56.9618,8.9426,-113.5088,-47.646854,1.2478232,-64.42538
UncalGyro,1676592405300,119908930695690,-0.0071776668,0.41584653,0.38026363,0.0006135892,-0.00073981576,-0.0031140875
UncalAccel,1676592405300,119908930695690,1.6384853,4.3722854,7.9363947,0.006110925,-0.043260336,-0.038735468
OrientationDeg,1676592405299,119908930695690,2.0,-11.0,-26.0
UncalMag,1676592405307,119908937875988,-56.778797,9.333,-114.5336,-47.646854,1.2478232,-64.42538
UncalGyro,1676592405309,119908939676647,0.03436117,0.5364924,0.37614027,0.0006135892,-0.00073981576,-0.0031140875
UncalAccel,1676592405308,119908939676647,1.8586249,3.906283,8.912068,0.006110925,-0.043260336,-0.038735468
OrientationDeg,1676592405308,119908939676647,2.0,-11.0,-26.0
UncalMag,1676592405317,119908947875988,-54.8756,9.9186,-112.5572,-47.646854,1.2478232,-64.42538
UncalGyro,1676592405318,119908948655834,0.076816306,0.54412824,0.4109596,0.0006135892,-0.00073981576,-0.0031140875
UncalAccel,1676592405317,119908948655834,1.8807586,3.3732817,7.5272217,0.006110925,-0.043260336,-0.038735468
OrientationDeg,1676592405317,119908948655834,2.0,-10.0,-26.0
UncalGyro,1676592405327,119908957635814,0.107359566,0.42394048,0.4700608,0.0006135892,-0.00073981576,-0.0031140875
UncalAccel,1676592405326,119908957635814,1.9639091,2.821138,7.147959,0.006110925,-0.043260336,-0.038735468
UncalMag,1676592405326,119908957864025,-55.607597,9.271999,-114.8752,-47.646854,1.2478232,-64.42538
OrientationDeg,1676592405327,119908957635814,1.0,-10.0,-26.0
UncalGyro,1676592405336,119908966616405,0.12950343,0.26145032,0.5337435,0.0006135892,-0.00073981576,-0.0031140875
UncalAccel,1676592405335,119908966616405,1.5810575,2.5645077,7.083353,0.006110925,-0.043260336,-0.038735468
OrientationDeg,1676592405335,119908966616405,1.0,-10.0,-26.0
UncalMag,1676592405336,119908967875988,-55.607597,9.271999,-114.8752,-47.646854,1.2478232,-64.42538
UncalGyro,1676592405344,119908975597850,0.116980694,0.08231409,0.6249151,0.0006135892,-0.00073981576,-0.0031140875
UncalAccel,1676592405344,119908975597850,1.0743774,2.1218355,6.7256265,0.006110925,-0.043260336,-0.038735468
OrientationDeg,1676592405344,119908975597850,1.0,-10.0,-26.0
UncalMag,1676592405347,119908977876232,-54.0948,9.76,-113.838196,-47.646854,1.2478232,-64.42538
UncalGyro,1676592405354,119908984576732,0.07696902,-0.14828753,0.75502944,0.0006135892,-0.00073981576,-0.0031140875
UncalAccel,1676592405353,119908984576732,1.422533,2.3108685,5.985048,0.006110925,-0.043260336,-0.038735468
OrientationDeg,1676592405354,119908984576732,0.0,-11.0,-26.0
UncalMag,1676592405357,119908987872081,-54.3022,9.7478,-114.643394,-47.646854,1.2478232,-64.42538
UncalGyro,1676592405362,119908993553966,0.013591751,-0.40026945,0.8741482,0.0006135892,-0.00073981576,-0.0031140875
UncalAccel,1676592405363,119908993553966,1.9070797,3.0460632,5.5716877,0.006110925,-0.043260336,-0.038735468
OrientationDeg,1676592405362,119908993553966,0.0,-11.0,-26.0
UncalMag,1676592405367,119908997876232,-57.169197,8.6376,-115.7658,-47.646854,1.2478232,-64.42538
UncalGyro,1676592405372,119909002525768,-0.051159963,-0.6386596,0.9306532,0.0006135892,-0.00073981576,-0.0031140875
UncalAccel,1676592405372,119909002525768,1.8394824,3.6891344,5.68415,0.006110925,-0.043260336,-0.038735468
OrientationDeg,1676592405371,119909002525768,359.0,-12.0,-26.0
UncalMag,1676592405377,119909007875744,-54.6072,9.7234,-112.2278,-47.646854,1.2478232,-64.42538
UncalGyro,1676592405380,119909011518504,-0.123547494,-0.83367836,0.89675015,0.0006135892,-0.00073981576,-0.0031140875
UncalAccel,1676592405381,119909011518504,1.9232312,4.1443686,5.834898,0.006110925,-0.043260336,-0.038735468
OrientationDeg,1676592405381,119909011518504,359.0,-12.0,-26.0
UncalMag,1676592405386,119909017875988,-56.059,9.4428,-113.5088,-47.646854,1.2478232,-64.42538
UncalGyro,1676592405389,119909020486217,-0.20448714,-0.9766208,0.7852673,0.0006135892,-0.00073981576,-0.0031140875
UncalAccel,1676592405389,119909020486217,2.2241287,4.3633122,6.070591,0.006110925,-0.043260336,-0.038735468
OrientationDeg,1676592405390,119909020486217,358.0,-13.0,-26.0
UncalMag,1676592405396,119909027875988,-56.1932,10.004,-113.6674,-47.646854,1.2478232,-64.42538
UncalGyro,1676592405398,119909029477855,-0.27412578,-1.022283,0.6429357,0.0006135892,-0.00073981576,-0.0031140875
UncalAccel,1676592405398,119909029477855,2.3814569,4.156333,6.6849484,0.006110925,-0.043260336,-0.038735468
OrientationDeg,1676592405399,119909029477855,358.0,-14.0,-25.0
UncalMag,1676592405406,119909037875988,-54.899998,10.5774,-110.9834,-47.646854,1.2478232,-64.42538
UncalGyro,1676592405408,119909038458080,-0.3016147,-0.9621128,0.52106804,0.0006135892,-0.00073981576,-0.0031140875
UncalAccel,1676592405408,119909038458080,2.4466612,3.6335013,7.2448688,0.006110925,-0.043260336,-0.038735468
OrientationDeg,1676592405407,119909038458080,358.0,-14.0,-25.0
UncalGyro,1676592405416,119909047439342,-0.3013093,-0.88621277,0.4642576,0.0006135892,-0.00073981576,-0.0031140875
UncalAccel,1676592405416,119909047439342,2.4987051,2.8277183,7.079166,0.006110925,-0.043260336,-0.038735468
UncalMag,1676592405417,119909047864513,-57.8768,9.308599,-113.1672,-47.646854,1.2478232,-64.42538
OrientationDeg,1676592405417,119909047439342,358.0,-15.0,-25.0
UncalGyro,1676592405426,119909056416576,-0.27687466,-0.8874345,0.5320636,0.0006135892,-0.00073981576,-0.0031140875
UncalAccel,1676592405426,119909056416576,2.341377,1.8215362,6.4773707,0.006110925,-0.043260336,-0.038735468
UncalMag,1676592405426,119909057876232,-56.8276,10.5286,-112.1058,-47.646854,1.2478232,-64.42538
OrientationDeg,1676592405425,119909056416576,357.0,-16.0,-25.0
UncalGyro,1676592405434,119909065398509,-0.27168232,-0.95356065,0.6722572,0.0006135892,-0.00073981576,-0.0031140875
UncalAccel,1676592405435,119909065398509,2.7188447,1.6947167,6.1070814,0.006110925,-0.043260336,-0.038735468
OrientationDeg,1676592405435,119909065398509,357.0,-16.0,-25.0
UncalMag,1676592405437,119909067876232,-58.621,10.3456,-112.9476,-47.646854,1.2478232,-64.42538
UncalGyro,1676592405444,119909074378551,-0.30069843,-1.0034989,0.8156578,0.0006135892,-0.00073981576,-0.0031140875
UncalAccel,1676592405444,119909074378551,3.1866415,1.820938,6.2051873,0.006110925,-0.043260336,-0.038735468
OrientationDeg,1676592405444,119909074378551,357.0,-17.0,-24.0
UncalMag,1676592405446,119909077876232,-58.413597,10.431,-112.3742,-47.646854,1.2478232,-64.42538
UncalGyro,1676592405453,119909083359691,-0.35246924,-1.0612257,0.97203934,0.0006135892,-0.00073981576,-0.0031140875
UncalAccel,1676592405453,119909083359691,3.5623147,1.8239291,6.3589263,0.006110925,-0.043260336,-0.038735468
OrientationDeg,1676592405452,119909083359691,356.0,-18.0,-24.0
UncalMag,1676592405457,119909087864269,-57.6694,11.285,-111.507996,-47.646854,1.2478232,-64.42538
UncalGyro,1676592405462,119909092322093,-0.4259258,-1.0677924,1.1093313,0.0006135892,-0.00073981576,-0.0031140875
UncalAccel,1676592405461,119909092322093,4.1521454,2.1224337,7.0259256,0.006110925,-0.043260336,-0.038735468
OrientationDeg,1676592405461,119909092322093,356.0,-18.0,-24.0
UncalMag,1676592405466,119909097872814,-60.670597,10.845799,-111.837395,-47.646854,1.2478232,-64.42538
UncalGyro,1676592405471,119909101319225,-0.516792,-0.93874717,1.1936307,0.0006135892,-0.00073981576,-0.0031140875
UncalAccel,1676592405470,119909101319225,4.6229334,2.5998018,8.007581,0.006110925,-0.043260336,-0.038735468
OrientationDeg,1676592405471,119909101319225,355.0,-19.0,-23.0
UncalMag,1676592405477,119909107875988,-58.6942,11.285,-111.0078,-47.646854,1.2478232,-64.42538
UncalGyro,1676592405480,119909110299510,-0.61300325,-0.75945824,1.2473868,0.0006135892,-0.00073981576,-0.0031140875
UncalAccel,1676592405480,119909110299510,4.6893344,2.608775,8.136195,0.006110925,-0.043260336,-0.038735468
OrientationDeg,1676592405479,119909110299510,354.0,-20.0,-22.0
UncalMag,1676592405486,119909117875988,-60.8414,11.5168,-111.9228,-47.646854,1.2478232,-64.42538
UncalGyro,1676592405488,119909119276378,-0.68600166,-0.600786,1.3170254,0.0006135892,-0.00073981576,-0.0031140875
UncalAccel,1676592405488,119909119276378,4.5678983,2.3653052,8.248658,0.006110925,-0.043260336,-0.038735468
OrientationDeg,1676592405489,119909119276378,354.0,-20.0,-22.0
UncalMag,1676592405497,119909127875988,-59.5482,12.6147995,-111.63,-47.646854,1.2478232,-64.42538
UncalGyro,1676592405497,119909128259410,-0.7449502,-0.42058071,1.4306464,0.0006135892,-0.00073981576,-0.0031140875
UncalAccel,1676592405497,119909128259410,4.3782673,1.814956,8.116454,0.006110925,-0.043260336,-0.038735468
OrientationDeg,1676592405498,119909128259410,353.0,-21.0,-21.0
UncalGyro,1676592405506,119909137239452,-0.8081747,-0.25503623,1.6331482,0.0006135892,-0.00073981576,-0.0031140875
UncalAccel,1676592405506,119909137239452,4.408776,0.9798609,7.3782687,0.006110925,-0.043260336,-0.038735468
UncalMag,1676592405506,119909137864513,-58.987,13.4566,-111.032196,-47.646854,1.2478232,-64.42538
OrientationDeg,1676592405507,119909137239452,353.0,-21.0,-21.0
UncalGyro,1676592405515,119909146220226,-0.9130908,-0.15195273,1.9376645,0.0006135892,-0.00073981576,-0.0031140875
UncalAccel,1676592405516,119909146220226,4.5355954,-0.0041874396,6.296713,0.006110925,-0.043260336,-0.038735468
OrientationDeg,1676592405515,119909146220226,352.0,-22.0,-20.0
UncalMag,1676592405516,119909147864513,-59.413998,14.017799,-110.3978,-47.646854,1.2478232,-64.42538
UncalGyro,1676592405524,119909155201549,-1.0940597,-0.16722436,2.3703098,0.0006135892,-0.00073981576,-0.0031140875
UncalAccel,1676592405524,119909155201549,4.3064823,-0.90448695,4.942375,0.006110925,-0.043260336,-0.038735468
OrientationDeg,1676592405525,119909155201549,351.0,-22.0,-19.0
UncalMag,1676592405527,119909157876232,-59.292,14.518,-111.666595,-47.646854,1.2478232,-64.42538
UncalGyro,1676592405533,119909164180553,-1.4367551,-0.3576616,2.9382617,0.0006135892,-0.00073981576,-0.0031140875
UncalAccel,1676592405533,119909164180553,4.217948,-1.7826529,3.231507,0.006110925,-0.043260336,-0.038735468
OrientationDeg,1676592405534,119909164180553,350.0,-23.0,-17.0
UncalMag,1676592405537,119909167876232,-59.950798,15.3476,-111.264,-47.646854,1.2478232,-64.42538
UncalGyro,1676592405543,119909173160777,-1.9109392,-0.5849035,3.556152,0.0006135892,-0.00073981576,-0.0031140875
UncalAccel,1676592405543,119909173160777,4.6037908,-2.7343981,2.7565317,0.006110925,-0.043260336,-0.038735468
OrientationDeg,1676592405542,119909173160777,348.0,-23.0,-16.0
UncalMag,1676592405546,119909177866710,-58.559998,16.7994,-111.666595,-47.646854,1.2478232,-64.42538
UncalGyro,1676592405551,119909182141307,-2.0129538,0.11362094,4.00132,0.0006135892,-0.00073981576,-0.0031140875
UncalAccel,1676592405552,119909182141307,5.562116,-2.958127,9.117252,0.006110925,-0.043260336,-0.038735468
OrientationDeg,1676592405552,119909182141307,347.0,-24.0,-14.0
UncalMag,1676592405557,119909187878917,-59.536,18.0804,-112.85,-47.646854,1.2478232,-64.42538
UncalGyro,1676592405561,119909191122447,-2.002111,0.73563445,2.8429668,0.0006135892,-0.00073981576,-0.0031140875
UncalAccel,1676592405561,119909191122447,7.648658,5.6392846,4.295715,0.006110925,-0.043260336,-0.038735468
OrientationDeg,1676592405561,119909191122447,346.0,-24.0,-12.0
UncalMag,1676592405567,119909197875988,-58.1086,19.1052,-112.276596,-47.646854,1.2478232,-64.42538
UncalGyro,1676592405570,119909200101390,-2.377182,0.32788193,1.2660183,0.0006135892,-0.00073981576,-0.0031140875
UncalAccel,1676592405569,119909200101390,7.9974113,6.5665035,2.6004,0.006110925,-0.043260336,-0.038735468
OrientationDeg,1676592405570,119909200101390,346.0,-23.0,-11.0
UncalMag,1676592405576,119909207876232,-58.9992,19.8982,-111.2762,-47.646854,1.2478232,-64.42538
UncalGyro,1676592405578,119909209081432,-2.4608707,-0.16890424,0.9579894,0.0006135892,-0.00073981576,-0.0031140875
UncalAccel,1676592405578,119909209081432,5.38086,0.7286145,4.226921,0.006110925,-0.043260336,-0.038735468
OrientationDeg,1676592405578,119909209081432,346.0,-24.0,-10.0
UncalMag,1676592405587,119909217875988,-59.7556,20.605799,-108.4946,-47.646854,1.2478232,-64.42538
UncalGyro,1676592405588,119909218058726,-2.138792,-0.8553641,1.1181889,0.0006135892,-0.00073981576,-0.0031140875
UncalAccel,1676592405588,119909218058726,5.003392,-2.184049,5.6871414,0.006110925,-0.043260336,-0.038735468
OrientationDeg,1676592405588,119909218058726,346.0,-24.0,-8.0
UncalGyro,1676592405596,119909227042858,-1.7275269,-1.4140003,1.2078333,0.0006135892,-0.00073981576,-0.0031140875
UncalAccel,1676592405596,119909227042858,4.965107,-3.4211383,5.800202,0.006110925,-0.043260336,-0.038735468
UncalMag,1676592405597,119909227864757,-58.2062,22.265,-104.5784,-47.646854,1.2478232,-64.42538
OrientationDeg,1676592405597,119909227042858,345.0,-25.0,-7.0
UncalGyro,1676592405606,119909236024974,-1.4165965,-1.9825631,1.3788756,0.0006135892,-0.00073981576,-0.0031140875
UncalAccel,1676592405605,119909236024974,3.9780676,-4.3118663,5.4143596,0.006110925,-0.043260336,-0.038735468
OrientationDeg,1676592405606,119909236024974,345.0,-26.0,-6.0
UncalMag,1676592405607,119909237875988,-59.9386,22.2894,-105.773994,-47.646854,1.2478232,-64.42538
UncalGyro,1676592405614,119909245002269,-1.1200215,-2.4859161,1.670411,0.0006135892,-0.00073981576,-0.0031140875
UncalAccel,1676592405614,119909245002269,4.095316,-4.7007003,6.218348,0.006110925,-0.043260336,-0.038735468
OrientationDeg,1676592405615,119909245002269,345.0,-27.0,-5.0
UncalMag,1676592405616,119909247875744,-57.2058,24.607399,-100.637794,-47.646854,1.2478232,-64.42538
UncalGyro,1676592405622,119909253981273,-0.7867944,-2.8832839,2.0199788,0.0006135892,-0.00073981576,-0.0031140875
UncalAccel,1676592405623,119909253981273,4.409972,-4.7934217,7.0582285,0.006110925,-0.043260336,-0.038735468
OrientationDeg,1676592405623,119909253981273,344.0,-29.0,-4.0
UncalMag,1676592405627,119909257876232,-60.6462,23.716799,-103.565796,-47.646854,1.2478232,-64.42538
UncalGyro,1676592405632,119909262964061,-0.46975538,-3.1641293,2.3512204,0.0006135892,-0.00073981576,-0.0031140875
UncalAccel,1676592405631,119909262964061,5.0943193,-4.7922254,7.4566336,0.006110925,-0.043260336,-0.038735468
OrientationDeg,1676592405631,119909262964061,343.0,-31.0,-3.0
UncalMag,1676592405636,119909267864757,-61.439198,24.5464,-102.650795,-47.646854,1.2478232,-64.42538
UncalGyro,1676592405641,119909271942760,-0.22708915,-3.354872,2.6308439,0.0006135892,-0.00073981576,-0.0031140875
UncalAccel,1676592405640,119909271942760,5.910272,-4.8933225,7.1168528,0.006110925,-0.043260336,-0.038735468
OrientationDeg,1676592405641,119909271942760,342.0,-32.0,-3.0
UncalMag,1676592405647,119909277875988,-63.3424,24.143799,-104.0172,-47.646854,1.2478232,-64.42538
UncalGyro,1676592405649,119909280922680,-0.074067414,-3.5072827,2.8527408,0.0006135892,-0.00073981576,-0.0031140875
