# 
# Header Description:
# 
# Version: v3.0.5.6 Platform: 13 Manufacturer: Google Model: Pixel 6
# 
# Raw,utcTimeMillis,TimeNanos,LeapSecond,TimeUncertaintyNanos,FullBiasNanos,BiasNanos,BiasUncertaintyNanos,DriftNanosPerSecond,DriftUncertaintyNanosPerSecond,HardwareClockDiscontinuityCount,Svid,TimeOffsetNanos,State,ReceivedSvTimeNanos,ReceivedSvTimeUncertaintyNanos,Cn0DbHz,PseudorangeRateMetersPerSecond,PseudorangeRateUncertaintyMetersPerSecond,AccumulatedDeltaRangeState,AccumulatedDeltaRangeMeters,AccumulatedDeltaRangeUncertaintyMeters,CarrierFrequencyHz,CarrierCycles,CarrierPhase,CarrierPhaseUncertainty,MultipathIndicator,SnrInDb,ConstellationType,AgcDb,BasebandCn0DbHz,FullInterSignalBiasNanos,FullInterSignalBiasUncertaintyNanos,SatelliteInterSignalBiasNanos,SatelliteInterSignalBiasUncertaintyNanos,CodeType,ChipsetElapsedRealtimeNanos
# 
# UncalAccel,utcTimeMillis,elapsedRealtimeNanos,UncalAccelXMps2,UncalAccelYMps2,UncalAccelZMps2,BiasXMps2,BiasYMps2,BiasZMps2
# 
# Accel,utcTimeMillis,elapsedRealtimeNanos,AccelXMps2,AccelYMps2,AccelZMps2
# 
# UncalGyro,utcTimeMillis,elapsedRealtimeNanos,UncalGyroXRadPerSec,UncalGyroYRadPerSec,UncalGyroZRadPerSec,DriftXRadPerSec,DriftYRadPerSec,DriftZRadPerSec
# 
# Gyro,utcTimeMillis,elapsedRealtimeNanos,GyroXRadPerSec,GyroYRadPerSec,GyroZRadPerSec
# 
# UncalMag,utcTimeMillis,elapsedRealtimeNanos,UncalMagXMicroT,UncalMagYMicroT,UncalMagZMicroT,BiasXMicroT,BiasYMicroT,BiasZMicroT
# 
# Mag,utcTimeMillis,elapsedRealtimeNanos,MagXMicroT,MagYMicroT,MagZMicroT
# 
# OrientationDeg,utcTimeMillis,elapsedRealtimeNanos,yawDeg,rollDeg,pitchDeg
# 
# Fix,Provider,LatitudeDegrees,LongitudeDegrees,AltitudeMeters,SpeedMps,AccuracyMeters,BearingDegrees,UnixTimeMillis,SpeedAccuracyMps,BearingAccuracyDegrees,elapsedRealtimeNanos,VerticalAccuracyMeters
# 
# Nav,Svid,Type,Status,MessageId,Sub-messageId,Data(Bytes)
# 
# Status,UnixTimeMillis,SignalCount,SignalIndex,ConstellationType,Svid,CarrierFrequencyHz,Cn0DbHz,AzimuthDegrees,ElevationDegrees,UsedInFix,HasAlmanacData,HasEphemerisData,BasebandCn0DbHz
# 
UncalGyro,1676594781043,122284673006236,-0.2958115,-0.7125743,-0.03848451,0.00034537655,-0.00074784807,-0.003280778
UncalAccel,1676594781043,122284673006236,-0.031106694,2.0847468,8.868399,0.006110925,-0.043260336,-0.038735468
UncalMag,1676594781044,122284675855968,-29.4874,3.3672,-109.482796,-45.491467,0.31409264,-60.09035
UncalGyro,1676594781050,122284681983166,-0.28023443,-0.82818055,-0.021533,0.00034537655,-0.00074784807,-0.003280778
UncalAccel,1676594781050,122284681983166,0.17527425,2.0404794,9.564711,0.006110925,-0.043260336,-0.038735468
UncalMag,1676594781055,122284685856945,-28.621199,3.416,-108.409195,-45.491467,0.31409264,-60.09035
Fix,FLP,37.4311426000,-122.1551622000,-16.5,0.21097879,4.18,268.24112,1676594780504,,,122284134243908,3.147207
UncalGyro,1676594781060,122284690962962,-0.25793785,-0.80878556,0.00076358154,0.00034537655,-0.00074784807,-0.003280778
UncalGyro,1676594781069,122284699943493,-0.20861048,-0.65179324,0.027030786,0.00034537655,-0.00074784807,-0.003280778
UncalAccel,1676594781060,122284690962962,0.3894319,1.8430717,10.203594,0.006110925,-0.043260336,-0.038735468
UncalAccel,1676594781069,122284699943493,0.53240305,1.6121643,10.8556385,0.006110925,-0.043260336,-0.038735468
OrientationDeg,1676594781059,122284690962962,303.0,0.0,-13.0
UncalMag,1676594781064,122284695855480,-28.389399,4.7458,-108.4336,-45.491467,0.31409264,-60.09035
UncalMag,1676594781074,122284705856456,-28.4382,4.2334,-109.189995,-45.491467,0.31409264,-60.09035
Raw,1676594780000,283836000000,,,-1360629714164306994,0.0,7.68420780391548,296.0,1.0,21,2,0.0,16431,434797919298789,14,42.218379974365234,-552.6803310773932,0.15,16,-158128.98292945322,340282346638528860000000000000000000000,1575420030,,,,0,,1,,38.01837921142578,0.0,1.0,0.0,1.0,C,122284606270000
Raw,1676594780000,283836000000,,,-1360629714164306994,0.0,7.68420780391548,296.0,1.0,21,6,0.0,16431,434797927999615,27,34.29779815673828,561.4474295336688,0.5966258495165024,16,156194.42250879333,340282346638528860000000000000000000000,1575420030,,,,0,,1,,30.09779930114746,0.320142130558394,1.0,0.320142130558394,1.0,C,122284606270000
Raw,1676594780000,283836000000,,,-1360629714164306994,0.0,7.68420780391548,296.0,1.0,21,11,0.0,16431,434797932342114,12,43.8413200378418,45.581353335837576,0.15,16,8393.160484762377,340282346638528860000000000000000000000,1575420030,,,,0,,1,,39.641319274902344,-0.20372681261465636,1.0,-0.20372681261465636,1.0,C,122284606270000
Raw,1676594780000,283836000000,,,-1360629714164306994,0.0,7.68420780391548,296.0,1.0,21,12,0.0,16431,434797931906320,12,44.141868591308594,-163.67280062000316,0.15,16,-49284.5238857216,340282346638528860000000000000000000000,1575420030,,,,0,,1,,39.94186782836914,-0.6984919076624261,1.0,-0.6984919076624261,1.0,C,122284606270000
Raw,1676594780000,283836000000,,,-1360629714164306994,0.0,7.68420780391548,296.0,1.0,21,19,0.0,16431,434797923584172,20,38.16081619262695,598.3732149918947,0.15,16,169280.7747781922,340282346638528860000000000000000000000,1575420030,,,,0,,1,,33.9608154296875,0.0,1.0,0.0,1.0,C,122284606270000
Raw,1676594780000,283836000000,,,-1360629714164306994,0.0,7.68420780391548,296.0,1.0,21,20,0.0,16431,434797923669786,13,45.661781311035156,-442.41479095231875,0.15,16,-126780.49685381097,340282346638528860000000000000000000000,1575420030,,,,0,,1,,41.4617805480957,0.0,1.0,0.0,1.0,C,122284606270000
Raw,1676594780000,283836000000,,,-1360629714164306994,0.0,7.68420780391548,296.0,1.0,21,24,0.0,16431,434797925347142,22,36.61051559448242,611.7353784014886,0.15,16,171283.61340404148,340282346638528860000000000000000000000,1575420030,,,,0,,1,,32.41051483154297,-0.20372681261465636,1.0,-0.20372681261465636,1.0,C,122284606270000
Raw,1676594780000,283836000000,,,-1360629714164306994,0.0,7.68420780391548,296.0,1.0,21,25,0.0,16431,434797927227309,19,38.58149719238281,-435.12462166700266,0.15,16,-125060.15214626562,340282346638528860000000000000000000000,1575420030,,,,0,,1,,34.38149642944336,-2.0372682255564105,1.0,-2.0372682255564105,1.0,C,122284606270000
Raw,1676594780000,283836000000,,,-1360629714164306994,0.0,7.68420780391548,296.0,1.0,21,29,0.0,16431,434797919136842,47,27.40365982055664,-404.77334207202694,0.9086508055501294,16,-115287.82658017323,340282346638528860000000000000000000000,1575420030,,,,0,,1,,23.20366096496582,-0.6984919076624261,1.0,-0.6984919076624261,1.0,C,122284606270000
Raw,1676594780000,283836000000,,,-1360629714164306994,0.0,7.68420780391548,296.0,1.0,21,6,0.0,81921,434797928000192,16,32.971309661865234,561.0087542357637,0.6517797847845404,16,157848.53204673325,340282346638528860000000000000000000000,1176450050,,,,0,,1,,28.87131118774414,1.9208527336454408,1.5934307102486025,1.9208527336454408,1.0,Q,122284606270000
Raw,1676594780000,283836000000,,,-1360629714164306994,0.0,7.68420780391548,296.0,1.0,21,11,0.0,81921,434797932342656,6,39.959129333496094,45.729940065355834,0.15,16,8446.002542625212,340282346638528860000000000000000000000,1176450050,,,,0,,1,,35.859130859375,0.0,1.5934307102486025,0.0,1.0,Q,122284606270000
Raw,1676594780000,283836000000,,,-1360629714164306994,0.0,7.68420780391548,296.0,1.0,21,24,0.0,81921,434797925347689,14,33.1854362487793,612.2780392742447,0.641673737319846,16,173039.62074260475,340282346638528860000000000000000000000,1176450050,,,,0,,1,,29.08543586730957,3.5215636101095664,1.5934307102486025,3.5215636101095664,1.0,Q,122284606270000
Raw,1676594780000,283836000000,,,-1360629714164306994,0.0,7.68420780391548,296.0,1.0,21,25,0.0,81921,434797927227823,38,26.637746810913086,-434.73512735386,0.9364541685642931,16,-126436.4579985913,340282346638528860000000000000000000000,1176450050,,,,0,,1,,22.53774642944336,1.0186341127782053,1.5934307102486025,1.0186341127782053,1.0,Q,122284606270000
Raw,1676594780000,283836000000,,,-1360629714164306994,0.0,7.68420780391548,296.0,1.0,21,14,0.0,32867,13579931411862,33,48.78976058959961,676.7248289728791,0.15,16,188389.23383141565,340282346638528860000000000000000000000,1598062460,,,,0,,3,,44.589759826660156,50.29141902923584,2.0000000474974513,50.29141902923584,2.0000000474974513,C,122284606270000
Raw,1676594780000,283836000000,,,-1360629714164306994,0.0,7.68420780391548,296.0,1.0,21,18,0.0,32867,13579929904850,33,40.57293701171875,-389.5236922201998,0.15,16,-114365.8895652546,340282346638528860000000000000000000000,1600312450,,,,0,,3,,36.3729362487793,50.29141902923584,2.0000000474974513,50.29141902923584,2.0000000474974513,C,122284606270000
Raw,1676594780000,283836000000,,,-1360629714164306994,0.0,7.68420780391548,296.0,1.0,21,16,0.0,32995,13579925748623,33,41.32120132446289,-641.4412385172918,0.15,16,-182809.66040442657,340282346638528860000000000000000000000,1601437440,,,,0,,3,,37.12120056152344,50.29141902923584,2.0000000474974513,50.29141902923584,2.0000000474974513,C,122284606270000
Raw,1676594780000,283836000000,,,-1360629714164306994,0.0,7.68420780391548,296.0,1.0,21,15,0.0,32867,13579936171169,33,42.82814025878906,-55.731296341841386,0.15,16,-21506.609061831674,340282346638528860000000000000000000000,1602000000,,,,0,,3,,38.62813949584961,50.29141902923584,2.0000000474974513,50.29141902923584,2.0000000474974513,C,122284606270000
Raw,1676594780000,283836000000,,,-1360629714164306994,0.0,7.68420780391548,296.0,1.0,21,24,0.0,32995,13579927606546,48,35.85444641113281,731.0870287758921,0.5265546820446796,16,206061.26598665403,340282346638528860000000000000000000000,1603124990,,,,0,,3,,31.65444564819336,50.29141902923584,2.0000000474974513,50.29141902923584,2.0000000474974513,C,122284606270000
Raw,1676594780000,283836000000,,,-1360629714164306994,0.0,7.68420780391548,296.0,1.0,21,17,0.0,32995,13579936225553,33,43.006935119628906,201.16288931087718,0.15,16,53023.664627835,340282346638528860000000000000000000000,1604249980,,,,0,,3,,38.80693435668945,50.29141902923584,2.0000000474974513,50.29141902923584,2.0000000474974513,C,122284606270000
Raw,1676594780000,283836000000,,,-1360629714164306994,0.0,7.68420780391548,296.0,1.0,21,2,0.0,85026,434797922266922,14,42.02995300292969,190.0424653966146,0.15,16,51957.91212222036,340282346638528860000000000000000000000,1575420030,,,,0,,6,,37.829952239990234,-6.024492904543876,1.5000000237487257,-6.024492904543876,1.5000000237487257,C,122284606270000
Raw,1676594780000,283836000000,,,-1360629714164306994,0.0,7.68420780391548,296.0,1.0,21,11,0.0,85026,434797909417738,25,35.297298431396484,622.2885339093855,0.5512151366559761,16,175688.27586428614,340282346638528860000000000000000000000,1575420030,,,,0,,6,,31.09729766845703,-6.024492904543876,1.5000000237487257,-6.024492904543876,1.5000000237487257,C,122284606270000
Raw,1676594780000,283836000000,,,-1360629714164306994,0.0,7.68420780391548,296.0,1.0,21,15,0.0,85026,434797907546405,44,30.568012237548828,-471.3855265633815,299.7938205413577,16,-34303.05287975837,340282346638528860000000000000000000000,1575420030,,,,0,,6,,26.368011474609375,-6.024492904543876,1.5000000237487257,-6.024492904543876,1.5000000237487257,C,122284606270000
Raw,1676594780000,283836000000,,,-1360629714164306994,0.0,7.68420780391548,296.0,1.0,21,25,0.0,85026,434797911728415,24,35.873313903808594,535.1925885530827,0.5257279827721077,16,150692.69548592062,340282346638528860000000000000000000000,1575420030,,,,1,,6,,31.673315048217773,-6.024492904543876,1.5000000237487257,-6.024492904543876,1.5000000237487257,C,122284606270000
Raw,1676594780000,283836000000,,,-1360629714164306994,0.0,7.68420780391548,296.0,1.0,21,30,0.0,85026,434797916901552,14,41.8947639465332,-270.98584570141963,0.15,16,-77760.14867425303,340282346638528860000000000000000000000,1575420030,,,,0,,6,,37.69476318359375,-6.024492904543876,1.5000000237487257,-6.024492904543876,1.5000000237487257,C,122284606270000
Raw,1676594780000,283836000000,,,-1360629714164306994,0.0,7.68420780391548,296.0,1.0,21,34,0.0,85026,434797920580612,30,32.923797607421875,-207.56631828361105,0.6577982673219238,16,-61774.11760154608,340282346638528860000000000000000000000,1575420030,,,,1,,6,,28.723796844482422,-6.024492904543876,1.5000000237487257,-6.024492904543876,1.5000000237487257,C,122284606270000
Raw,1676594780000,283836000000,,,-1360629714164306994,0.0,7.68420780391548,296.0,1.0,21,36,0.0,85026,434797920758633,33,31.860332489013672,323.237710920225,0.7056531649429507,16,89297.34478515417,340282346638528860000000000000000000000,1575420030,,,,0,,6,,27.66033172607422,-6.024492904543876,1.5000000237487257,-6.024492904543876,1.5000000237487257,C,122284606270000
Raw,1676594780000,283836000000,,,-1360629714164306994,0.0,7.68420780391548,296.0,1.0,21,2,0.0,84003,434797922267469,10,35.25615310668945,190.18060159290155,0.5515992965321346,16,51867.37614185009,340282346638528860000000000000000000000,1176450050,,,,0,,6,,31.15615463256836,-4.362151958048344,2.0934307339973284,-4.362151958048344,1.5000000237487257,Q,122284606270000
Raw,1676594780000,283836000000,,,-1360629714164306994,0.0,7.68420780391548,296.0,1.0,21,11,0.0,84003,434797909418271,135,21.355144500732422,621.8759316907203,1.174400772210996,16,175115.5637186164,340282346638528860000000000000000000000,1176450050,,,,0,,6,,17.255144119262695,4.134257324039933,2.0934307339973284,4.134257324039933,1.5000000237487257,Q,122284606270000
Raw,1676594780000,283836000000,,,-1360629714164306994,0.0,7.68420780391548,296.0,1.0,21,15,0.0,84003,434797907546906,19,31.15928077697754,-469.90948353629165,0.7331832026319529,16,-34310.51583982425,340282346638528860000000000000000000000,1176450050,,,,0,,6,,27.059280395507812,-11.565629392862316,2.0934307339973284,-11.565629392862316,1.5000000237487257,Q,122284606270000
Raw,1676594780000,283836000000,,,-1360629714164306994,0.0,7.68420780391548,296.0,1.0,21,25,0.0,84003,434797911728934,8,39.145729064941406,535.3981739308283,0.15,16,152203.13860532455,340282346638528860000000000000000000000,1176450050,,,,0,,6,,35.04573059082031,-8.795061148703097,2.0934307339973284,-8.795061148703097,1.5000000237487257,Q,122284606270000
Raw,1676594780000,283836000000,,,-1360629714164306994,0.0,7.68420780391548,296.0,1.0,21,30,0.0,84003,434797916902106,20,30.590110778808594,-270.8834279195686,0.7604608836946309,16,-77483.6949637233,340282346638528860000000000000000000000,1176450050,,,,0,,6,,26.490110397338867,-8.425652049481869,2.0934307339973284,-8.425652049481869,1.5000000237487257,Q,122284606270000
Raw,1676594780000,283836000000,,,-1360629714164306994,0.0,7.68420780391548,296.0,1.0,21,34,0.0,84003,434797920581169,19,31.270740509033203,-208.3703063917559,0.730515584736064,16,-62148.153345465784,340282346638528860000000000000000000000,1176450050,,,,0,,6,,27.170740127563477,-11.011515744030472,2.0934307339973284,-11.011515744030472,1.5000000237487257,Q,122284606270000
Raw,1676594780000,283836000000,,,-1360629714164306994,0.0,7.68420780391548,296.0,1.0,21,36,0.0,84003,434797920759176,9,40.23936080932617,322.7487980814053,0.15,16,89665.57165428584,340282346638528860000000000000000000000,1176450050,,,,0,,6,,36.13936233520508,-11.011515744030472,2.0934307339973284,-11.011515744030472,1.5000000237487257,Q,122284606270000
UncalGyro,1676594781078,122284708922435,-0.14294247,-0.419359,0.061239243,0.00034537655,-0.00074784807,-0.003280778
UncalAccel,1676594781078,122284708922435,0.67836523,1.4584254,11.046466,0.006110925,-0.043260336,-0.038735468
OrientationDeg,1676594781078,122284708922435,303.0,-1.0,-13.0
Status,0,33,0,3,15,1602000000,42.83,312.0,78.0,1,1,1,38.62814
Status,0,33,1,1,11,1176450050,39.96,117.0,76.0,1,1,1,35.85913
Status,0,33,2,1,11,1575420030,43.84,117.0,76.0,1,1,1,39.64132
Status,0,33,3,6,2,1575420030,42.03,110.0,75.0,1,1,1,37.829952
Status,0,33,4,6,2,1176450050,35.47,110.0,75.0,1,1,1,31.370407
Status,0,33,5,3,17,1604249980,43.01,325.0,72.0,1,1,1,38.806934
Status,0,33,6,1,12,1575420030,44.14,328.0,66.0,1,1,1,39.941868
Status,0,33,7,6,36,1176450050,40.24,50.0,62.0,1,1,1,36.139362
Status,0,33,8,6,36,1575420030,36.61,50.0,62.0,1,1,1,32.41482
Status,0,33,9,6,34,1575420030,42.66,208.0,60.0,1,1,1,38.462185
Status,0,33,10,6,34,1176450050,36.62,208.0,60.0,1,1,1,32.516132
Status,0,33,11,6,30,1575420030,41.89,316.0,47.0,1,1,1,37.694763
Status,0,33,12,6,30,1176450050,31.79,316.0,47.0,1,1,1,27.690813
Status,0,33,13,3,14,1598062460,48.79,154.0,44.0,1,1,1,44.58976
Status,0,33,14,1,6,1176450050,35.30,47.0,43.0,1,1,1,31.201023
Status,0,33,15,1,6,1575420030,36.04,47.0,43.0,1,1,1,31.838627
Status,0,33,16,1,24,1176450050,41.02,217.0,37.0,1,1,1,36.917194
Status,0,33,17,1,24,1575420030,42.64,217.0,37.0,1,1,1,38.441723
Status,0,33,18,3,18,1600312450,43.27,241.0,37.0,1,1,1,39.06993
Status,0,33,19,1,25,1176450050,33.89,313.0,36.0,1,1,1,29.78615
Status,0,33,20,1,25,1575420030,42.62,313.0,36.0,1,1,1,38.419933
Status,0,33,21,3,24,1603124990,38.62,34.0,29.0,1,1,1,34.421417
Status,0,33,22,1,20,1575420030,46.84,141.0,28.0,1,1,1,42.6393
Status,0,33,23,6,25,1575420030,44.92,127.0,25.0,1,1,1,40.71992
Status,0,33,24,6,25,1176450050,43.10,127.0,25.0,1,1,1,38.998085
Status,0,33,25,1,19,1575420030,38.16,62.0,24.0,1,1,1,33.960815
Status,0,33,26,3,16,1601437440,43.02,328.0,23.0,1,1,1,38.824997
Status,0,33,27,1,29,1575420030,35.12,266.0,16.0,1,1,1,30.91801
Status,0,33,28,6,11,1176450050,26.06,41.0,13.0,1,1,1,21.957823
Status,0,33,29,6,11,1575420030,35.30,41.0,13.0,1,1,1,31.097298
Status,0,33,30,1,2,1575420030,45.23,218.0,13.0,1,1,1,41.031223
Status,0,33,31,6,15,1575420030,37.27,216.0,10.0,0,1,1,33.07444
Status,0,33,32,6,15,1176450050,39.18,216.0,10.0,1,1,1,35.07928
Fix,GPS,37.4311353566,-122.1551464786,-13.8613821968912,0.24234378,3.4355192,214.263,1676594780000,0.116710186,32.721123,122284606270000,3.0
UncalMag,1676594781085,122284715856456,-30.170599,3.4526,-109.2388,-45.491467,0.31409264,-60.09035
Fix,FLP,37.4311421000,-122.1551636000,-16.5,0.21645384,4.102,271.30844,1676594781043,,,122284673006236,3.153963
UncalGyro,1676594781087,122284717902965,-0.09728029,-0.2012801,0.09407325,0.00034537655,-0.00074784807,-0.003280778
UncalAccel,1676594781087,122284717902965,0.70289165,1.4434702,10.794023,0.006110925,-0.043260336,-0.038735468
OrientationDeg,1676594781087,122284717902965,303.0,-1.0,-13.0
UncalMag,1676594781095,122284725856456,-32.8546,2.4156,-110.5442,-45.491467,0.31409264,-60.09035
UncalGyro,1676594781096,122284726889354,-0.0711658,-0.06337727,0.13347405,0.00034537655,-0.00074784807,-0.003280778
UncalAccel,1676594781095,122284726889354,0.69571316,1.500898,10.422537,0.006110925,-0.043260336,-0.038735468
OrientationDeg,1676594781095,122284726889354,303.0,-1.0,-13.0
UncalGyro,1676594781105,122284735857677,-0.044898596,0.012217305,0.16310102,0.00034537655,-0.00074784807,-0.003280778
UncalAccel,1676594781105,122284735857677,0.7609176,1.7258233,10.152148,0.006110925,-0.043260336,-0.038735468
UncalMag,1676594781104,122284735864025,-28.548,4.1724,-107.481995,-45.491467,0.31409264,-60.09035
OrientationDeg,1676594781104,122284735857677,303.0,-1.0,-13.0
UncalGyro,1676594781114,122284744840770,-0.014049901,0.060170226,0.15836681,0.00034537655,-0.00074784807,-0.003280778
UncalAccel,1676594781114,122284744840770,0.9457632,2.036292,9.87817,0.006110925,-0.043260336,-0.038735468
UncalMag,1676594781114,122284745855724,-28.975,4.2943997,-107.176994,-45.491467,0.31409264,-60.09035
OrientationDeg,1676594781113,122284744840770,303.0,-1.0,-13.0
UncalGyro,1676594781122,122284753827892,0.020463986,0.05299256,0.10354166,0.00034537655,-0.00074784807,-0.003280778
UncalAccel,1676594781122,122284753827892,1.1353943,2.2456641,9.455837,0.006110925,-0.043260336,-0.038735468
OrientationDeg,1676594781122,122284753827892,303.0,-1.0,-13.0
UncalMag,1676594781124,122284755855236,-28.243,4.6604,-106.213196,-45.491467,0.31409264,-60.09035
UncalGyro,1676594781132,122284762802928,0.055283304,-0.037873644,0.007330383,0.00034537655,-0.00074784807,-0.003280778
UncalAccel,1676594781131,122284762802928,1.2669996,2.393421,9.047262,0.006110925,-0.043260336,-0.038735468
OrientationDeg,1676594781131,122284762802928,303.0,-1.0,-13.0
UncalMag,1676594781134,122284765860607,-25.815199,5.3314,-103.907394,-45.491467,0.31409264,-60.09035
UncalGyro,1676594781140,122284771778454,0.064446285,-0.17302758,-0.100334615,0.00034537655,-0.00074784807,-0.003280778
UncalAccel,1676594781140,122284771778454,1.1766706,2.3653052,9.013762,0.006110925,-0.043260336,-0.038735468
OrientationDeg,1676594781140,122284771778454,303.0,-1.0,-13.0
UncalMag,1676594781145,122284775856212,-28.3162,3.965,-107.799194,-45.491467,0.31409264,-60.09035
UncalGyro,1676594781150,122284780757152,0.07437284,-0.2518292,-0.18310685,0.00034537655,-0.00074784807,-0.003280778
UncalAccel,1676594781149,122284780757152,1.0205388,2.251646,9.565309,0.006110925,-0.043260336,-0.038735468
OrientationDeg,1676594781150,122284780757152,303.0,-1.0,-13.0
UncalMag,1676594781154,122284785855968,-26.5106,5.0264,-108.3482,-45.491467,0.31409264,-60.09035
UncalGyro,1676594781159,122284789740551,0.100792766,-0.25045475,-0.21487185,0.00034537655,-0.00074784807,-0.003280778
OrientationDeg,1676594781159,122284789740551,303.0,-1.0,-13.0
UncalAccel,1676594781158,122284789740551,0.971486,1.8921245,10.187443,0.006110925,-0.043260336,-0.038735468
UncalMag,1676594781165,122284795857677,-30.1096,2.7816,-113.6186,-45.491467,0.31409264,-60.09035
UncalGyro,1676594781168,122284798717662,0.14859296,-0.19608775,-0.19043724,0.00034537655,-0.00074784807,-0.003280778
UncalAccel,1676594781168,122284798717662,0.9708878,1.5667006,10.805388,0.006110925,-0.043260336,-0.038735468
OrientationDeg,1676594781167,122284798717662,303.0,-1.0,-13.0
UncalMag,1676594781175,122284805856701,-27.816,4.4164,-107.457596,-45.491467,0.31409264,-60.09035
UncalGyro,1676594781176,122284807698742,0.22815818,-0.08460484,-0.107665,0.00034537655,-0.00074784807,-0.003280778
UncalAccel,1676594781176,122284807698742,0.87996054,1.2077773,11.270195,0.006110925,-0.043260336,-0.038735468
OrientationDeg,1676594781177,122284807698742,303.0,-1.0,-13.0
UncalMag,1676594781185,122284815856212,-28.4748,3.7819998,-108.1286,-45.491467,0.31409264,-60.09035
UncalGyro,1676594781185,122284816683178,0.35323283,0.088422745,0.01572978,0.00034537655,-0.00074784807,-0.003280778
UncalAccel,1676594781185,122284816683178,0.92243314,1.3896317,11.633306,0.006110925,-0.043260336,-0.038735468
OrientationDeg,1676594781186,122284816683178,303.0,-1.0,-13.0
UncalGyro,1676594781194,122284825656872,0.4934264,0.29626966,0.086437434,0.00034537655,-0.00074784807,-0.003280778
UncalAccel,1676594781194,122284825656872,1.0923235,1.6953149,11.487942,0.006110925,-0.043260336,-0.038735468
UncalMag,1676594781195,122284825854015,-27.7916,4.2578,-109.3608,-45.491467,0.31409264,-60.09035
OrientationDeg,1676594781195,122284825656872,303.0,-1.0,-13.0
UncalGyro,1676594781204,122284834634899,0.61391956,0.45188758,0.13820826,0.00034537655,-0.00074784807,-0.003280778
UncalAccel,1676594781203,122284834634899,1.1108679,1.2640085,11.004591,0.006110925,-0.043260336,-0.038735468
OrientationDeg,1676594781204,122284834634899,303.0,-1.0,-14.0
UncalMag,1676594781204,122284835855480,-25.1686,4.5262,-106.9208,-45.491467,0.31409264,-60.09035
UncalGyro,1676594781213,122284843615733,0.68829244,0.5713117,0.25686884,0.00034537655,-0.00074784807,-0.003280778
UncalAccel,1676594781212,122284843615733,0.9409775,0.6556334,10.628919,0.006110925,-0.043260336,-0.038735468
OrientationDeg,1676594781212,122284843615733,303.0,-1.0,-14.0
UncalMag,1676594781215,122284845859630,-27.1206,3.6111999,-109.1534,-45.491467,0.31409264,-60.09035
UncalGyro,1676594781221,122284852595898,0.7600691,0.64980793,0.35063666,0.00034537655,-0.00074784807,-0.003280778
UncalAccel,1676594781221,122284852595898,0.8033902,1.1886346,10.349556,0.006110925,-0.043260336,-0.038735468
OrientationDeg,1676594781222,122284852595898,303.0,-1.0,-14.0
UncalMag,1676594781224,122284855856456,-24.961199,3.9894,-106.9696,-45.491467,0.31409264,-60.09035
UncalGyro,1676594781231,122284861573497,0.8355109,0.65102965,0.37186423,0.00034537655,-0.00074784807,-0.003280778
UncalAccel,1676594781230,122284861573497,0.7256235,2.0907288,10.120443,0.006110925,-0.043260336,-0.038735468
OrientationDeg,1676594781230,122284861573497,303.0,0.0,-15.0
UncalMag,1676594781235,122284865857189,-27.389,2.501,-108.104195,-45.491467,0.31409264,-60.09035
UncalGyro,1676594781239,122284870552867,0.89858276,0.5936083,0.28909197,0.00034537655,-0.00074784807,-0.003280778
UncalAccel,1676594781239,122284870552867,0.8033902,2.766103,9.87159,0.006110925,-0.043260336,-0.038735468
OrientationDeg,1676594781240,122284870552867,302.0,0.0,-15.0
UncalMag,1676594781244,122284875856212,-26.7302,2.135,-106.7866,-45.491467,0.31409264,-60.09035
UncalGyro,1676594781249,122284879531200,0.9601275,0.43753225,0.13790283,0.00034537655,-0.00074784807,-0.003280778
UncalAccel,1676594781249,122284879531200,1.0169497,3.1004999,9.674182,0.006110925,-0.043260336,-0.038735468
OrientationDeg,1676594781249,122284879531200,302.0,0.0,-16.0
UncalMag,1676594781255,122284885857921,-28.889599,1.1834,-107.8724,-45.491467,0.31409264,-60.09035
UncalGyro,1676594781258,122284888512767,1.0708468,0.22357668,-0.013744468,0.00034537655,-0.00074784807,-0.003280778
UncalAccel,1676594781258,122284888512767,1.4787644,3.121437,9.829117,0.006110925,-0.043260336,-0.038735468
OrientationDeg,1676594781257,122284888512767,302.0,0.0,-16.0
UncalMag,1676594781265,122284895856212,-26.5716,1.0248,-107.140396,-45.491467,0.31409264,-60.09035
UncalGyro,1676594781266,122284897494579,1.2374603,0.06291912,-0.12889257,0.00034537655,-0.00074784807,-0.003280778
UncalAccel,1676594781266,122284897494579,1.7306089,2.6554348,10.247263,0.006110925,-0.043260336,-0.038735468
OrientationDeg,1676594781267,122284897494579,302.0,0.0,-17.0
UncalMag,1676594781275,122284905856212,-27.022999,0.2928,-107.848,-45.491467,0.31409264,-60.09035
UncalGyro,1676594781276,122284906471386,1.4457654,0.060322944,-0.1769982,0.00034537655,-0.00074784807,-0.003280778
UncalAccel,1676594781276,122284906471386,1.5529419,2.1864417,10.69173,0.006110925,-0.043260336,-0.038735468
OrientationDeg,1676594781275,122284906471386,302.0,0.0,-18.0
UncalGyro,1676594781285,122284915469737,1.5984817,0.110872045,-0.18860464,0.00034537655,-0.00074784807,-0.003280778
UncalAccel,1676594781284,122284915469737,1.4482559,2.4939194,10.183255,0.006110925,-0.043260336,-0.038735468
UncalMag,1676594781284,122284915855724,-26.8156,-0.48799998,-107.8358,-45.491467,0.31409264,-60.09035
OrientationDeg,1676594781284,122284915469737,303.0,0.0,-18.0
UncalGyro,1676594781293,122284924432689,1.53205,0.013439035,-0.226631,0.00034537655,-0.00074784807,-0.003280778
UncalAccel,1676594781293,122284924432689,1.3250256,2.906083,8.712267,0.006110925,-0.043260336,-0.038735468
OrientationDeg,1676594781294,122284924432689,303.0,0.0,-19.0
UncalMag,1676594781294,122284925867443,-25.7298,-0.793,-106.3108,-45.491467,0.31409264,-60.09035
UncalGyro,1676594781302,122284933417858,1.2336423,-0.22128594,-0.31963524,0.00034537655,-0.00074784807,-0.003280778
UncalAccel,1676594781302,122284933417858,1.3495519,3.03051,7.7832537,0.006110925,-0.043260336,-0.038735468
OrientationDeg,1676594781302,122284933417858,303.0,0.0,-20.0
UncalMag,1676594781305,122284935867199,-25.4736,-0.8662,-107.421,-45.491467,0.31409264,-60.09035
UncalGyro,1676594781312,122284942400341,0.9253081,-0.39920044,-0.46196684,0.00034537655,-0.00074784807,-0.003280778
UncalAccel,1676594781311,122284942400341,1.5924234,2.7026932,8.364112,0.006110925,-0.043260336,-0.038735468
OrientationDeg,1676594781311,122284942400341,303.0,0.0,-20.0
UncalMag,1676594781314,122284945867443,-26.046999,-1.3542,-107.457596,-45.491467,0.31409264,-60.09035
UncalGyro,1676594781321,122284951382885,0.7154759,-0.45433104,-0.60048056,0.00034537655,-0.00074784807,-0.003280778
UncalAccel,1676594781321,122284951382885,1.9531415,2.1780667,8.773284,0.006110925,-0.043260336,-0.038735468
OrientationDeg,1676594781321,122284951382885,303.0,0.0,-21.0
UncalMag,1676594781324,122284955875011,-26.23,-2.0374,-107.8846,-45.491467,0.31409264,-60.09035
UncalGyro,1676594781330,122284960353893,0.5448918,-0.48701233,-0.7086037,0.00034537655,-0.00074784807,-0.003280778
UncalAccel,1676594781330,122284960353893,2.1140587,1.8945173,8.586644,0.006110925,-0.043260336,-0.038735468
OrientationDeg,1676594781329,122284960353893,304.0,0.0,-21.0
UncalMag,1676594781334,122284965867687,-26.864399,-1.9275999,-108.5068,-45.491467,0.31409264,-60.09035
UncalGyro,1676594781338,122284969339428,0.37048978,-0.6021604,-0.7861836,0.00034537655,-0.00074784807,-0.003280778
UncalAccel,1676594781338,122284969339428,2.3222344,1.9651057,8.015956,0.006110925,-0.043260336,-0.038735468
OrientationDeg,1676594781339,122284969339428,304.0,0.0,-21.0
UncalMag,1676594781345,122284975867443,-28.108799,-2.1471999,-107.469795,-45.491467,0.31409264,-60.09035
UncalGyro,1676594781347,122284978318371,0.20586158,-0.81245077,-0.8553641,0.00034537655,-0.00074784807,-0.003280778
UncalAccel,1676594781347,122284978318371,2.4352953,2.132005,7.6977105,0.006110925,-0.043260336,-0.038735468
OrientationDeg,1676594781348,122284978318371,305.0,-1.0,-21.0
UncalMag,1676594781355,122284985867443,-28.584599,-2.2691998,-108.214,-45.491467,0.31409264,-60.09035
UncalGyro,1676594781356,122284987298412,0.07544186,-1.0885619,-0.94042706,0.00034537655,-0.00074784807,-0.003280778
UncalAccel,1676594781356,122284987298412,2.6979074,2.2695923,7.7234335,0.006110925,-0.043260336,-0.038735468
OrientationDeg,1676594781356,122284987298412,305.0,-1.0,-21.0
UncalMag,1676594781365,122284995867443,-30.0852,-2.5132,-108.9704,-45.491467,0.31409264,-60.09035
UncalGyro,1676594781366,122284996279247,0.011759156,-1.3607023,-1.0259482,0.00034537655,-0.00074784807,-0.003280778
UncalAccel,1676594781366,122284996279247,2.6715865,2.2648067,8.2761755,0.006110925,-0.043260336,-0.038735468
OrientationDeg,1676594781366,122284996279247,306.0,-1.0,-21.0
UncalGyro,1676594781375,122285005249035,0.04153884,-1.5639677,-1.0862712,0.00034537655,-0.00074784807,-0.003280778
UncalAccel,1676594781375,122285005249035,2.5866413,2.2420747,8.967103,0.006110925,-0.043260336,-0.038735468
UncalMag,1676594781374,122285005855968,-28.4138,-1.1956,-109.2754,-45.491467,0.31409264,-60.09035
OrientationDeg,1676594781374,122285005249035,306.0,-2.0,-21.0
UncalGyro,1676594781384,122285014236644,0.14737125,-1.6609426,-1.1215485,0.00034537655,-0.00074784807,-0.003280778
UncalAccel,1676594781384,122285014236644,2.2755744,2.3204398,9.337392,0.006110925,-0.043260336,-0.038735468
UncalMag,1676594781385,122285015867443,-32.2934,-1.7324,-112.3986,-45.491467,0.31409264,-60.09035
OrientationDeg,1676594781384,122285014236644,307.0,-3.0,-21.0
UncalGyro,1676594781393,122285023213451,0.26083946,-1.5271631,-1.0642799,0.00034537655,-0.00074784807,-0.003280778
UncalAccel,1676594781393,122285023213451,-0.44027936,2.6632116,9.665209,0.006110925,-0.043260336,-0.038735468
OrientationDeg,1676594781392,122285023213451,308.0,-3.0,-22.0
UncalMag,1676594781394,122285025867687,-28.243,-0.3782,-110.166,-45.491467,0.31409264,-60.09035
UncalGyro,1676594781402,122285032196056,0.33215797,-1.1403327,-0.68416905,0.00034537655,-0.00074784807,-0.003280778
UncalAccel,1676594781402,122285032196056,-4.975875,3.4283166,9.348758,0.006110925,-0.043260336,-0.038735468
OrientationDeg,1676594781402,122285032196056,308.0,-4.0,-22.0
UncalMag,1676594781405,122285035867687,-30.8172,-0.8052,-111.9106,-45.491467,0.31409264,-60.09035
UncalGyro,1676594781410,122285041178111,0.2958115,-0.65286225,-0.05513059,0.00034537655,-0.00074784807,-0.003280778
UncalAccel,1676594781410,122285041178111,-6.8099732,4.2161536,9.244072,0.006110925,-0.043260336,-0.038735468
OrientationDeg,1676594781410,122285041178111,308.0,-4.0,-22.0
UncalMag,1676594781415,122285045869152,-31.0124,-1.9519999,-110.837,-45.491467,0.31409264,-60.09035
UncalGyro,1676594781419,122285050143077,0.022907447,-0.018784106,0.4804455,0.00034537655,-0.00074784807,-0.003280778
UncalAccel,1676594781419,122285050143077,-4.5882373,4.3274198,8.435298,0.006110925,-0.043260336,-0.038735468
OrientationDeg,1676594781420,122285050143077,308.0,-4.0,-22.0
UncalMag,1676594781425,122285055867443,-30.524399,-1.281,-108.701996,-45.491467,0.31409264,-60.09035
UncalGyro,1676594781428,122285059134594,-0.28237244,0.31490102,0.66859204,0.00034537655,-0.00074784807,-0.003280778
UncalAccel,1676594781429,122285059134594,-0.53240305,3.3864422,7.1952176,0.006110925,-0.043260336,-0.038735468
OrientationDeg,1676594781429,122285059134594,307.0,-4.0,-22.0
UncalMag,1676594781434,122285065867687,-29.3288,-0.95159996,-109.9952,-45.491467,0.31409264,-60.09035
UncalGyro,1676594781437,122285068113842,-0.5120578,0.3837761,0.59406644,0.00034537655,-0.00074784807,-0.003280778
UncalAccel,1676594781437,122285068113842,1.7096717,3.12383,7.423134,0.006110925,-0.043260336,-0.038735468
OrientationDeg,1676594781438,122285068113842,307.0,-4.0,-21.0
UncalMag,1676594781445,122285075867687,-29.8412,-1.0004,-108.275,-45.491467,0.31409264,-60.09035
UncalGyro,1676594781446,122285077093517,-0.56321776,0.28909197,0.48395798,0.00034537655,-0.00074784807,-0.003280778
UncalAccel,1676594781446,122285077093517,2.528017,3.0041888,8.560922,0.006110925,-0.043260336,-0.038735468
OrientationDeg,1676594781447,122285077093517,307.0,-4.0,-21.0
UncalMag,1676594781454,122285085867199,-30.365799,-0.89059997,-110.044,-45.491467,0.31409264,-60.09035
UncalGyro,1676594781456,122285086069774,-0.42256603,0.18661933,0.39202276,0.00034537655,-0.00074784807,-0.003280778
UncalAccel,1676594781456,122285086069774,2.8175488,3.1088748,9.949356,0.006110925,-0.043260336,-0.038735468
OrientationDeg,1676594781455,122285086069774,307.0,-4.0,-21.0
UncalGyro,1676594781464,122285095052501,-0.18188512,0.1777618,0.30100384,0.00034537655,-0.00074784807,-0.003280778
UncalAccel,1676594781464,122285095052501,2.6961129,3.2967114,10.693524,0.006110925,-0.043260336,-0.038735468
UncalMag,1676594781464,122285095855968,-32.6106,-2.1959999,-110.2148,-45.491467,0.31409264,-60.09035
OrientationDeg,1676594781464,122285095052501,306.0,-4.0,-21.0
UncalGyro,1676594781473,122285104034984,0.07376198,0.2125811,0.21960606,0.00034537655,-0.00074784807,-0.003280778
UncalAccel,1676594781473,122285104034984,2.2492533,3.2416766,10.33819,0.006110925,-0.043260336,-0.038735468
OrientationDeg,1676594781474,122285104034984,306.0,-4.0,-21.0
UncalMag,1676594781475,122285105867443,-32.0128,-1.3786,-110.6784,-45.491467,0.31409264,-60.09035
UncalGyro,1676594781482,122285113011547,0.30085114,0.2406809,0.1647809,0.00034537655,-0.00074784807,-0.003280778
UncalAccel,1676594781482,122285113011547,1.5690935,3.0873394,9.824331,0.006110925,-0.043260336,-0.038735468
OrientationDeg,1676594781483,122285113011547,306.0,-4.0,-21.0
UncalMag,1676594781485,122285115867687,-28.487,-0.56119996,-108.6776,-45.491467,0.31409264,-60.09035
UncalGyro,1676594781491,122285121990978,0.4746423,0.2612976,0.14645495,0.00034537655,-0.00074784807,-0.003280778
UncalAccel,1676594781490,122285121990978,0.94277215,3.0287154,9.159127,0.006110925,-0.043260336,-0.038735468
OrientationDeg,1676594781491,122285121990978,306.0,-4.0,-21.0
UncalMag,1676594781495,122285125867931,-27.4744,-0.43919998,-108.4458,-45.491467,0.31409264,-60.09035
UncalGyro,1676594781499,122285130970470,0.5925393,0.2612976,0.16264287,0.00034537655,-0.00074784807,-0.003280778
UncalAccel,1676594781500,122285130970470,0.37088752,2.7535408,8.692527,0.006110925,-0.043260336,-0.038735468
OrientationDeg,1676594781500,122285130970470,306.0,-3.0,-21.0
UncalMag,1676594781504,122285135855724,-26.242199,-0.95159996,-105.8594,-45.491467,0.31409264,-60.09035
UncalGyro,1676594781509,122285139950023,0.6606508,0.24327709,0.26297748,0.00034537655,-0.00074784807,-0.003280778
UncalAccel,1676594781509,122285139950023,-0.046061836,1.6821543,8.385049,0.006110925,-0.043260336,-0.038735468
OrientationDeg,1676594781509,122285139950023,306.0,-3.0,-22.0
UncalMag,1676594781515,122285145857433,-28.1576,-1.5372,-107.945595,-45.491467,0.31409264,-60.09035
UncalGyro,1676594781517,122285148923351,0.6757697,0.16783522,0.37522396,0.00034537655,-0.00074784807,-0.003280778
UncalAccel,1676594781518,122285148923351,0.71246296,2.0033908,7.7946196,0.006110925,-0.043260336,-0.038735468
OrientationDeg,1676594781517,122285148923351,306.0,-3.0,-22.0
UncalMag,1676594781525,122285155855724,-28.0844,-2.0008,-108.1408,-45.491467,0.31409264,-60.09035
UncalGyro,1676594781526,122285157909129,0.6592763,0.012675454,0.45234573,0.00034537655,-0.00074784807,-0.003280778
UncalAccel,1676594781526,122285157909129,1.2867404,2.6183462,7.3142605,0.006110925,-0.043260336,-0.038735468
OrientationDeg,1676594781527,122285157909129,305.0,-4.0,-22.0
UncalMag,1676594781535,122285165867687,-31.927399,-2.8425999,-109.787796,-45.491467,0.31409264,-60.09035
UncalGyro,1676594781536,122285166888378,0.63591075,-0.18952094,0.528093,0.00034537655,-0.00074784807,-0.003280778
UncalAccel,1676594781536,122285166888378,1.3830515,3.1884363,7.0504518,0.006110925,-0.043260336,-0.038735468
OrientationDeg,1676594781535,122285166888378,305.0,-4.0,-23.0
UncalGyro,1676594781545,122285175867259,0.5879578,-0.322995,0.59803706,0.00034537655,-0.00074784807,-0.003280778
UncalAccel,1676594781545,122285175867259,1.422533,3.6293137,7.4344997,0.006110925,-0.043260336,-0.038735468
UncalMag,1676594781545,122285175875255,-28.462599,-2.5254,-108.884995,-45.491467,0.31409264,-60.09035
OrientationDeg,1676594781544,122285175867259,305.0,-4.0,-23.0
UncalGyro,1676594781553,122285184847728,0.5164866,-0.279929,0.6462954,0.00034537655,-0.00074784807,-0.003280778
UncalAccel,1676594781553,122285184847728,1.4045869,4.137789,7.9800634,0.006110925,-0.043260336,-0.038735468
UncalMag,1676594781555,122285185855968,-30.6098,-3.4648,-109.641396,-45.491467,0.31409264,-60.09035
OrientationDeg,1676594781553,122285184847728,304.0,-4.0,-23.0
UncalGyro,1676594781562,122285193826243,0.4268421,-0.08689558,0.6782131,0.00034537655,-0.00074784807,-0.003280778
UncalAccel,1676594781563,122285193826243,1.0947163,4.2646084,8.179266,0.006110925,-0.043260336,-0.038735468
OrientationDeg,1676594781563,122285193826243,304.0,-5.0,-23.0
UncalMag,1676594781565,122285195867443,-29.6094,-3.0621998,-108.5068,-45.491467,0.31409264,-60.09035
UncalGyro,1676594781571,122285202806957,0.3200934,0.1740966,0.7254025,0.00034537655,-0.00074784807,-0.003280778
UncalAccel,1676594781572,122285202806957,0.81954175,4.1030927,7.7677007,0.006110925,-0.043260336,-0.038735468
OrientationDeg,1676594781572,122285202806957,303.0,-5.0,-24.0
UncalMag,1676594781574,122285205867687,-27.4256,-3.0377998,-106.6646,-45.491467,0.31409264,-60.09035
UncalGyro,1676594781580,122285211784740,0.19272798,0.41431937,0.77213365,0.00034537655,-0.00074784807,-0.003280778
UncalAccel,1676594781581,122285211784740,0.695115,3.8494534,7.4033933,0.006110925,-0.043260336,-0.038735468
OrientationDeg,1676594781581,122285211784740,303.0,-5.0,-24.0
UncalMag,1676594781585,122285215867443,-28.5236,-3.416,-108.701996,-45.491467,0.31409264,-60.09035
UncalGyro,1676594781590,122285220765636,0.035277467,0.6047566,0.81000733,0.00034537655,-0.00074784807,-0.003280778
UncalAccel,1676594781590,122285220765636,0.567099,3.6197424,6.963114,0.006110925,-0.043260336,-0.038735468
OrientationDeg,1676594781590,122285220765636,302.0,-5.0,-24.0
UncalMag,1676594781594,122285225873058,-27.5964,-3.7331998,-106.8842,-45.491467,0.31409264,-60.09035
UncalGyro,1676594781599,122285229746714,-0.13713925,0.6986771,0.8565858,0.00034537655,-0.00074784807,-0.003280778
UncalAccel,1676594781598,122285229746714,0.35712877,3.5252259,6.795018,0.006110925,-0.043260336,-0.038735468
OrientationDeg,1676594781598,122285229746714,302.0,-4.0,-24.0
UncalMag,1676594781604,122285235867687,-27.9014,-3.4648,-108.641,-45.491467,0.31409264,-60.09035
UncalGyro,1676594781608,122285238727123,-0.30085114,0.7443393,0.91904676,0.00034537655,-0.00074784807,-0.003280778
UncalAccel,1676594781607,122285238727123,0.31465617,3.6167514,6.8668027,0.006110925,-0.043260336,-0.038735468
OrientationDeg,1676594781608,122285238727123,301.0,-4.0,-23.0
UncalMag,1676594781615,122285245867687,-27.9258,-4.0382,-108.409195,-45.491467,0.31409264,-60.09035
UncalGyro,1676594781617,122285247704662,-0.43676865,0.8526152,0.96486163,0.00034537655,-0.00074784807,-0.003280778
UncalAccel,1676594781616,122285247704662,0.651446,3.8255253,7.5936227,0.006110925,-0.043260336,-0.038735468
OrientationDeg,1676594781616,122285247704662,301.0,-4.0,-23.0
UncalMag,1676594781624,122285255869640,-30.024199,-4.8434,-109.189995,-45.491467,0.31409264,-60.09035
UncalGyro,1676594781626,122285256681652,-0.535118,0.9436341,0.9859365,0.00034537655,-0.00074784807,-0.003280778
UncalAccel,1676594781626,122285256681652,0.9822537,3.9050865,7.271788,0.006110925,-0.043260336,-0.038735468
OrientationDeg,1676594781626,122285256681652,300.0,-4.0,-23.0
UncalGyro,1676594781635,122285265663585,-0.61651576,0.9334021,0.9818132,0.00034537655,-0.00074784807,-0.003280778
UncalAccel,1676594781635,122285265663585,1.265205,3.8410785,6.791429,0.006110925,-0.043260336,-0.038735468
UncalMag,1676594781634,122285265859874,-27.4988,-3.2208,-105.2372,-45.491467,0.31409264,-60.09035
OrientationDeg,1676594781635,122285265663585,300.0,-3.0,-22.0
UncalGyro,1676594781644,122285274644969,-0.69027776,0.87888235,0.9569204,0.00034537655,-0.00074784807,-0.003280778
UncalAccel,1676594781644,122285274644969,1.4793626,3.8015969,6.859026,0.006110925,-0.043260336,-0.038735468
OrientationDeg,1676594781644,122285274644969,299.0,-3.0,-22.0
UncalMag,1676594781645,122285275867199,-29.828999,-4.2455997,-105.920395,-45.491467,0.31409264,-60.09035
UncalGyro,1676594781653,122285283622387,-0.7457138,0.7521278,0.93935806,0.00034537655,-0.00074784807,-0.003280778
UncalAccel,1676594781652,122285283622387,1.3345969,3.6921253,7.000801,0.006110925,-0.043260336,-0.038735468
OrientationDeg,1676594781652,122285283622387,299.0,-3.0,-22.0
UncalMag,1676594781654,122285285867687,-26.5472,-3.6355999,-103.9318,-45.491467,0.31409264,-60.09035
UncalGyro,1676594781662,122285292602184,-0.7979427,0.5737552,0.93615097,0.00034537655,-0.00074784807,-0.003280778
UncalAccel,1676594781662,122285292602184,1.099502,3.5449667,7.146165,0.006110925,-0.043260336,-0.038735468
OrientationDeg,1676594781662,122285292602184,298.0,-3.0,-21.0
UncalMag,1676594781665,122285295867443,-28.243,-4.0992,-104.041595,-45.491467,0.31409264,-60.09035
UncalGyro,1676594781671,122285301581310,-0.84238315,0.38056904,0.9279043,0.00034537655,-0.00074784807,-0.003280778
UncalAccel,1676594781671,122285301581310,1.1030912,3.554538,7.3178496,0.006110925,-0.043260336,-0.038735468
OrientationDeg,1676594781671,122285301581310,298.0,-3.0,-21.0
UncalMag,1676594781674,122285305867443,-28.121,-4.5506,-102.9314,-45.491467,0.31409264,-60.09035
UncalGyro,1676594781680,122285310549755,-0.86467975,0.19700404,0.91813046,0.00034537655,-0.00074784807,-0.003280778
UncalAccel,1676594781680,122285310549755,1.198206,3.5252259,7.4327054,0.006110925,-0.043260336,-0.038735468
OrientationDeg,1676594781679,122285310549755,297.0,-3.0,-20.0
UncalMag,1676594781685,122285315867443,-27.755,-4.0016,-104.4808,-45.491467,0.31409264,-60.09035
UncalGyro,1676594781689,122285319540782,-0.8651379,0.07192938,0.8846856,0.00034537655,-0.00074784807,-0.003280778
UncalAccel,1676594781689,122285319540782,1.3651053,3.6394832,7.5816584,0.006110925,-0.043260336,-0.038735468
OrientationDeg,1676594781688,122285319540782,297.0,-3.0,-20.0
UncalMag,1676594781695,122285325867443,-27.0352,-3.477,-103.5536,-45.491467,0.31409264,-60.09035
OrientationDeg,1676594781698,122285328520092,296.0,-3.0,-19.0
UncalGyro,1676594781698,122285328520092,-0.8535315,-0.00580322,0.82619524,0.00034537655,-0.00074784807,-0.003280778
UncalAccel,1676594781698,122285328520092,1.3214363,3.6921253,7.758129,0.006110925,-0.043260336,-0.038735468
UncalMag,1676594781704,122285335867443,-27.938,-3.2696,-105.444595,-45.491467,0.31409264,-60.09035
UncalGyro,1676594781707,122285337499523,-0.8417723,-0.040317107,0.7690793,0.00034537655,-0.00074784807,-0.003280778
UncalAccel,1676594781707,122285337499523,1.1192428,3.5066817,7.947162,0.006110925,-0.043260336,-0.038735468
OrientationDeg,1676594781706,122285337499523,296.0,-3.0,-19.0
UncalMag,1676594781715,122285345867931,-28.230799,-3.05,-102.650795,-45.491467,0.31409264,-60.09035
UncalGyro,1676594781716,122285346479015,-0.82695884,-0.0041233404,0.70249504,0.00034537655,-0.00074784807,-0.003280778
UncalAccel,1676594781716,122285346479015,0.91405827,3.1722846,8.363513,0.006110925,-0.043260336,-0.038735468
OrientationDeg,1676594781716,122285346479015,296.0,-4.0,-18.0
UncalGyro,1676594781725,122285355458507,-0.79000145,0.06352998,0.6478226,0.00034537655,-0.00074784807,-0.003280778
UncalAccel,1676594781725,122285355458507,0.68075806,2.6943183,8.617751,0.006110925,-0.043260336,-0.038735468
UncalMag,1676594781724,122285355856212,-26.522799,-1.5616,-105.2494,-45.491467,0.31409264,-60.09035
OrientationDeg,1676594781724,122285355458507,295.0,-4.0,-18.0
UncalGyro,1676594781734,122285364430248,-0.7160868,0.09712757,0.6348417,0.00034537655,-0.00074784807,-0.003280778
UncalAccel,1676594781734,122285364430248,0.54257256,2.1918256,8.73799,0.006110925,-0.043260336,-0.038735468
UncalMag,1676594781735,122285365867443,-26.522799,-1.5616,-105.2494,-45.491467,0.31409264,-60.09035
OrientationDeg,1676594781734,122285364430248,295.0,-4.0,-18.0
UncalGyro,1676594781742,122285373417491,-0.59803706,0.08597928,0.6704246,0.00034537655,-0.00074784807,-0.003280778
UncalAccel,1676594781742,122285373417491,0.36251262,1.7084754,8.8014,0.006110925,-0.043260336,-0.038735468
OrientationDeg,1676594781742,122285373417491,295.0,-4.0,-17.0
UncalMag,1676594781745,122285375867443,-27.755,-2.2814,-103.565796,-45.491467,0.31409264,-60.09035
UncalGyro,1676594781752,122285382395031,-0.4550946,0.03390302,0.7484626,0.00034537655,-0.00074784807,-0.003280778
UncalAccel,1676594781752,122285382395031,0.24227329,1.4937196,8.699705,0.006110925,-0.043260336,-0.038735468
OrientationDeg,1676594781752,122285382395031,294.0,-4.0,-17.0
UncalMag,1676594781755,122285385867687,-25.9616,-1.6104,-103.1632,-45.491467,0.31409264,-60.09035
UncalGyro,1676594781761,122285391377086,-0.30818152,-0.065209866,0.8379544,0.00034537655,-0.00074784807,-0.003280778
UncalAccel,1676594781761,122285391377086,0.38644084,1.5116657,8.395817,0.006110925,-0.043260336,-0.038735468
OrientationDeg,1676594781761,122285391377086,294.0,-4.0,-17.0
UncalMag,1676594781765,122285395875255,-27.938,-2.0496,-104.31,-45.491467,0.31409264,-60.09035
UncalGyro,1676594781770,122285400355175,-0.18646662,-0.19776763,0.91828316,0.00034537655,-0.00074784807,-0.003280778
UncalAccel,1676594781770,122285400355175,0.40677986,1.5547365,8.228917,0.006110925,-0.043260336,-0.038735468
OrientationDeg,1676594781769,122285400355175,293.0,-4.0,-17.0
UncalMag,1676594781775,122285405867199,-28.487,-2.7816,-103.5292,-45.491467,0.31409264,-60.09035
UncalGyro,1676594781778,122285409335949,-0.10873401,-0.30375275,1.0070114,0.00034537655,-0.00074784807,-0.003280778
UncalAccel,1676594781778,122285409335949,0.041874398,1.7485552,8.085348,0.006110925,-0.043260336,-0.038735468
OrientationDeg,1676594781779,122285409335949,293.0,-5.0,-17.0
UncalMag,1676594781785,122285415867443,-29.4142,-3.2818,-103.9806,-45.491467,0.31409264,-60.09035
UncalGyro,1676594781788,122285418315502,-0.10751228,-0.43585235,1.1366675,0.00034537655,-0.00074784807,-0.003280778
UncalAccel,1676594781788,122285418315502,-0.13579269,1.9124635,7.5996046,0.006110925,-0.043260336,-0.038735468
OrientationDeg,1676594781787,122285418315502,292.0,-5.0,-16.0
UncalMag,1676594781795,122285425867687,-28.926199,-2.9524,-104.9078,-45.491467,0.31409264,-60.09035
UncalGyro,1676594781797,122285427281261,-0.18234327,-0.63591075,1.2379184,0.00034537655,-0.00074784807,-0.003280778
UncalAccel,1676594781797,122285427281261,0.37806597,1.6600207,7.476374,0.006110925,-0.043260336,-0.038735468
OrientationDeg,1676594781797,122285427281261,292.0,-5.0,-16.0
UncalMag,1676594781805,122285435867687,-27.755,-2.4034,-104.517395,-45.491467,0.31409264,-60.09035
UncalGyro,1676594781806,122285436274486,-0.2967278,-0.8781188,1.2739595,0.00034537655,-0.00074784807,-0.003280778
UncalAccel,1676594781806,122285436274486,1.1988041,1.3866407,7.8981094,0.006110925,-0.043260336,-0.038735468
OrientationDeg,1676594781806,122285436274486,291.0,-6.0,-16.0
UncalGyro,1676594781814,122285445251109,-0.37064248,-1.0939069,1.2657127,0.00034537655,-0.00074784807,-0.003280778
UncalAccel,1676594781815,122285445251109,1.8747765,1.3830515,8.964112,0.006110925,-0.043260336,-0.038735468
UncalMag,1676594781815,122285445856212,-29.6582,-3.1232,-105.2616,-45.491467,0.31409264,-60.09035
OrientationDeg,1676594781814,122285445251109,290.0,-7.0,-16.0
UncalGyro,1676594781823,122285454233654,-0.35185838,-1.2153164,1.2391402,0.00034537655,-0.00074784807,-0.003280778
UncalAccel,1676594781823,122285454233654,2.4705894,1.5960127,10.316655,0.006110925,-0.043260336,-0.038735468
OrientationDeg,1676594781823,122285454233654,290.0,-8.0,-15.0
UncalMag,1676594781825,122285455867443,-28.2064,-2.3424,-104.31,-45.491467,0.31409264,-60.09035
UncalGyro,1676594781833,122285463204722,-0.24419338,-1.2188289,1.20371,0.00034537655,-0.00074784807,-0.003280778
UncalAccel,1676594781833,122285463204722,3.0801609,1.6600207,11.5017,0.006110925,-0.043260336,-0.038735468
OrientationDeg,1676594781833,122285463204722,289.0,-8.0,-15.0
UncalMag,1676594781835,122285465867443,-26.7668,-2.135,-102.5898,-45.491467,0.31409264,-60.09035
UncalGyro,1676594781841,122285472180736,-0.08323039,-1.1557571,1.1333077,0.00034537655,-0.00074784807,-0.003280778
UncalAccel,1676594781841,122285472180736,3.7513478,1.8191434,11.877374,0.006110925,-0.043260336,-0.038735468
OrientationDeg,1676594781841,122285472180736,288.0,-9.0,-15.0
UncalMag,1676594781845,122285475867687,-30.8294,-3.5502,-104.4808,-45.491467,0.31409264,-60.09035
UncalGyro,1676594781851,122285481171947,0.07284568,-1.16492,1.0177015,0.00034537655,-0.00074784807,-0.003280778
UncalAccel,1676594781850,122285481171947,4.331009,1.8921245,11.474781,0.006110925,-0.043260336,-0.038735468
OrientationDeg,1676594781850,122285481171947,288.0,-10.0,-15.0
UncalMag,1676594781854,122285485856701,-31.573599,-3.7942,-104.9444,-45.491467,0.31409264,-60.09035
UncalGyro,1676594781860,122285490151622,0.16798794,-1.2579242,0.8738427,0.00034537655,-0.00074784807,-0.003280778
UncalAccel,1676594781860,122285490151622,4.8652067,1.6827525,11.118849,0.006110925,-0.043260336,-0.038735468
OrientationDeg,1676594781859,122285490151622,287.0,-11.0,-15.0
UncalMag,1676594781864,122285495867443,-33.2816,-4.1236,-106.2742,-45.491467,0.31409264,-60.09035
UncalGyro,1676594781869,122285499131115,0.1872302,-1.3999504,0.7603745,0.00034537655,-0.00074784807,-0.003280778
UncalAccel,1676594781868,122285499131115,5.283951,1.4739788,10.87179,0.006110925,-0.043260336,-0.038735468
OrientationDeg,1676594781868,122285499131115,287.0,-12.0,-15.0
UncalMag,1676594781875,122285505867443,-33.501198,-3.7819998,-106.628,-45.491467,0.31409264,-60.09035
UncalGyro,1676594781877,122285508110851,0.17547104,-1.5612189,0.70829827,0.00034537655,-0.00074784807,-0.003280778
UncalAccel,1676594781878,122285508110851,5.757131,1.2125629,11.201401,0.006110925,-0.043260336,-0.038735468
OrientationDeg,1676594781878,122285508110851,287.0,-13.0,-15.0
UncalMag,1676594781884,122285515867443,-32.8912,-3.4648,-106.323,-45.491467,0.31409264,-60.09035
UncalGyro,1676594781886,122285517090099,0.17104226,-1.6781995,0.68432176,0.00034537655,-0.00074784807,-0.003280778
UncalAccel,1676594781887,122285517090099,6.5138617,0.9062816,11.946765,0.006110925,-0.043260336,-0.038735468
OrientationDeg,1676594781887,122285517090099,286.0,-14.0,-15.0
UncalMag,1676594781894,122285525867687,-34.16,-3.9406,-105.6764,-45.491467,0.31409264,-60.09035
UncalGyro,1676594781896,122285526067027,0.20387627,-1.7117971,0.6565274,0.00034537655,-0.00074784807,-0.003280778
UncalAccel,1676594781896,122285526067027,7.057032,0.72083783,12.701102,0.006110925,-0.043260336,-0.038735468
OrientationDeg,1676594781896,122285526067027,286.0,-15.0,-15.0
UncalGyro,1676594781904,122285535049693,0.27962357,-1.6862935,0.61376685,0.00034537655,-0.00074784807,-0.003280778
UncalAccel,1676594781904,122285535049693,7.42792,0.637089,12.783655,0.006110925,-0.043260336,-0.038735468
OrientationDeg,1676594781904,122285535049693,285.0,-16.0,-15.0
UncalMag,1676594781904,122285535856456,-32.5008,-3.4404,-104.9322,-45.491467,0.31409264,-60.09035
UncalGyro,1676594781914,122285544031627,0.3559817,-1.660179,0.5713117,0.00034537655,-0.00074784807,-0.003280778
UncalAccel,1676594781914,122285544031627,7.55115,0.6406783,11.983854,0.006110925,-0.043260336,-0.038735468
OrientationDeg,1676594781913,122285544031627,285.0,-17.0,-15.0
UncalMag,1676594781915,122285545867199,-34.8066,-4.331,-106.2864,-45.491467,0.31409264,-60.09035
UncalGyro,1676594781923,122285553008251,0.399964,-1.617113,0.5694791,0.00034537655,-0.00074784807,-0.003280778
UncalAccel,1676594781922,122285553008251,7.240083,0.48873404,11.042278,0.006110925,-0.043260336,-0.038735468
UncalMag,1676594781924,122285555867199,-34.7944,-4.209,-105.0176,-45.491467,0.31409264,-60.09035
OrientationDeg,1676594781923,122285553008251,285.0,-18.0,-15.0
UncalGyro,1676594781931,122285561988109,0.4202753,-1.5546521,0.6010914,0.00034537655,-0.00074784807,-0.003280778
UncalAccel,1676594781931,122285561988109,6.669993,0.232702,10.17129,0.006110925,-0.043260336,-0.038735468
OrientationDeg,1676594781931,122285561988109,284.0,-18.0,-15.0
UncalMag,1676594781935,122285565867687,-34.343,-4.0138,-105.4812,-45.491467,0.31409264,-60.09035
UncalGyro,1676594781939,122285570963756,0.40882155,-1.4795157,0.6418667,0.00034537655,-0.00074784807,-0.003280778
UncalAccel,1676594781939,122285570963756,6.040681,0.20757736,9.215358,0.006110925,-0.043260336,-0.038735468
OrientationDeg,1676594781940,122285570963756,284.0,-19.0,-15.0
UncalMag,1676594781945,122285575855724,-36.6244,-4.8068,-109.019196,-45.491467,0.31409264,-60.09035
UncalGyro,1676594781948,122285579947094,0.345597,-1.3811663,0.70371675,0.00034537655,-0.00074784807,-0.003280778
UncalAccel,1676594781949,122285579947094,5.4753766,0.43130627,8.175078,0.006110925,-0.043260336,-0.038735468
OrientationDeg,1676594781949,122285579947094,284.0,-20.0,-15.0
UncalMag,1676594781954,122285585867199,-36.6488,-4.5871997,-107.4454,-45.491467,0.31409264,-60.09035
UncalGyro,1676594781957,122285588924816,0.25411993,-1.2990049,0.7554876,0.00034537655,-0.00074784807,-0.003280778
UncalAccel,1676594781957,122285588924816,5.074579,0.8739785,6.979265,0.006110925,-0.043260336,-0.038735468
OrientationDeg,1676594781958,122285588924816,283.0,-21.0,-15.0
UncalMag,1676594781964,122285595867199,-40.198997,-6.2098,-110.897995,-45.491467,0.31409264,-60.09035
UncalGyro,1676594781966,122285597906017,0.15134187,-1.3133603,0.75487673,0.00034537655,-0.00074784807,-0.003280778
UncalAccel,1676594781966,122285597906017,4.7431726,1.052842,5.9156556,0.006110925,-0.043260336,-0.038735468
OrientationDeg,1676594781967,122285597906017,283.0,-22.0,-15.0
UncalMag,1676594781975,122285605867687,-39.6134,-5.8315997,-111.7032,-45.491467,0.31409264,-60.09035
UncalGyro,1676594781976,122285606875500,0.03940081,-1.3553573,0.72494435,0.00034537655,-0.00074784807,-0.003280778
UncalAccel,1676594781976,122285606875500,4.5332026,0.9343972,5.733203,0.006110925,-0.043260336,-0.038735468
OrientationDeg,1676594781975,122285606875500,282.0,-23.0,-15.0
UncalGyro,1676594781985,122285615864757,-0.028252518,-1.3961325,0.7350236,0.00034537655,-0.00074784807,-0.003280778
UncalAccel,1676594781984,122285615864757,4.712066,0.39182472,6.364908,0.006110925,-0.043260336,-0.038735468
UncalMag,1676594781984,122285615875011,-40.735798,-6.1731997,-112.667,-45.491467,0.31409264,-60.09035
OrientationDeg,1676594781984,122285615864757,282.0,-23.0,-15.0
UncalGyro,1676594781994,122285624844738,-0.010079277,-1.3562735,0.84299403,0.00034537655,-0.00074784807,-0.003280778
UncalAccel,1676594781994,122285624844738,4.6295137,-0.5276174,7.222735,0.006110925,-0.043260336,-0.038735468
UncalMag,1676594781995,122285625855724,-42.443798,-6.6246,-112.776794,-45.491467,0.31409264,-60.09035
OrientationDeg,1676594781994,122285624844738,282.0,-24.0,-15.0
UncalGyro,1676594782002,122285633824413,0.035277467,-1.2380711,0.96577793,0.00034537655,-0.00074784807,-0.003280778
UncalAccel,1676594782002,122285633824413,4.569693,-0.34037903,7.066005,0.006110925,-0.043260336,-0.038735468
OrientationDeg,1676594782002,122285633824413,281.0,-25.0,-14.0
UncalMag,1676594782004,122285635855968,-40.992,-5.856,-111.7154,-45.491467,0.31409264,-60.09035
UncalGyro,1676594782012,122285642803966,0.034208454,-1.1475104,0.9921979,0.00034537655,-0.00074784807,-0.003280778
UncalAccel,1676594782011,122285642803966,4.1868415,0.56769717,5.8486567,0.006110925,-0.043260336,-0.038735468
OrientationDeg,1676594782012,122285642803966,281.0,-26.0,-14.0
UncalMag,1676594782015,122285645867687,-42.919598,-6.5758,-113.0086,-45.491467,0.31409264,-60.09035
UncalGyro,1676594782020,122285651783275,-0.04230242,-1.0980303,0.9776898,0.00034537655,-0.00074784807,-0.003280778
UncalAccel,1676594782020,122285651783275,3.7968113,0.4636094,4.5409794,0.006110925,-0.043260336,-0.038735468
OrientationDeg,1676594782020,122285651783275,280.0,-27.0,-14.0
UncalMag,1676594782025,122285655867443,-44.7496,-6.8564,-111.7886,-45.491467,0.31409264,-60.09035
UncalGyro,1676594782030,122285660762401,-0.17440203,-1.0955868,1.0126618,0.00034537655,-0.00074784807,-0.003280778
UncalAccel,1676594782030,122285660762401,3.2087753,-0.22851457,3.8291144,0.006110925,-0.043260336,-0.038735468
OrientationDeg,1676594782029,122285660762401,280.0,-27.0,-14.0
UncalMag,1676594782035,122285665864513,-42.5536,-6.0146,-110.885796,-45.491467,0.31409264,-60.09035
UncalGyro,1676594782039,122285669742321,-0.33460143,-1.2034045,1.0923798,0.00034537655,-0.00074784807,-0.003280778
UncalAccel,1676594782039,122285669742321,3.7800615,-0.49052864,3.5826538,0.006110925,-0.043260336,-0.038735468
OrientationDeg,1676594782038,122285669742321,279.0,-28.0,-13.0
UncalMag,1676594782045,122285675867443,-46.2502,-6.0512,-112.130196,-45.491467,0.31409264,-60.09035
UncalGyro,1676594782048,122285678721019,-0.43264532,-1.3509285,1.2800682,0.00034537655,-0.00074784807,-0.003280778
UncalAccel,1676594782048,122285678721019,3.0382864,-0.9415757,4.4392843,0.006110925,-0.043260336,-0.038735468
OrientationDeg,1676594782048,122285678721019,279.0,-29.0,-13.0
UncalMag,1676594782054,122285685867687,-44.896,-5.9291997,-111.4958,-45.491467,0.31409264,-60.09035
UncalGyro,1676594782056,122285687701671,-0.48716503,-1.4763086,1.5121969,0.00034537655,-0.00074784807,-0.003280778
UncalAccel,1676594782056,122285687701671,3.6729827,-1.1030912,4.9609194,0.006110925,-0.043260336,-0.038735468
OrientationDeg,1676594782056,122285687701671,278.0,-30.0,-12.0
UncalMag,1676594782064,122285695867687,-47.5312,-6.3928,-112.7036,-45.491467,0.31409264,-60.09035
UncalGyro,1676594782066,122285696682445,-0.515723,-1.599856,1.7125608,0.00034537655,-0.00074784807,-0.003280778
UncalAccel,1676594782066,122285696682445,4.339982,-0.8578269,5.4705906,0.006110925,-0.043260336,-0.038735468
OrientationDeg,1676594782066,122285696682445,278.0,-31.0,-11.0
UncalGyro,1676594782074,122285705660656,-0.51144695,-1.6928604,1.8307631,0.00034537655,-0.00074784807,-0.003280778
UncalAccel,1676594782075,122285705660656,5.226523,-0.51266223,6.029315,0.006110925,-0.043260336,-0.038735468
UncalMag,1676594782075,122285705855724,-46.6162,-5.3924,-112.6914,-45.491467,0.31409264,-60.09035
OrientationDeg,1676594782075,122285705660656,277.0,-32.0,-10.0
UncalGyro,1676594782084,122285714639965,-0.46013424,-1.7704402,1.9026926,0.00034537655,-0.00074784807,-0.003280778
UncalAccel,1676594782084,122285714639965,5.852246,-0.59282184,6.5700927,0.006110925,-0.043260336,-0.038735468
UncalMag,1676594782085,122285715867443,-46.7016,-5.5022,-111.935,-45.491467,0.31409264,-60.09035
Raw,1676594781000,284836000000,,,-1360629714164306701,0.0,7.698015434027247,295.0,1.0,21,2,0.0,16431,434798919300633,18,39.1142463684082,-552.670276752719,0.15,16,-158681.47422814168,340282346638528860000000000000000000000,1575420030,,,,0,,1,,34.91424560546875,0.0,1.0,0.0,1.0,C,122285606295000
