# 
# Header Description:
# 
# Version: v3.0.5.6 Platform: 13 Manufacturer: Google Model: Pixel 7
# 
# Raw,utcTimeMillis,TimeNanos,LeapSecond,TimeUncertaintyNanos,FullBiasNanos,BiasNanos,BiasUncertaintyNanos,DriftNanosPerSecond,DriftUncertaintyNanosPerSecond,HardwareClockDiscontinuityCount,Svid,TimeOffsetNanos,State,ReceivedSvTimeNanos,ReceivedSvTimeUncertaintyNanos,Cn0DbHz,PseudorangeRateMetersPerSecond,PseudorangeRateUncertaintyMetersPerSecond,AccumulatedDeltaRangeState,AccumulatedDeltaRangeMeters,AccumulatedDeltaRangeUncertaintyMeters,CarrierFrequencyHz,CarrierCycles,CarrierPhase,CarrierPhaseUncertainty,MultipathIndicator,SnrInDb,ConstellationType,AgcDb,BasebandCn0DbHz,FullInterSignalBiasNanos,FullInterSignalBiasUncertaintyNanos,SatelliteInterSignalBiasNanos,SatelliteInterSignalBiasUncertaintyNanos,CodeType,ChipsetElapsedRealtimeNanos
# 
# UncalAccel,utcTimeMillis,elapsedRealtimeNanos,UncalAccelXMps2,UncalAccelYMps2,UncalAccelZMps2,BiasXMps2,BiasYMps2,BiasZMps2
# 
# Accel,utcTimeMillis,elapsedRealtimeNanos,AccelXMps2,AccelYMps2,AccelZMps2
# 
# UncalGyro,utcTimeMillis,elapsedRealtimeNanos,UncalGyroXRadPerSec,UncalGyroYRadPerSec,UncalGyroZRadPerSec,DriftXRadPerSec,DriftYRadPerSec,DriftZRadPerSec
# 
# Gyro,utcTimeMillis,elapsedRealtimeNanos,GyroXRadPerSec,GyroYRadPerSec,GyroZRadPerSec
# 
# UncalMag,utcTimeMillis,elapsedRealtimeNanos,UncalMagXMicroT,UncalMagYMicroT,UncalMagZMicroT,BiasXMicroT,BiasYMicroT,BiasZMicroT
# 
# Mag,utcTimeMillis,elapsedRealtimeNanos,MagXMicroT,MagYMicroT,MagZMicroT
# 
# OrientationDeg,utcTimeMillis,elapsedRealtimeNanos,yawDeg,rollDeg,pitchDeg
# 
# Fix,Provider,LatitudeDegrees,LongitudeDegrees,AltitudeMeters,SpeedMps,AccuracyMeters,BearingDegrees,UnixTimeMillis,SpeedAccuracyMps,BearingAccuracyDegrees,elapsedRealtimeNanos,VerticalAccuracyMeters
# 
# Nav,Svid,Type,Status,MessageId,Sub-messageId,Data(Bytes)
# 
# Status,UnixTimeMillis,SignalCount,SignalIndex,ConstellationType,Svid,CarrierFrequencyHz,Cn0DbHz,AzimuthDegrees,ElevationDegrees,UsedInFix,HasAlmanacData,HasEphemerisData,BasebandCn0DbHz
# 
UncalMag,1676592321411,29378233571892,-156.8188,754.7774,393.8648,-174.57417,771.0116,430.86337
UncalMag,1676592321421,29378243581902,-156.72119,754.60657,393.938,-174.57417,771.0116,430.86337
UncalGyro,1676592321424,29378246159132,-0.20326541,-0.21166481,-0.11133019,0.0036532416,-0.00045820192,-0.0003133497
UncalAccel,1676592321424,29378246159132,0.049052864,0.36191443,10.261022,0.037048545,-0.031444572,0.0098014325
UncalMag,1676592321431,29378253571038,-156.831,754.5822,393.08398,-174.57417,771.0116,430.86337
UncalGyro,1676592321432,29378254639207,-0.16691893,-0.2452624,-0.12675454,0.0036532413,-0.00045820192,-0.0003133497
UncalAccel,1676592321432,29378254639207,0.081954174,0.37627137,10.318449,0.037048545,-0.031444572,0.0098014325
UncalGyro,1676592321441,29378263118798,-0.11835514,-0.258396,-0.1518,0.0036532413,-0.00045820192,-0.0003133497
UncalAccel,1676592321441,29378263118798,0.15314065,0.37686956,10.404591,0.037048545,-0.031444572,0.0098014325
UncalMag,1676592321441,29378263579827,-157.1238,754.9604,394.1454,-174.57417,771.0116,430.86337
UncalGyro,1676592321449,29378271590580,-0.076358154,-0.25289822,-0.17195857,0.0036532413,-0.00045820192,-0.0003133497
UncalAccel,1676592321449,29378271590580,0.21535404,0.35832518,10.4051895,0.037048545,-0.031444572,0.0098014325
UncalMag,1676592321451,29378273576247,-156.72119,754.59436,393.572,-174.57417,771.0116,430.86337
UncalGyro,1676592321458,29378280075932,-0.03268129,-0.23243423,-0.18112154,0.0036532413,-0.00045820192,-0.0003133497
UncalAccel,1676592321458,29378280075932,0.2536392,0.32961133,10.4051895,0.037048545,-0.031444572,0.0098014325
UncalMag,1676592321461,29378283572992,-156.5138,754.5212,393.5476,-174.57417,771.0116,430.86337
UncalGyro,1676592321466,29378288548934,0.032986723,-0.19303341,-0.19364429,0.0036532413,-0.00045820192,-0.0003133497
UncalAccel,1676592321466,29378288548934,0.2727818,0.3152544,10.377073,0.037048545,-0.031444572,0.0098014325
UncalMag,1676592321471,29378293571120,-156.5016,754.6798,393.2182,-174.57417,771.0116,430.86337
UncalGyro,1676592321475,29378297042484,0.12568553,-0.14614952,-0.21135938,0.0036532413,-0.00045820192,-0.0003133497
UncalAccel,1676592321475,29378297042484,0.31286156,0.25842485,10.24846,0.037048545,-0.031444572,0.0098014325
UncalMag,1676592321481,29378303576736,-156.3918,754.9604,393.8892,-174.57417,771.0116,430.86337
UncalGyro,1676592321483,29378305516727,0.21762075,-0.09758572,-0.22266038,0.0036532413,-0.00045820192,-0.0003133497
UncalAccel,1676592321483,29378305516727,0.37088752,0.23988047,10.158729,0.037048545,-0.031444572,0.0098014325
OrientationDeg,1676592321483,29378305516727,230.0,0.0,-2.0
Fix,NLP,37.4312037000,-122.1537329000,-16.100000381469727,,53.546,,1676592294828,,,29351650000000,4.750801
UncalMag,1676592321491,29378313581456,-157.0262,754.753,393.13278,-174.57417,771.0116,430.86337
UncalGyro,1676592321491,29378313997370,0.28053987,-0.04841107,-0.22953261,0.0036532413,-0.00045820192,-0.0003133497
UncalAccel,1676592321491,29378313997370,0.40438703,0.25902304,10.153943,0.037048545,-0.031444572,0.0098014325
OrientationDeg,1676592321491,29378313997370,231.0,0.0,-2.0
UncalGyro,1676592321500,29378322482783,0.29932398,0.0025961774,-0.23457226,0.0036532413,-0.00045820192,-0.0003133497
UncalAccel,1676592321500,29378322482783,0.39900318,0.2638087,10.205987,0.037048545,-0.031444572,0.0098014325
UncalMag,1676592321502,29378323571202,-156.5016,754.8506,393.145,-174.57417,771.0116,430.86337
OrientationDeg,1676592321500,29378322482783,231.0,0.0,-2.0
UncalGyro,1676592321508,29378330963811,0.2826779,0.043829583,-0.24495697,0.0036532413,-0.00045820192,-0.0003133497
UncalAccel,1676592321508,29378330963811,0.3505485,0.28713873,10.296316,0.037048545,-0.031444572,0.0098014325
OrientationDeg,1676592321508,29378330963811,231.0,0.0,-2.0
UncalMag,1676592321511,29378333581538,-156.5016,754.7774,393.4866,-174.57417,771.0116,430.86337
UncalGyro,1676592321517,29378339443711,0.2602286,0.05375614,-0.26236662,0.0036532413,-0.00045820192,-0.0003133497
UncalAccel,1676592321517,29378339443711,0.29790643,0.30149564,10.267602,0.037048545,-0.031444572,0.0098014325
OrientationDeg,1676592321517,29378339443711,231.0,0.0,-2.0
UncalMag,1676592321521,29378343581660,-156.29419,754.7652,393.1206,-174.57417,771.0116,430.86337
UncalGyro,1676592321525,29378347924963,0.24953845,0.028099801,-0.27565295,0.0036532413,-0.00045820192,-0.0003133497
UncalAccel,1676592321525,29378347924963,0.24107689,0.27696922,10.229317,0.037048545,-0.031444572,0.0098014325
OrientationDeg,1676592321525,29378347924963,231.0,0.0,-2.0
UncalMag,1676592321531,29378353571122,-155.8794,754.6188,393.6696,-174.57417,771.0116,430.86337
UncalGyro,1676592321534,29378356404933,0.25045475,-0.012217305,-0.2773328,0.0036532413,-0.00045820192,-0.0003133497
UncalAccel,1676592321534,29378356404933,0.13519448,0.22851457,10.357333,0.037048545,-0.031444572,0.0098014325
OrientationDeg,1676592321534,29378356404933,231.0,0.0,-2.0
Fix,FLP,37.4308608000,-122.1550632000,-16.100000381469727,0.012004286,87.326,,1676592294828,0.014960088,,29351650000000,2.961797
UncalMag,1676592321541,29378363579463,-156.08679,754.7774,393.3524,-174.57417,771.0116,430.86337
UncalGyro,1676592321542,29378364877844,0.24923302,-0.04642576,-0.25045475,0.0036532413,-0.00045820192,-0.0003133497
UncalAccel,1676592321542,29378364877844,0.21535404,0.09930214,10.5589285,0.037048545,-0.031444572,0.0098014325
OrientationDeg,1676592321542,29378364877844,231.0,0.0,-3.0
UncalGyro,1676592321551,29378373361648,0.2396119,-0.09239337,-0.19318613,0.0036532413,-0.00045820192,-0.0003133497
UncalAccel,1676592321551,29378373361648,0.35473597,0.01375873,10.532009,0.037048545,-0.031444572,0.0098014325
OrientationDeg,1676592321551,29378373361648,231.0,0.0,-3.0
UncalMag,1676592321551,29378373570878,-156.1722,755.13116,393.3158,-174.57417,771.0116,430.86337
UncalGyro,1676592321559,29378381850959,0.22403483,-0.14202617,-0.1244638,0.0036532413,-0.00045820192,-0.0003133497
UncalAccel,1676592321559,29378381850959,0.4642076,-0.019142581,10.633105,0.037048545,-0.031444572,0.0098014325
OrientationDeg,1676592321559,29378381850959,231.0,-1.0,-3.0
UncalMag,1676592321561,29378383581661,-156.1722,755.13116,393.3158,-174.57417,771.0116,430.86337
UncalGyro,1676592321568,29378390321204,0.21044308,-0.15897769,-0.06841691,0.0036532413,-0.00045820192,-0.0003133497
UncalAccel,1676592321568,29378390321204,0.5479564,0.0,10.924432,0.037048545,-0.031444572,0.0098014325
UncalMag,1676592321571,29378393581824,-156.3918,754.8628,393.633,-174.57417,771.0116,430.86337
OrientationDeg,1676592321568,29378390321204,231.0,-1.0,-3.0
UncalGyro,1676592321576,29378398797096,0.2144137,-0.16523905,-0.03604105,0.0036532413,-0.00045820192,-0.0003133497
UncalAccel,1676592321576,29378398797096,0.4761717,0.062213387,10.890334,0.037048545,-0.031444572,0.0098014325
OrientationDeg,1676592321576,29378398797096,231.0,-1.0,-3.0
UncalMag,1676592321581,29378403572588,-155.55,754.8872,393.8526,-174.57417,771.0116,430.86337
UncalGyro,1676592321585,29378407288194,0.24297164,-0.17486018,-0.029474247,0.0036532413,-0.00045820192,-0.0003133497
UncalAccel,1676592321585,29378407288194,0.381057,0.07597212,10.84188,0.037048545,-0.031444572,0.0098014325
OrientationDeg,1676592321585,29378407288194,231.0,-1.0,-3.0
UncalMag,1676592321591,29378413571042,-155.55,754.8872,393.8526,-174.57417,771.0116,430.86337
UncalGyro,1676592321593,29378415768602,0.28191432,-0.18203785,-0.03680463,0.0036532413,-0.00045820192,-0.0003133497
UncalAccel,1676592321593,29378415768602,0.33320054,0.061016977,10.86521,0.037048545,-0.031444572,0.0098014325
OrientationDeg,1676592321593,29378415768602,232.0,-1.0,-3.0
UncalMag,1676592321601,29378423581540,-156.1234,754.16736,393.206,-174.57417,771.0116,430.86337
UncalGyro,1676592321602,29378424259202,0.31963524,-0.15928312,-0.03924809,0.0036532413,-0.00045820192,-0.0003133497
UncalAccel,1676592321602,29378424259202,0.43669012,0.018544376,11.057234,0.037048545,-0.031444572,0.0098014325
OrientationDeg,1676592321602,29378424259202,232.0,-1.0,-3.0
UncalGyro,1676592321610,29378432728879,0.3662137,-0.12003502,-0.026267206,0.0036532413,-0.00045820192,-0.0003133497
UncalAccel,1676592321610,29378432728879,0.63828546,-0.0041874396,11.020144,0.037048545,-0.031444572,0.0098014325
UncalMag,1676592321611,29378433571083,-156.0624,755.03357,393.0474,-174.57417,771.0116,430.86337
OrientationDeg,1676592321610,29378432728879,232.0,-1.0,-4.0
UncalGyro,1676592321619,29378441210457,0.42730024,-0.06078109,-0.009773844,0.0036532413,-0.00045820192,-0.0003133497
UncalAccel,1676592321619,29378441210457,0.78664047,-0.03708875,11.026127,0.037048545,-0.031444572,0.0098014325
OrientationDeg,1676592321619,29378441210457,232.0,-1.0,-4.0
UncalMag,1676592321621,29378443571165,-155.97699,754.875,393.7428,-174.57417,771.0116,430.86337
UncalGyro,1676592321627,29378449691577,0.5018258,0.024129177,-0.007483099,0.0036532413,-0.00045820192,-0.0003133497
UncalAccel,1676592321627,29378449691577,0.7429714,-0.013160525,11.126027,0.037048545,-0.031444572,0.0098014325
UncalMag,1676592321631,29378453569659,-156.1844,754.875,393.49878,-174.57417,771.0116,430.86337
OrientationDeg,1676592321627,29378449691577,232.0,-1.0,-4.0
UncalGyro,1676592321636,29378458160704,0.5881105,0.098807454,-0.04550946,0.0036532413,-0.00045820192,-0.0003133497
UncalAccel,1676592321636,29378458160704,0.46061835,0.052043892,11.033305,0.037048545,-0.031444572,0.0098014325
OrientationDeg,1676592321636,29378458160704,232.0,-1.0,-4.0
UncalMag,1676592321641,29378463570880,-155.47679,754.5212,393.0352,-174.57417,771.0116,430.86337
UncalGyro,1676592321644,29378466651976,0.6769914,0.09193522,-0.1253801,0.0036532413,-0.00045820192,-0.0003133497
UncalAccel,1676592321644,29378466651976,0.18005991,0.12263216,10.816156,0.037048545,-0.031444572,0.0098014325
OrientationDeg,1676592321644,29378466651976,232.0,-1.0,-5.0
UncalMag,1676592321651,29378473581582,-155.0742,754.1064,393.5354,-174.57417,771.0116,430.86337
UncalGyro,1676592321653,29378475134001,0.77381355,0.016646078,-0.25350907,0.0036532413,-0.00045820192,-0.0003133497
UncalAccel,1676592321653,29378475134001,-0.1160519,0.111266255,10.747961,0.037048545,-0.031444572,0.0098014325
OrientationDeg,1676592321653,29378475134001,232.0,-1.0,-5.0
UncalMag,1676592321661,29378483581582,-155.2938,753.9234,393.2548,-174.57417,771.0116,430.86337
UncalGyro,1676592321661,29378483612333,0.8677341,-0.12018774,-0.39370266,0.0036532413,-0.00045820192,-0.0003133497
UncalAccel,1676592321661,29378483612333,-0.15672988,-0.013160525,10.514063,0.037048545,-0.031444572,0.0098014325
OrientationDeg,1676592321661,29378483612333,232.0,-1.0,-5.0
UncalGyro,1676592321670,29378492091969,0.97509366,-0.28130344,-0.54993147,0.0036532413,-0.00045820192,-0.0003133497
UncalAccel,1676592321670,29378492091969,-0.15433706,-0.07537391,10.275977,0.037048545,-0.031444572,0.0098014325
OrientationDeg,1676592321670,29378492091969,232.0,-1.0,-6.0
UncalMag,1676592321671,29378493578449,-155.2084,753.7648,393.938,-174.57417,771.0116,430.86337
UncalGyro,1676592321678,29378500574778,1.0952814,-0.4370741,-0.73563445,0.0036532413,-0.00045820192,-0.0003133497
UncalAccel,1676592321678,29378500574778,-0.26859435,0.04426722,10.079167,0.037048545,-0.031444572,0.0098014325
OrientationDeg,1676592321678,29378500574778,233.0,-1.0,-6.0
UncalMag,1676592321681,29378503581705,-155.123,753.5086,393.87698,-174.57417,771.0116,430.86337
UncalGyro,1676592321687,29378509053487,1.2099713,-0.6032294,-1.0201449,0.0036532413,-0.00045820192,-0.0003133497
UncalAccel,1676592321687,29378509053487,-0.36909288,0.26919255,9.976874,0.037048545,-0.031444572,0.0098014325
OrientationDeg,1676592321687,29378509053487,233.0,-1.0,-7.0
UncalMag,1676592321691,29378513580606,-155.367,752.8132,394.0722,-174.57417,771.0116,430.86337
UncalGyro,1676592321695,29378517535145,1.2863295,-0.74128497,-1.3350459,0.0036532413,-0.00045820192,-0.0003133497
UncalAccel,1676592321695,29378517535145,0.06999006,0.036490545,10.195817,0.037048545,-0.031444572,0.0098014325
OrientationDeg,1676592321695,29378517535145,234.0,-2.0,-8.0
UncalMag,1676592321701,29378523581543,-155.123,753.43536,394.2186,-174.57417,771.0116,430.86337
UncalGyro,1676592321704,29378526013000,1.3408492,-0.7823657,-1.5807666,0.0036532413,-0.00045820192,-0.0003133497
UncalAccel,1676592321704,29378526013000,0.9702896,-0.19262223,10.240683,0.037048545,-0.031444572,0.0098014325
OrientationDeg,1676592321704,29378526013000,234.0,-2.0,-8.0
UncalMag,1676592321711,29378533581583,-154.94,752.89856,393.71838,-174.57417,771.0116,430.86337
UncalGyro,1676592321712,29378534478057,1.3869696,-0.7863363,-1.7316502,0.0036532413,-0.00045820192,-0.0003133497
UncalAccel,1676592321712,29378534478057,1.4859428,-0.44745782,9.920643,0.037048545,-0.031444572,0.0098014325
OrientationDeg,1676592321712,29378534478057,235.0,-2.0,-9.0
UncalGyro,1676592321720,29378542974293,1.4126259,-0.795652,-1.8284724,0.0036532413,-0.00045820192,-0.0003133497
UncalAccel,1676592321720,29378542974293,1.6420746,-0.43609193,9.454042,0.037048545,-0.031444572,0.0098014325
UncalMag,1676592321721,29378543576416,-155.15959,752.7278,394.1698,-174.57417,771.0116,430.86337
OrientationDeg,1676592321720,29378542974293,236.0,-2.0,-10.0
UncalGyro,1676592321729,29378551456523,1.4257594,-0.8417723,-1.9104811,0.0036532413,-0.00045820192,-0.0003133497
UncalAccel,1676592321729,29378551456523,1.7324036,-0.47318068,8.953344,0.037048545,-0.031444572,0.0098014325
OrientationDeg,1676592321729,29378551456523,237.0,-3.0,-11.0
UncalMag,1676592321731,29378553578288,-154.84239,752.8254,394.0722,-174.57417,771.0116,430.86337
UncalGyro,1676592321737,29378559937491,1.4057536,-0.9230174,-1.9717203,0.0036532413,-0.00045820192,-0.0003133497
UncalAccel,1676592321737,29378559937491,1.805983,-0.5395815,8.777472,0.037048545,-0.031444572,0.0098014325
OrientationDeg,1676592321737,29378559937491,238.0,-3.0,-11.0
UncalMag,1676592321741,29378563586711,-154.9644,752.557,394.2552,-174.57417,771.0116,430.86337
UncalGyro,1676592321746,29378568412162,1.329701,-1.0093021,-2.0685425,0.0036532413,-0.00045820192,-0.0003133497
UncalAccel,1676592321747,29378568412162,1.5738791,-0.22971097,8.903693,0.037048545,-0.031444572,0.0098014325
OrientationDeg,1676592321746,29378568412162,239.0,-3.0,-12.0
UncalMag,1676592321751,29378573571249,-155.9038,752.7156,394.0722,-174.57417,771.0116,430.86337
UncalGyro,1676592321754,29378576899120,1.1840096,-1.052979,-2.2342396,0.0036532413,-0.00045820192,-0.0003133497
UncalAccel,1676592321754,29378576899120,1.2801601,0.16031912,9.515657,0.037048545,-0.031444572,0.0098014325
OrientationDeg,1676592321754,29378576899120,240.0,-4.0,-13.0
UncalMag,1676592321761,29378583581544,-155.3792,752.74,394.548,-174.57417,771.0116,430.86337
UncalGyro,1676592321763,29378585379487,0.9859365,-1.0876455,-2.4098635,0.0036532413,-0.00045820192,-0.0003133497
UncalAccel,1676592321763,29378585379487,1.2526426,0.34636107,9.857831,0.037048545,-0.031444572,0.0098014325
OrientationDeg,1676592321763,29378585379487,241.0,-4.0,-13.0
UncalMag,1676592321771,29378593581585,-155.9038,752.7278,394.4382,-174.57417,771.0116,430.86337
UncalGyro,1676592321771,29378593857006,0.7675522,-1.1835514,-2.5560129,0.0036532413,-0.00045820192,-0.0003133497
UncalAccel,1676592321771,29378593857006,1.0079765,0.4546363,9.846465,0.037048545,-0.031444572,0.0098014325
OrientationDeg,1676592321771,29378593857006,242.0,-4.0,-14.0
UncalGyro,1676592321780,29378602340394,0.5500842,-1.3828462,-2.6671903,0.0036532413,-0.00045820192,-0.0003133497
UncalAccel,1676592321780,29378602340394,0.7746763,0.56410795,9.5964155,0.037048545,-0.031444572,0.0098014325
UncalMag,1676592321781,29378603571209,-155.0376,753.167,393.9136,-174.57417,771.0116,430.86337
OrientationDeg,1676592321780,29378602340394,244.0,-4.0,-14.0
UncalGyro,1676592321788,29378610824180,0.3390302,-1.6930131,-2.7531698,0.0036532413,-0.00045820192,-0.0003133497
UncalAccel,1676592321788,29378610824180,0.6903293,0.69332033,9.313464,0.037048545,-0.031444572,0.0098014325
OrientationDeg,1676592321788,29378610824180,245.0,-5.0,-14.0
UncalMag,1676592321791,29378613587770,-155.00099,753.65497,392.9376,-174.57417,771.0116,430.86337
UncalGyro,1676592321797,29378619298596,0.13607024,-2.0505219,-2.8141034,0.0036532413,-0.00045820192,-0.0003133497
UncalAccel,1676592321797,29378619298596,0.73340017,0.68853474,9.313464,0.037048545,-0.031444572,0.0098014325
OrientationDeg,1676592321797,29378619298596,247.0,-6.0,-14.0
UncalMag,1676592321801,29378623571372,-156.13559,754.0088,393.9014,-174.57417,771.0116,430.86337
UncalGyro,1676592321805,29378627778648,-0.061086524,-2.3480134,-2.8484647,0.0036532413,-0.00045820192,-0.0003133497
UncalAccel,1676592321805,29378627778648,0.8985049,0.7369894,9.59163,0.037048545,-0.031444572,0.0098014325
OrientationDeg,1676592321805,29378627778648,248.0,-6.0,-15.0
UncalMag,1676592321811,29378633581505,-156.5138,754.5578,392.22998,-174.57417,771.0116,430.86337
UncalGyro,1676592321814,29378636265089,-0.24190263,-2.5392141,-2.8394544,0.0036532413,-0.00045820192,-0.0003133497
UncalAccel,1676592321814,29378636265089,1.2113664,0.8344969,9.87458,0.037048545,-0.031444572,0.0098014325
OrientationDeg,1676592321814,29378636265089,249.0,-7.0,-15.0
UncalMag,1676592321821,29378643581749,-156.4406,755.66797,391.1564,-174.57417,771.0116,430.86337
UncalGyro,1676592321822,29378644743125,-0.42485678,-2.473546,-2.7499626,0.0036532413,-0.00045820192,-0.0003133497
UncalAccel,1676592321822,29378644743125,1.5924234,0.9062816,11.30848,0.037048545,-0.031444572,0.0098014325
OrientationDeg,1676592321822,29378644743125,251.0,-8.0,-15.0
UncalMag,1676592321831,29378653571536,-157.2458,756.2536,390.949,-174.57417,771.0116,430.86337
UncalGyro,1676592321831,29378653226198,-0.61651576,-2.2047653,-2.5708263,0.0036532413,-0.00045820192,-0.0003133497
UncalAccel,1676592321831,29378653226198,1.7102699,1.1503495,12.023933,0.037048545,-0.031444572,0.0098014325
OrientationDeg,1676592321831,29378653226198,252.0,-9.0,-15.0
UncalGyro,1676592321839,29378661707564,-0.7903069,-2.0274618,-2.382527,0.0036532413,-0.00045820192,-0.0003133497
UncalAccel,1676592321839,29378661707564,1.5553347,1.4811572,11.395818,0.037048545,-0.031444572,0.0098014325
OrientationDeg,1676592321839,29378661707564,253.0,-9.0,-14.0
UncalMag,1676592321841,29378663570885,-157.7338,756.8392,390.6196,-174.57417,771.0116,430.86337
UncalGyro,1676592321848,29378670187707,-0.9637926,-1.9973767,-2.2553146,0.0036532413,-0.00045820192,-0.0003133497
UncalAccel,1676592321848,29378670187707,1.3674982,1.6438692,10.797014,0.037048545,-0.031444572,0.0098014325
OrientationDeg,1676592321848,29378670187707,255.0,-10.0,-14.0
UncalMag,1676592321851,29378673581831,-158.3194,757.437,390.2902,-174.57417,771.0116,430.86337
UncalGyro,1676592321856,29378678665581,-1.1606439,-2.109165,-2.2091942,0.0036532413,-0.00045820192,-0.0003133497
UncalAccel,1676592321856,29378678665581,1.2867404,1.6151553,10.17129,0.037048545,-0.031444572,0.0098014325
OrientationDeg,1676592321856,29378678665581,256.0,-11.0,-14.0
UncalMag,1676592321861,29378683570845,-158.75859,758.7058,389.5216,-174.57417,771.0116,430.86337
UncalGyro,1676592321865,29378687142582,-1.3883439,-2.3264804,-2.220037,0.0036532413,-0.00045820192,-0.0003133497
UncalAccel,1676592321865,29378687142582,1.3435699,1.3483555,9.738789,0.037048545,-0.031444572,0.0098014325
OrientationDeg,1676592321865,29378687142582,257.0,-12.0,-13.0
UncalMag,1676592321871,29378693570927,-159.5638,759.1938,389.05798,-174.57417,771.0116,430.86337
UncalGyro,1676592321873,29378695625573,-1.641395,-2.5670085,-2.254551,0.0036532413,-0.00045820192,-0.0003133497
UncalAccel,1676592321873,29378695625573,1.585245,1.1533405,9.564711,0.037048545,-0.031444572,0.0098014325
OrientationDeg,1676592321873,29378695625573,258.0,-13.0,-13.0
UncalMag,1676592321881,29378703578984,-160.3324,760.3894,388.63098,-174.57417,771.0116,430.86337
UncalGyro,1676592321882,29378704104170,-1.88849,-2.7491992,-2.2967007,0.0036532413,-0.00045820192,-0.0003133497
UncalAccel,1676592321882,29378704104170,1.7964116,1.1264212,9.461221,0.037048545,-0.031444572,0.0098014325
OrientationDeg,1676592321882,29378704104170,260.0,-14.0,-12.0
UncalGyro,1676592321890,29378712587253,-2.0899227,-2.8313603,-2.3518312,0.0036532413,-0.00045820192,-0.0003133497
UncalAccel,1676592321890,29378712587253,1.9274186,1.1515459,9.242277,0.037048545,-0.031444572,0.0098014325
UncalMag,1676592321891,29378713571253,-161.2352,760.96277,387.94778,-174.57417,771.0116,430.86337
OrientationDeg,1676592321890,29378712587253,261.0,-15.0,-11.0
UncalGyro,1676592321899,29378721070622,-2.1485658,-2.9729285,-2.359467,0.0036532413,-0.00045820192,-0.0003133497
UncalAccel,1676592321899,29378721070622,2.6392834,0.35413775,7.3322067,0.037048545,-0.031444572,0.0098014325
OrientationDeg,1676592321899,29378721070622,262.0,-16.0,-11.0
UncalMag,1676592321901,29378723581670,-161.9794,762.5,387.4842,-174.57417,771.0116,430.86337
UncalGyro,1676592321907,29378729548436,-1.9399554,-3.2068899,-2.1343632,0.0036532413,-0.00045820192,-0.0003133497
UncalAccel,1676592321907,29378729548436,3.891926,-1.0450653,6.469594,0.037048545,-0.031444572,0.0098014325
OrientationDeg,1676592321908,29378729548436,264.0,-17.0,-10.0
UncalMag,1676592321911,29378733568364,-163.4556,763.9396,387.14258,-174.57417,771.0116,430.86337
UncalGyro,1676592321916,29378738024297,-1.4946345,-3.0737212,-1.6766723,0.0036532413,-0.00045820192,-0.0003133497
UncalAccel,1676592321916,29378738024297,4.764708,-0.56470615,9.016156,0.037048545,-0.031444572,0.0098014325
OrientationDeg,1676592321916,29378738024297,265.0,-19.0,-10.0
UncalMag,1676592321921,29378743570847,-164.456,764.696,386.862,-174.57417,771.0116,430.86337
UncalGyro,1676592321924,29378746509313,-0.9275989,-2.3672554,-1.2066116,0.0036532413,-0.00045820192,-0.0003133497
UncalAccel,1676592321924,29378746509313,5.1086764,0.9906286,11.187044,0.037048545,-0.031444572,0.0098014325
OrientationDeg,1676592321924,29378746509313,265.0,-20.0,-9.0
UncalMag,1676592321931,29378753581833,-166.0786,765.4402,386.5936,-174.57417,771.0116,430.86337
UncalGyro,1676592321932,29378754986883,-0.33505958,-1.3924674,-0.8518516,0.0036532413,-0.00045820192,-0.0003133497
UncalAccel,1676592321932,29378754986883,4.855635,1.6067804,11.254043,0.037048545,-0.031444572,0.0098014325
OrientationDeg,1676592321932,29378754986883,266.0,-20.0,-9.0
UncalGyro,1676592321941,29378763469182,0.17165314,-0.45463645,-0.6534731,0.0036532413,-0.00045820192,-0.0003133497
UncalAccel,1676592321941,29378763469182,4.0594234,1.3016955,10.515259,0.037048545,-0.031444572,0.0098014325
UncalMag,1676592321941,29378763572882,-167.0058,765.7818,386.7034,-174.57417,771.0116,430.86337
OrientationDeg,1676592321941,29378763469182,266.0,-20.0,-10.0
UncalGyro,1676592321949,29378771950801,0.47586402,0.29046643,-0.6189592,0.0036532413,-0.00045820192,-0.0003133497
UncalAccel,1676592321949,29378771950801,3.473182,0.8003992,9.951151,0.037048545,-0.031444572,0.0098014325
OrientationDeg,1676592321949,29378771950801,266.0,-20.0,-10.0
UncalMag,1676592321951,29378773571498,-166.2738,765.5866,385.66638,-174.57417,771.0116,430.86337
UncalGyro,1676592321958,29378780426327,0.5635232,0.82527894,-0.7171558,0.0036532413,-0.00045820192,-0.0003133497
UncalAccel,1676592321958,29378780426327,2.9994032,0.70289165,9.433105,0.037048545,-0.031444572,0.0098014325
OrientationDeg,1676592321958,29378780426327,267.0,-20.0,-10.0
UncalMag,1676592321961,29378783581834,-167.2986,766.02576,386.5204,-174.57417,771.0116,430.86337
UncalGyro,1676592321966,29378788912156,0.515723,1.1705705,-0.906524,0.0036532413,-0.00045820192,-0.0003133497
UncalAccel,1676592321966,29378788912156,2.5585256,0.96909314,8.760722,0.037048545,-0.031444572,0.0098014325
OrientationDeg,1676592321966,29378788912156,267.0,-19.0,-11.0
UncalMag,1676592321971,29378793571092,-166.8106,765.51337,386.3862,-174.57417,771.0116,430.86337
UncalGyro,1676592321975,29378797390631,0.3923282,1.3545936,-1.1191051,0.0036532413,-0.00045820192,-0.0003133497
UncalAccel,1676592321975,29378797390631,2.1637099,1.2215359,8.260622,0.037048545,-0.031444572,0.0098014325
OrientationDeg,1676592321975,29378797390631,267.0,-18.0,-11.0
UncalMag,1676592321981,29378803569180,-165.9688,765.6354,386.8742,-174.57417,771.0116,430.86337
UncalGyro,1676592321983,29378805873379,0.22861631,1.4030048,-1.273654,0.0036532413,-0.00045820192,-0.0003133497
UncalAccel,1676592321983,29378805873379,1.82692,1.3304094,7.7946196,0.037048545,-0.031444572,0.0098014325
OrientationDeg,1676592321983,29378805873379,268.0,-17.0,-11.0
UncalMag,1676592321991,29378813578417,-164.82199,765.5378,386.1056,-174.57417,771.0116,430.86337
UncalGyro,1676592321992,29378814350084,0.056046885,1.3419182,-1.3501649,0.0036532413,-0.00045820192,-0.0003133497
UncalAccel,1676592321992,29378814350084,1.3477573,1.3812568,7.2903323,0.037048545,-0.031444572,0.0098014325
OrientationDeg,1676592321992,29378814350084,269.0,-17.0,-12.0
UncalGyro,1676592322000,29378822834083,-0.122020334,1.2267702,-1.3591752,0.0036532413,-0.00045820192,-0.0003133497
UncalAccel,1676592322000,29378822834083,0.87637126,1.3884354,6.9481587,0.037048545,-0.031444572,0.0098014325
OrientationDeg,1676592322000,29378822834083,269.0,-16.0,-12.0
UncalMag,1676592322001,29378823591804,-164.4804,765.8916,385.8128,-174.57417,771.0116,430.86337
UncalGyro,1676592322009,29378831317136,-0.3211624,1.0859656,-1.3147347,0.0036532413,-0.00045820192,-0.0003133497
UncalAccel,1676592322009,29378831317136,0.4869394,1.3866407,6.6406813,0.037048545,-0.031444572,0.0098014325
OrientationDeg,1676592322009,29378831317136,270.0,-15.0,-12.0
UncalMag,1676592322011,29378833581754,-163.55319,765.672,386.45938,-174.57417,771.0116,430.86337
UncalGyro,1676592322017,29378839795276,-0.5571091,0.95111716,-1.2281445,0.0036532413,-0.00045820192,-0.0003133497
UncalAccel,1676592322017,29378839795276,0.20578274,1.2891332,6.582057,0.037048545,-0.031444572,0.0098014325
OrientationDeg,1676592322017,29378839795276,271.0,-15.0,-12.0
UncalMag,1676592322021,29378843581713,-163.12619,765.855,386.61798,-174.57417,771.0116,430.86337
UncalGyro,1676592322026,29378848267545,-0.8240572,0.84788096,-1.1027645,0.0036532413,-0.00045820192,-0.0003133497
UncalAccel,1676592322026,29378848267545,-0.09032906,1.0713863,6.638288,0.037048545,-0.031444572,0.0098014325
OrientationDeg,1676592322026,29378848267545,271.0,-14.0,-11.0
UncalMag,1676592322031,29378853570890,-162.5772,766.3918,386.862,-174.57417,771.0116,430.86337
UncalGyro,1676592322034,29378856756203,-1.1067351,0.77534074,-0.9476047,0.0036532413,-0.00045820192,-0.0003133497
UncalAccel,1676592322034,29378856756203,-0.36729828,0.738784,6.829116,0.037048545,-0.031444572,0.0098014325
OrientationDeg,1676592322034,29378856756203,272.0,-14.0,-11.0
UncalMag,1676592322041,29378863580208,-162.1258,766.8432,386.9474,-174.57417,771.0116,430.86337
UncalGyro,1676592322043,29378865237069,-1.3826935,0.75594574,-0.75976366,0.0036532413,-0.00045820192,-0.0003133497
UncalAccel,1676592322043,29378865237069,-0.4211368,0.39780676,7.20778,0.037048545,-0.031444572,0.0098014325
OrientationDeg,1676592322043,29378865237069,272.0,-13.0,-10.0
UncalMag,1676592322051,29378873578255,-161.88179,767.38,387.3134,-174.57417,771.0116,430.86337
UncalGyro,1676592322051,29378873714323,-1.6285667,0.82772243,-0.5412266,0.0036532413,-0.00045820192,-0.0003133497
UncalAccel,1676592322051,29378873714323,-0.06699903,0.25004998,7.912466,0.037048545,-0.031444572,0.0098014325
OrientationDeg,1676592322051,29378873714323,273.0,-13.0,-10.0
UncalGyro,1676592322060,29378882197763,-1.6991217,1.3420709,-0.2929099,0.0036532413,-0.00045820192,-0.0003133497
UncalAccel,1676592322060,29378882197763,0.47138608,-0.6903293,13.97229,0.037048545,-0.031444572,0.0098014325
UncalMag,1676592322061,29378883571216,-161.2962,768.5146,386.8498,-174.57417,771.0116,430.86337
OrientationDeg,1676592322060,29378882197763,273.0,-12.0,-9.0
UncalGyro,1676592322068,29378890668201,-0.8220719,2.2062926,0.1994475,0.0036532413,-0.00045820192,-0.0003133497
UncalAccel,1676592322068,29378890668201,-0.18664017,-2.315654,12.282358,0.037048545,-0.031444572,0.0098014325
OrientationDeg,1676592322068,29378890668201,273.0,-11.0,-8.0
UncalMag,1676592322071,29378893582162,-160.7228,769.30756,386.77658,-174.57417,771.0116,430.86337
UncalGyro,1676592322077,29378899158619,0.49541172,1.2260065,0.9042333,0.0036532413,-0.00045820192,-0.0003133497
UncalAccel,1676592322077,29378899158619,-4.5852466,0.023928227,11.73201,0.037048545,-0.031444572,0.0098014325
OrientationDeg,1676592322077,29378899158619,273.0,-10.0,-9.0
UncalMag,1676592322081,29378903559986,-159.0636,769.1734,386.9474,-174.57417,771.0116,430.86337
UncalGyro,1676592322085,29378907639698,0.50991976,1.1400273,0.9437868,0.0036532413,-0.00045820192,-0.0003133497
UncalAccel,1676592322085,29378907639698,-1.8185452,1.634896,12.8721895,0.037048545,-0.031444572,0.0098014325
OrientationDeg,1676592322086,29378907639698,272.0,-10.0,-9.0
UncalMag,1676592322091,29378913581674,-159.0636,769.1734,386.9474,-174.57417,771.0116,430.86337
UncalGyro,1676592322094,29378916120391,0.121256754,0.8605564,0.72295904,0.0036532413,-0.00045820192,-0.0003133497
UncalAccel,1676592322094,29378916120391,0.52941203,0.96729857,8.246863,0.037048545,-0.031444572,0.0098014325
OrientationDeg,1676592322094,29378916120391,272.0,-9.0,-9.0
UncalMag,1676592322101,29378923581553,-159.0026,768.46576,386.5326,-174.57417,771.0116,430.86337
UncalGyro,1676592322102,29378924600859,-0.23732115,0.3857614,0.5561928,0.0036532413,-0.00045820192,-0.0003133497
UncalAccel,1676592322102,29378924600859,1.0247263,-0.20697916,7.4536424,0.037048545,-0.031444572,0.0098014325
OrientationDeg,1676592322102,29378924600859,271.0,-9.0,-9.0
UncalGyro,1676592322111,29378933078501,-0.42730024,0.025045475,0.5148067,0.0036532413,-0.00045820192,-0.0003133497
UncalAccel,1676592322111,29378933078501,1.0689936,-0.994816,9.133404,0.037048545,-0.031444572,0.0098014325
UncalMag,1676592322111,29378933576344,-158.3316,769.11237,387.6428,-174.57417,771.0116,430.86337
OrientationDeg,1676592322111,29378933078501,271.0,-9.0,-8.0
UncalGyro,1676592322119,29378941560384,-0.5154176,-0.22479841,0.46563202,0.0036532413,-0.00045820192,-0.0003133497
UncalAccel,1676592322119,29378941560384,2.0931215,0.12323037,8.885747,0.037048545,-0.031444572,0.0098014325
OrientationDeg,1676592322119,29378941560384,271.0,-9.0,-8.0
UncalMag,1676592322121,29378943578542,-158.8684,768.9172,387.1182,-174.57417,771.0116,430.86337
UncalGyro,1676592322128,29378950044902,-0.6621779,-0.3390302,0.37873647,0.0036532413,-0.00045820192,-0.0003133497
UncalAccel,1676592322128,29378950044902,2.8103702,-0.19860429,9.131011,0.037048545,-0.031444572,0.0098014325
OrientationDeg,1676592322129,29378950044902,271.0,-10.0,-8.0
UncalMag,1676592322131,29378953581757,-159.0636,769.1856,387.67938,-174.57417,771.0116,430.86337
UncalGyro,1676592322136,29378958523916,-0.7481572,-0.2864958,0.33200526,0.0036532413,-0.00045820192,-0.0003133497
UncalAccel,1676592322136,29378958523916,2.868396,-0.55752766,9.295518,0.037048545,-0.031444572,0.0098014325
OrientationDeg,1676592322136,29378958523916,271.0,-10.0,-7.0
UncalMag,1676592322141,29378963571178,-159.05139,769.3564,387.35,-174.57417,771.0116,430.86337
UncalGyro,1676592322145,29378967009033,-0.7487681,-0.16050485,0.2576324,0.0036532413,-0.00045820192,-0.0003133497
UncalAccel,1676592322145,29378967009033,3.196811,0.22492532,9.598808,0.037048545,-0.031444572,0.0098014325
OrientationDeg,1676592322145,29378967009033,271.0,-10.0,-7.0
UncalMag,1676592322151,29378973570934,-159.1368,769.6858,386.9474,-174.57417,771.0116,430.86337
UncalGyro,1676592322153,29378975485372,-0.68218374,0.02611449,0.17592919,0.0036532413,-0.00045820192,-0.0003133497
UncalAccel,1676592322153,29378975485372,3.4253256,0.3589234,10.310673,0.037048545,-0.031444572,0.0098014325
OrientationDeg,1676592322153,29378975485372,271.0,-10.0,-7.0
UncalMag,1676592322161,29378983581554,-159.3198,770.0274,386.557,-174.57417,771.0116,430.86337
UncalGyro,1676592322161,29378983962047,-0.61621034,0.27947086,0.18478674,0.0036532413,-0.00045820192,-0.0003133497
UncalAccel,1676592322161,29378983962047,3.3876386,-0.15433706,10.5900345,0.037048545,-0.031444572,0.0098014325
OrientationDeg,1676592322161,29378983962047,271.0,-10.0,-6.0
UncalGyro,1676592322170,29378992443299,-0.559858,0.5537493,0.26145032,0.0036532413,-0.00045820192,-0.0003133497
UncalAccel,1676592322170,29378992443299,3.1962128,-0.28953153,10.7228365,0.037048545,-0.031444572,0.0098014325
UncalMag,1676592322171,29378993571178,-158.8806,770.3934,387.1182,-174.57417,771.0116,430.86337
OrientationDeg,1676592322170,29378992443299,271.0,-10.0,-6.0
UncalGyro,1676592322178,29379000923718,-0.47540587,0.75945824,0.36896262,0.0036532413,-0.00045820192,-0.0003133497
UncalAccel,1676592322178,29379000923718,3.225525,-0.014955142,9.796216,0.037048545,-0.031444572,0.0098014325
OrientationDeg,1676592322178,29379000923718,270.0,-9.0,-6.0
UncalMag,1676592322181,29379003572684,-158.78299,770.247,387.67938,-174.57417,771.0116,430.86337
UncalGyro,1676592322187,29379009406130,-0.3239113,0.9294315,0.4841107,0.0036532413,-0.00045820192,-0.0003133497
UncalAccel,1676592322187,29379009406130,3.3804603,0.5808577,9.106484,0.037048545,-0.031444572,0.0098014325
OrientationDeg,1676592322187,29379009406130,270.0,-9.0,-5.0
UncalMag,1676592322191,29379013582124,-158.1364,770.613,388.1186,-174.57417,771.0116,430.86337
UncalGyro,1676592322195,29379017876792,-0.13530666,1.1377366,0.50717086,0.0036532413,-0.00045820192,-0.0003133497
UncalAccel,1676592322196,29379017876792,3.3936207,1.6169499,8.547761,0.037048545,-0.031444572,0.0098014325
OrientationDeg,1676592322195,29379017876792,270.0,-8.0,-5.0
UncalMag,1676592322201,29379023581474,-157.8436,770.3568,387.9234,-174.57417,771.0116,430.86337
UncalGyro,1676592322204,29379026367118,0.13622294,1.2070698,0.45066583,0.0036532413,-0.00045820192,-0.0003133497
UncalAccel,1676592322204,29379026367118,3.542574,2.5591238,7.164709,0.037048545,-0.031444572,0.0098014325
OrientationDeg,1676592322204,29379026367118,270.0,-8.0,-5.0
UncalMag,1676592322211,29379033581555,-157.4532,769.85657,388.2772,-174.57417,771.0116,430.86337
UncalGyro,1676592322212,29379034836875,0.5494733,1.2458596,0.2762638,0.0036532413,-0.00045820192,-0.0003133497
UncalAccel,1676592322212,29379034836875,3.4654055,3.4444683,7.23111,0.037048545,-0.031444572,0.0098014325
OrientationDeg,1676592322213,29379034836875,270.0,-7.0,-6.0
UncalGyro,1676592322221,29379043328158,0.9923506,1.3949108,0.03023783,0.0036532413,-0.00045820192,-0.0003133497
UncalAccel,1676592322221,29379043328158,2.8827531,4.421936,7.73779,0.037048545,-0.031444572,0.0098014325
UncalMag,1676592322221,29379043571586,-156.42839,769.4052,387.4232,-174.57417,771.0116,430.86337
OrientationDeg,1676592322221,29379043328158,270.0,-6.0,-6.0
UncalGyro,1676592322229,29379051808912,1.3300064,1.2475395,-0.23625213,0.0036532413,-0.00045820192,-0.0003133497
UncalAccel,1676592322229,29379051808912,2.3670998,4.7605205,6.687939,0.037048545,-0.031444572,0.0098014325
UncalMag,1676592322231,29379053570895,-156.16,768.844,388.6066,-174.57417,771.0116,430.86337
OrientationDeg,1676592322229,29379051808912,270.0,-6.0,-7.0
UncalGyro,1676592322238,29379060289198,1.4698945,0.9746355,-0.4427246,0.0036532413,-0.00045820192,-0.0003133497
UncalAccel,1676592322238,29379060289198,2.7559335,4.45065,7.3746796,0.037048545,-0.031444572,0.0098014325
OrientationDeg,1676592322238,29379060289198,270.0,-5.0,-8.0
UncalMag,1676592322241,29379063566379,-155.733,769.0514,389.74118,-174.57417,771.0116,430.86337
UncalGyro,1676592322246,29379068768639,1.4054482,0.66859204,-0.6038403,0.0036532413,-0.00045820192,-0.0003133497
UncalAccel,1676592322246,29379068768639,2.6638098,4.415356,8.199605,0.037048545,-0.031444572,0.0098014325
OrientationDeg,1676592322246,29379068768639,270.0,-5.0,-8.0
UncalMag,1676592322251,29379073600599,-155.367,768.0754,388.7774,-174.57417,771.0116,430.86337
UncalGyro,1676592322255,29379077247236,1.1383474,0.37110063,-0.7510588,0.0036532413,-0.00045820192,-0.0003133497
UncalAccel,1676592322255,29379077247236,2.2989044,4.5266223,8.955737,0.037048545,-0.031444572,0.0098014325
OrientationDeg,1676592322255,29379077247236,270.0,-5.0,-9.0
UncalMag,1676592322261,29379083581597,-154.9766,767.746,389.1678,-174.57417,771.0116,430.86337
UncalGyro,1676592322263,29379085730859,0.71669763,0.061086524,-0.8935431,0.0036532413,-0.00045820192,-0.0003133497
UncalAccel,1676592322263,29379085730859,2.1296122,4.6725845,9.77468,0.037048545,-0.031444572,0.0098014325
OrientationDeg,1676592322263,29379085730859,271.0,-5.0,-9.0
UncalMag,1676592322271,29379093581597,-155.0864,767.4898,389.2288,-174.57417,771.0116,430.86337
UncalGyro,1676592322272,29379094211307,0.20647246,-0.15958855,-1.0370965,0.0036532413,-0.00045820192,-0.0003133497
UncalAccel,1676592322272,29379094211307,2.2235305,4.662415,10.643873,0.037048545,-0.031444572,0.0098014325
OrientationDeg,1676592322272,29379094211307,271.0,-5.0,-9.0
UncalGyro,1676592322280,29379102692325,-0.30925053,-0.22403483,-1.1530081,0.0036532413,-0.00045820192,-0.0003133497
UncalAccel,1676592322280,29379102692325,2.484348,4.3998027,11.148161,0.037048545,-0.031444572,0.0098014325
UncalMag,1676592322281,29379103571140,-155.8794,768.3194,388.6066,-174.57417,771.0116,430.86337
OrientationDeg,1676592322280,29379102692325,272.0,-5.0,-9.0
UncalGyro,1676592322289,29379111184524,-0.7492262,-0.14370605,-1.2296717,0.0036532413,-0.00045820192,-0.0003133497
UncalAccel,1676592322289,29379111184524,2.8869405,4.1868415,11.161322,0.037048545,-0.031444572,0.0098014325
UncalMag,1676592322292,29379113581801,-155.6476,768.68536,388.9238,-174.57417,771.0116,430.86337
OrientationDeg,1676592322289,29379111184524,272.0,-5.0,-9.0
UncalGyro,1676592322297,29379119653203,-1.0680978,0.010995574,-1.264033,0.0036532413,-0.00045820192,-0.0003133497
UncalAccel,1676592322297,29379119653203,3.2362926,3.882953,10.730613,0.037048545,-0.031444572,0.0098014325
OrientationDeg,1676592322297,29379119653203,273.0,-4.0,-9.0
UncalMag,1676592322301,29379123581842,-155.0742,769.5028,389.47278,-174.57417,771.0116,430.86337
UncalGyro,1676592322306,29379128122798,-1.2562444,0.15515977,-1.2565498,0.0036532413,-0.00045820192,-0.0003133497
UncalAccel,1676592322306,29379128122798,3.3523445,3.5491543,10.127024,0.037048545,-0.031444572,0.0098014325
OrientationDeg,1676592322306,29379128122798,274.0,-4.0,-8.0
UncalMag,1676592322311,29379133571426,-155.367,769.7224,388.4358,-174.57417,771.0116,430.86337
UncalGyro,1676592322314,29379136610631,-1.3217597,0.2321288,-1.2061534,0.0036532413,-0.00045820192,-0.0003133497
UncalAccel,1676592322314,29379136610631,3.14716,3.1082766,9.755538,0.037048545,-0.031444572,0.0098014325
OrientationDeg,1676592322314,29379136610631,274.0,-4.0,-7.0
UncalMag,1676592322321,29379143582046,-155.611,771.01556,388.15518,-174.57417,771.0116,430.86337
UncalGyro,1676592322323,29379145094243,-1.2907583,0.2582433,-1.1432343,0.0036532413,-0.00045820192,-0.0003133497
UncalAccel,1676592322323,29379145094243,2.7032914,2.664408,9.90808,0.037048545,-0.031444572,0.0098014325
OrientationDeg,1676592322323,29379145094243,275.0,-4.0,-7.0
UncalGyro,1676592322331,29379153574884,-1.2093605,0.2959642,-1.0740538,0.0036532413,-0.00045820192,-0.0003133497
UncalAccel,1676592322331,29379153574884,2.1619153,2.219343,10.383654,0.037048545,-0.031444572,0.0098014325
UncalMag,1676592322331,29379153589574,-155.1718,771.3816,388.47238,-174.57417,771.0116,430.86337
OrientationDeg,1676592322331,29379153574884,276.0,-4.0,-6.0
UncalGyro,1676592322340,29379162055537,-1.1174252,0.3565926,-0.98837996,0.0036532413,-0.00045820192,-0.0003133497
UncalAccel,1676592322340,29379162055537,1.7018951,1.7700906,10.79821,0.037048545,-0.031444572,0.0098014325
UncalMag,1676592322341,29379163565120,-154.5984,772.199,389.0092,-174.57417,771.0116,430.86337
OrientationDeg,1676592322340,29379162055537,276.0,-3.0,-6.0
UncalGyro,1676592322348,29379170536016,-1.0351112,0.41783184,-0.8917105,0.0036532413,-0.00045820192,-0.0003133497
UncalAccel,1676592322348,29379170536016,1.375873,1.480559,11.074581,0.037048545,-0.031444572,0.0098014325
OrientationDeg,1676592322348,29379170536016,277.0,-3.0,-5.0
UncalMag,1676592322351,29379173570979,-154.5374,773.2604,389.5094,-174.57417,771.0116,430.86337
UncalGyro,1676592322357,29379179016617,-0.97203934,0.4775439,-0.79534656,0.0036532413,-0.00045820192,-0.0003133497
UncalAccel,1676592322357,29379179016617,1.0552348,1.3010973,11.260025,0.037048545,-0.031444572,0.0098014325
OrientationDeg,1676592322357,29379179016617,277.0,-3.0,-5.0
UncalMag,1676592322361,29379183572444,-154.513,773.5166,389.5704,-174.57417,771.0116,430.86337
UncalGyro,1676592322365,29379187494981,-0.91828316,0.5203045,-0.7076874,0.0036532413,-0.00045820192,-0.0003133497
UncalAccel,1676592322365,29379187494981,0.70229346,1.1551352,11.248659,0.037048545,-0.031444572,0.0098014325
OrientationDeg,1676592322366,29379187494981,277.0,-3.0,-4.0
UncalMag,1676592322371,29379193578345,-154.1836,773.77277,389.0092,-174.57417,771.0116,430.86337
UncalGyro,1676592322373,29379195974667,-0.8552113,0.5297729,-0.6310238,0.0036532413,-0.00045820192,-0.0003133497
UncalAccel,1676592322373,29379195974667,0.27218357,1.0899308,11.19841,0.037048545,-0.031444572,0.0098014325
OrientationDeg,1676592322373,29379195974667,278.0,-2.0,-4.0
UncalMag,1676592322381,29379203571021,-153.9518,774.29736,389.1312,-174.57417,771.0116,430.86337
UncalGyro,1676592322382,29379204460913,-0.7666359,0.5297729,-0.5751296,0.0036532413,-0.00045820192,-0.0003133497
UncalAccel,1676592322382,29379204460913,-0.20757736,1.2879368,11.304293,0.037048545,-0.031444572,0.0098014325
OrientationDeg,1676592322382,29379204460913,278.0,-2.0,-4.0
UncalGyro,1676592322390,29379212935604,-0.6450737,0.5578727,-0.56107974,0.0036532413,-0.00045820192,-0.0003133497
UncalAccel,1676592322390,29379212935604,-0.71724856,1.5577276,11.47179,0.037048545,-0.031444572,0.0098014325
UncalMag,1676592322391,29379213575945,-153.9274,774.5658,388.9604,-174.57417,771.0116,430.86337
OrientationDeg,1676592322390,29379212935604,278.0,-2.0,-3.0
UncalGyro,1676592322399,29379221419309,-0.5039638,0.61926466,-0.57787853,0.0036532413,-0.00045820192,-0.0003133497
UncalAccel,1676592322399,29379221419309,-1.2927225,1.7359928,11.510076,0.037048545,-0.031444572,0.0098014325
OrientationDeg,1676592322399,29379221419309,279.0,-1.0,-3.0
UncalMag,1676592322401,29379223581804,-153.78099,775.35876,389.26538,-174.57417,771.0116,430.86337
UncalGyro,1676592322407,29379229899442,-0.37491855,0.6939429,-0.6070473,0.0036532413,-0.00045820192,-0.0003133497
UncalAccel,1676592322407,29379229899442,-1.8418752,1.7234305,11.406586,0.037048545,-0.031444572,0.0098014325
OrientationDeg,1676592322407,29379229899442,279.0,-1.0,-3.0
UncalMag,1676592322411,29379233581682,-153.7688,775.46857,389.8876,-174.57417,771.0116,430.86337
UncalGyro,1676592322416,29379238379931,-0.27397305,0.74189585,-0.6275113,0.0036532413,-0.00045820192,-0.0003133497
UncalAccel,1676592322416,29379238379931,-2.3222344,1.5481563,11.218151,0.037048545,-0.031444572,0.0098014325
OrientationDeg,1676592322416,29379238379931,279.0,-1.0,-3.0
UncalMag,1676592322421,29379243575376,-152.9392,775.46857,389.63138,-174.57417,771.0116,430.86337
UncalGyro,1676592322424,29379246861376,-0.20387627,0.7255552,-0.63361996,0.0036532413,-0.00045820192,-0.0003133497
UncalAccel,1676592322424,29379246861376,-2.6973093,1.3310076,10.944771,0.037048545,-0.031444572,0.0098014325
OrientationDeg,1676592322424,29379246861376,279.0,0.0,-3.0
UncalMag,1676592322431,29379253571836,-152.7196,775.6516,389.668,-174.57417,771.0116,430.86337
UncalGyro,1676592322433,29379255331042,-0.14844026,0.6608035,-0.6230826,0.0036532413,-0.00045820192,-0.0003133497
UncalAccel,1676592322433,29379255331042,-2.9437702,1.1234303,10.79163,0.037048545,-0.031444572,0.0098014325
OrientationDeg,1676592322433,29379255331042,280.0,0.0,-3.0
UncalMag,1676592322441,29379263578591,-152.69519,775.9322,390.21698,-174.57417,771.0116,430.86337
UncalGyro,1676592322441,29379263815966,-0.08827003,0.5758932,-0.59681535,0.0036532413,-0.00045820192,-0.0003133497
UncalAccel,1676592322441,29379263815966,-3.0604203,0.86919284,10.639088,0.037048545,-0.031444572,0.0098014325
OrientationDeg,1676592322441,29379263815966,280.0,0.0,-3.0
UncalGyro,1676592322450,29379272302497,0.0025961774,0.47952923,-0.5513059,0.0036532413,-0.00045820192,-0.0003133497
UncalAccel,1676592322450,29379272302497,-3.004787,0.5629115,10.43151,0.037048545,-0.031444572,0.0098014325
UncalMag,1676592322451,29379273571267,-152.4634,776.3592,389.94858,-174.57417,771.0116,430.86337
OrientationDeg,1676592322450,29379272302497,280.0,0.0,-3.0
UncalGyro,1676592322458,29379280785450,0.14767668,0.38927388,-0.48517972,0.0036532413,-0.00045820192,-0.0003133497
UncalAccel,1676592322458,29379280785450,-2.7876384,0.3493521,10.275977,0.037048545,-0.031444572,0.0098014325
OrientationDeg,1676592322458,29379280785450,281.0,0.0,-3.0
UncalMag,1676592322461,29379283571186,-152.35359,776.5544,390.6074,-174.57417,771.0116,430.86337
UncalGyro,1676592322467,29379289253356,0.34590244,0.34101552,-0.39400807,0.0036532413,-0.00045820192,-0.0003133497
UncalAccel,1676592322467,29379289253356,-2.4849463,0.18843478,10.240683,0.037048545,-0.031444572,0.0098014325
OrientationDeg,1676592322467,29379289253356,281.0,0.0,-3.0
UncalMag,1676592322471,29379293583108,-152.3658,776.3714,390.3146,-174.57417,771.0116,430.86337
UncalGyro,1676592322475,29379297733672,0.5681047,0.3294091,-0.28512135,0.0036532413,-0.00045820192,-0.0003133497
UncalAccel,1676592322475,29379297733672,-2.2348964,0.11365908,10.094721,0.037048545,-0.031444572,0.0098014325
OrientationDeg,1676592322475,29379297733672,281.0,0.0,-3.0
UncalMag,1676592322481,29379303571023,-152.06079,776.20056,390.26578,-174.57417,771.0116,430.86337
UncalGyro,1676592322484,29379306224354,0.78877974,0.31474832,-0.16508633,0.0036532413,-0.00045820192,-0.0003133497
UncalAccel,1676592322484,29379306224354,-2.12363,0.17168503,9.866206,0.037048545,-0.031444572,0.0098014325
OrientationDeg,1676592322484,29379306224354,281.0,0.0,-4.0
UncalMag,1676592322491,29379313570861,-152.0974,775.493,389.9852,-174.57417,771.0116,430.86337
UncalGyro,1676592322492,29379314702554,0.9935723,0.2773328,-0.047494773,0.0036532413,-0.00045820192,-0.0003133497
UncalAccel,1676592322492,29379314702554,-2.103291,0.3595216,9.645468,0.037048545,-0.031444572,0.0098014325
OrientationDeg,1676592322492,29379314702554,281.0,0.0,-4.0
UncalGyro,1676592322501,29379323174732,1.1650727,0.21853705,0.050549097,0.0036532413,-0.00045820192,-0.0003133497
UncalAccel,1676592322501,29379323174732,-2.1804597,0.66101724,9.462418,0.037048545,-0.031444572,0.0098014325
UncalMag,1676592322501,29379323569437,-151.76799,775.77356,390.27798,-174.57417,771.0116,430.86337
OrientationDeg,1676592322501,29379323174732,281.0,1.0,-5.0
UncalGyro,1676592322509,29379331668783,1.2976305,0.14401148,0.11957687,0.0036532413,-0.00045820192,-0.0003133497
UncalAccel,1676592322509,29379331668783,-2.2534406,1.0582259,9.35474,0.037048545,-0.031444572,0.0098014325
UncalMag,1676592322511,29379333581563,-151.3044,774.82196,390.2902,-174.57417,771.0116,430.86337
OrientationDeg,1676592322509,29379331668783,281.0,1.0,-5.0
UncalGyro,1676592322518,29379340149393,1.3935363,0.06001751,0.15790866,0.0036532413,-0.00045820192,-0.0003133497
UncalAccel,1676592322518,29379340149393,-2.2354946,1.4464613,9.28116,0.037048545,-0.031444572,0.0098014325
UncalMag,1676592322521,29379343571350,-151.26779,773.7972,390.64398,-174.57417,771.0116,430.86337
OrientationDeg,1676592322518,29379340149393,281.0,1.0,-6.0
UncalGyro,1676592322526,29379348629618,1.4523321,-0.020005837,0.17180584,0.0036532413,-0.00045820192,-0.0003133497
UncalAccel,1676592322527,29379348629618,-2.14696,1.7533408,9.333204,0.037048545,-0.031444572,0.0098014325
UncalMag,1676592322531,29379353571350,-151.28,773.54095,390.827,-174.57417,771.0116,430.86337
OrientationDeg,1676592322526,29379348629618,281.0,1.0,-7.0
UncalGyro,1676592322535,29379357102030,1.4697418,-0.08277224,0.16890424,0.0036532413,-0.00045820192,-0.0003133497
UncalAccel,1676592322535,29379357102030,-1.9806589,1.9076779,9.381062,0.037048545,-0.031444572,0.0098014325
OrientationDeg,1676592322535,29379357102030,281.0,1.0,-7.0
UncalMag,1676592322541,29379363581482,-151.9388,772.8822,389.8388,-174.57417,771.0116,430.86337
UncalGyro,1676592322544,29379365590881,1.446987,-0.13164146,0.16401732,0.0036532413,-0.00045820192,-0.0003133497
UncalAccel,1676592322543,29379365590881,-1.7419748,1.942972,9.406186,0.037048545,-0.031444572,0.0098014325
OrientationDeg,1676592322543,29379365590881,281.0,0.0,-8.0
UncalMag,1676592322551,29379373581523,-151.0482,772.2234,390.4976,-174.57417,771.0116,430.86337
UncalGyro,1676592322552,29379374065735,1.3855951,-0.16401732,0.16279559,0.0036532413,-0.00045820192,-0.0003133497
UncalAccel,1676592322552,29379374065735,-1.4985052,1.9537396,9.46481,0.037048545,-0.031444572,0.0098014325
OrientationDeg,1676592322552,29379374065735,281.0,0.0,-9.0
UncalGyro,1676592322560,29379382549296,1.3019066,-0.18845193,0.16172658,0.0036532413,-0.00045820192,-0.0003133497
UncalAccel,1676592322560,29379382549296,-1.268196,1.9166509,9.447462,0.037048545,-0.031444572,0.0098014325
UncalMag,1676592322561,29379383571188,-151.8046,771.6988,390.75378,-174.57417,771.0116,430.86337
OrientationDeg,1676592322560,29379382549296,281.0,0.0,-9.0
UncalGyro,1676592322569,29379391031893,1.2121093,-0.21242839,0.16325374,0.0036532413,-0.00045820192,-0.0003133497
UncalAccel,1676592322569,29379391031893,-1.0911272,1.8843478,9.391231,0.037048545,-0.031444572,0.0098014325
OrientationDeg,1676592322569,29379391031893,280.0,0.0,-10.0
UncalMag,1676592322571,29379393582175,-151.8534,770.90576,390.69278,-174.57417,771.0116,430.86337
UncalGyro,1676592322577,29379399499808,1.134224,-0.22067507,0.16523905,0.0036532413,-0.00045820192,-0.0003133497
UncalAccel,1676592322577,29379399499808,-0.9098708,1.942972,9.468399,0.037048545,-0.031444572,0.0098014325
OrientationDeg,1676592322577,29379399499808,280.0,0.0,-10.0
UncalMag,1676592322581,29379403572206,-151.646,770.9912,390.461,-174.57417,771.0116,430.86337
UncalGyro,1676592322585,29379407982434,1.0780244,-0.17623462,0.15851954,0.0036532413,-0.00045820192,-0.0003133497
UncalAccel,1676592322585,29379407982434,-0.73519474,2.0494525,9.64128,0.037048545,-0.031444572,0.0098014325
OrientationDeg,1676592322585,29379407982434,280.0,0.0,-11.0
UncalMag,1676592322591,29379413574078,-151.6826,770.28357,390.05838,-174.57417,771.0116,430.86337
UncalGyro,1676592322594,29379416471661,1.0364856,-0.076052725,0.15607607,0.0036532413,-0.00045820192,-0.0003133497
UncalAccel,1676592322594,29379416471661,-0.6263213,2.0781665,9.794421,0.037048545,-0.031444572,0.0098014325
OrientationDeg,1676592322594,29379416471661,280.0,0.0,-11.0
UncalMag,1676592322601,29379423581524,-151.9876,770.4178,389.2532,-174.57417,771.0116,430.86337
UncalGyro,1676592322602,29379424952038,0.9934196,0.05100725,0.15928312,0.0036532413,-0.00045820192,-0.0003133497
UncalAccel,1676592322602,29379424952038,-0.6119644,2.0685952,9.803992,0.037048545,-0.031444572,0.0098014325
OrientationDeg,1676592322602,29379424952038,280.0,0.0,-12.0
UncalGyro,1676592322611,29379433421856,0.9392053,0.16035213,0.160963,0.0036532413,-0.00045820192,-0.0003133497
UncalAccel,1676592322611,29379433421856,-0.66400826,2.1020947,9.689137,0.037048545,-0.031444572,0.0098014325
UncalMag,1676592322611,29379433567446,-152.2804,769.0636,390.4976,-174.57417,771.0116,430.86337
OrientationDeg,1676592322611,29379433421856,280.0,0.0,-12.0
UncalGyro,1676592322619,29379441910159,0.86467975,0.23197608,0.15745051,0.0036532413,-0.00045820192,-0.0003133497
UncalAccel,1676592322619,29379441910159,-0.82013994,2.1445673,9.458828,0.037048545,-0.031444572,0.0098014325
UncalMag,1676592322621,29379443571271,-152.2804,769.0636,390.4976,-174.57417,771.0116,430.86337
OrientationDeg,1676592322619,29379441910159,280.0,0.0,-13.0
UncalGyro,1676592322628,29379450393059,0.7828238,0.25305092,0.13958271,0.0036532413,-0.00045820192,-0.0003133497
UncalAccel,1676592322628,29379450393059,-1.0959128,2.2342982,9.17468,0.037048545,-0.031444572,0.0098014325
OrientationDeg,1676592322628,29379450393059,280.0,0.0,-13.0
UncalMag,1676592322631,29379453571068,-151.8168,768.0266,390.6074,-174.57417,771.0116,430.86337
UncalGyro,1676592322636,29379458876915,0.7139487,0.23014349,0.09285152,0.0036532413,-0.00045820192,-0.0003133497
UncalAccel,1676592322637,29379458876915,-1.3579268,2.4346972,8.885747,0.037048545,-0.031444572,0.0098014325
OrientationDeg,1676592322636,29379458876915,280.0,0.0,-14.0
UncalMag,1676592322641,29379463592959,-151.5972,768.1974,390.156,-174.57417,771.0116,430.86337
UncalGyro,1676592322645,29379467342471,0.6719518,0.17944166,0.025809057,0.0036532413,-0.00045820192,-0.0003133497
UncalAccel,1676592322645,29379467342471,-1.538585,2.5728827,8.688339,0.037048545,-0.031444572,0.0098014325
OrientationDeg,1676592322645,29379467342471,280.0,0.0,-14.0
UncalMag,1676592322651,29379473580183,-151.7314,767.7582,390.42438,-174.57417,771.0116,430.86337
UncalGyro,1676592322653,29379475835299,0.65270954,0.12110403,-0.056505036,0.0036532413,-0.00045820192,-0.0003133497
UncalAccel,1676592322653,29379475835299,-1.6301104,2.658426,8.635098,0.037048545,-0.031444572,0.0098014325
OrientationDeg,1676592322653,29379475835299,280.0,0.0,-14.0
UncalMag,1676592322661,29379483581689,-151.524,767.7826,391.0222,-174.57417,771.0116,430.86337
UncalGyro,1676592322662,29379484318403,0.65408397,0.06093381,-0.1469131,0.0036532413,-0.00045820192,-0.0003133497
UncalAccel,1676592322662,29379484318403,-1.6157535,2.696711,8.653643,0.037048545,-0.031444572,0.0098014325
OrientationDeg,1676592322662,29379484318403,280.0,1.0,-15.0
UncalGyro,1676592322670,29379492796227,0.66950834,-0.0053450707,-0.23823744,0.0036532413,-0.00045820192,-0.0003133497
UncalAccel,1676592322670,29379492796227,-1.5110675,2.6973093,8.740383,0.037048545,-0.031444572,0.0098014325
UncalMag,1676592322671,29379493574405,-151.646,767.5386,391.4492,-174.57417,771.0116,430.86337
OrientationDeg,1676592322670,29379492796227,280.0,1.0,-15.0
UncalGyro,1676592322679,29379501266372,0.70188415,-0.06078109,-0.32421672,0.0036532413,-0.00045820192,-0.0003133497
UncalAccel,1676592322679,29379501266372,-1.4075779,2.6446671,8.95155,0.037048545,-0.031444572,0.0098014325
UncalMag,1676592322681,29379503589298,-151.4752,766.8066,390.42438,-174.57417,771.0116,430.86337
OrientationDeg,1676592322679,29379501266372,280.0,1.0,-15.0
UncalGyro,1676592322687,29379509756311,0.74113226,-0.07895433,-0.3911065,0.0036532413,-0.00045820192,-0.0003133497
UncalAccel,1676592322687,29379509756311,-1.2981063,2.477768,9.196216,0.037048545,-0.031444572,0.0098014325
UncalMag,1676592322691,29379513578475,-151.6704,767.075,390.8636,-174.57417,771.0116,430.86337
OrientationDeg,1676592322687,29379509756311,281.0,1.0,-16.0
UncalGyro,1676592322696,29379518228337,0.788627,-0.07162395,-0.42348233,0.0036532413,-0.00045820192,-0.0003133497
UncalAccel,1676592322696,29379518228337,-1.1976078,2.2863421,9.283554,0.037048545,-0.031444572,0.0098014325
OrientationDeg,1676592322696,29379518228337,281.0,1.0,-16.0
UncalMag,1676592322701,29379523584904,-151.707,766.45276,390.2292,-174.57417,771.0116,430.86337
UncalGyro,1676592322705,29379526719578,0.84299403,-0.05787948,-0.42470407,0.0036532413,-0.00045820192,-0.0003133497
UncalAccel,1676592322704,29379526719578,-1.1497513,2.1954148,9.375079,0.037048545,-0.031444572,0.0098014325
OrientationDeg,1676592322704,29379526719578,281.0,1.0,-16.0
UncalMag,1676592322711,29379533581568,-151.92659,766.2942,390.9246,-174.57417,771.0116,430.86337
UncalGyro,1676592322713,29379535189539,0.9056077,-0.02565634,-0.41034874,0.0036532413,-0.00045820192,-0.0003133497
UncalAccel,1676592322713,29379535189539,-1.1694921,2.1427727,9.475577,0.037048545,-0.031444572,0.0098014325
OrientationDeg,1676592322713,29379535189539,281.0,1.0,-17.0
UncalMag,1676592322721,29379543581609,-151.92659,766.3674,390.32678,-174.57417,771.0116,430.86337
UncalGyro,1676592322721,29379543668868,0.97341377,0.022602014,-0.38545597,0.0036532413,-0.00045820192,-0.0003133497
UncalAccel,1676592322721,29379543668868,-1.1988041,2.1517458,9.537193,0.037048545,-0.031444572,0.0098014325
OrientationDeg,1676592322721,29379543668868,281.0,1.0,-17.0
UncalGyro,1676592322730,29379552160100,1.0351112,0.08628472,-0.36270124,0.0036532413,-0.00045820192,-0.0003133497
UncalAccel,1676592322730,29379552160100,-1.2759727,2.2857437,9.593424,0.037048545,-0.031444572,0.0098014325
UncalMag,1676592322731,29379553571111,-151.8534,765.8428,390.4488,-174.57417,771.0116,430.86337
OrientationDeg,1676592322730,29379552160100,282.0,1.0,-18.0
UncalGyro,1676592322738,29379560640519,1.0838276,0.15790866,-0.35476,0.0036532413,-0.00045820192,-0.0003133497
UncalAccel,1676592322738,29379560640519,-1.4201403,2.4765713,9.524631,0.037048545,-0.031444572,0.0098014325
OrientationDeg,1676592322738,29379560640519,282.0,1.0,-18.0
UncalMag,1676592322741,29379563571396,-151.6704,765.4158,390.461,-174.57417,771.0116,430.86337
UncalGyro,1676592322747,29379569124120,1.1334605,0.20204368,-0.3651447,0.0036532413,-0.00045820192,-0.0003133497
UncalAccel,1676592322747,29379569124120,-1.5726827,2.71047,9.302696,0.037048545,-0.031444572,0.0098014325
OrientationDeg,1676592322747,29379569124120,282.0,1.0,-19.0
UncalMag,1676592322751,29379573580836,-151.6826,765.1718,391.132,-174.57417,771.0116,430.86337
UncalGyro,1676592322755,29379577590582,1.183246,0.2396119,-0.39400807,0.0036532413,-0.00045820192,-0.0003133497
UncalAccel,1676592322755,29379577590582,-1.7443677,2.8677979,9.100503,0.037048545,-0.031444572,0.0098014325
OrientationDeg,1676592322756,29379577590582,282.0,1.0,-19.0
UncalMag,1676592322761,29379583578314,-151.4142,764.4032,391.6688,-174.57417,771.0116,430.86337
UncalGyro,1676592322764,29379586079067,1.2218832,0.27275133,-0.42745295,0.0036532413,-0.00045820192,-0.0003133497
UncalAccel,1676592322764,29379586079067,-1.8478572,2.934797,8.794222,0.037048545,-0.031444572,0.0098014325
OrientationDeg,1676592322764,29379586079067,283.0,2.0,-20.0
UncalMag,1676592322771,29379593581569,-151.45079,763.7688,390.6684,-174.57417,771.0116,430.86337
