# 
# Header Description:
# 
# Version: v3.0.5.6 Platform: 13 Manufacturer: Google Model: Pixel 6
# 
# Raw,utcTimeMillis,TimeNanos,LeapSecond,TimeUncertaintyNanos,FullBiasNanos,BiasNanos,BiasUncertaintyNanos,DriftNanosPerSecond,DriftUncertaintyNanosPerSecond,HardwareClockDiscontinuityCount,Svid,TimeOffsetNanos,State,ReceivedSvTimeNanos,ReceivedSvTimeUncertaintyNanos,Cn0DbHz,PseudorangeRateMetersPerSecond,PseudorangeRateUncertaintyMetersPerSecond,AccumulatedDeltaRangeState,AccumulatedDeltaRangeMeters,AccumulatedDeltaRangeUncertaintyMeters,CarrierFrequencyHz,CarrierCycles,CarrierPhase,CarrierPhaseUncertainty,MultipathIndicator,SnrInDb,ConstellationType,AgcDb,BasebandCn0DbHz,FullInterSignalBiasNanos,FullInterSignalBiasUncertaintyNanos,SatelliteInterSignalBiasNanos,SatelliteInterSignalBiasUncertaintyNanos,CodeType,ChipsetElapsedRealtimeNanos
# 
# UncalAccel,utcTimeMillis,elapsedRealtimeNanos,UncalAccelXMps2,UncalAccelYMps2,UncalAccelZMps2,BiasXMps2,BiasYMps2,BiasZMps2
# 
# Accel,utcTimeMillis,elapsedRealtimeNanos,AccelXMps2,AccelYMps2,AccelZMps2
# 
# UncalGyro,utcTimeMillis,elapsedRealtimeNanos,UncalGyroXRadPerSec,UncalGyroYRadPerSec,UncalGyroZRadPerSec,DriftXRadPerSec,DriftYRadPerSec,DriftZRadPerSec
# 
# Gyro,utcTimeMillis,elapsedRealtimeNanos,GyroXRadPerSec,GyroYRadPerSec,GyroZRadPerSec
# 
# UncalMag,utcTimeMillis,elapsedRealtimeNanos,UncalMagXMicroT,UncalMagYMicroT,UncalMagZMicroT,BiasXMicroT,BiasYMicroT,BiasZMicroT
# 
# Mag,utcTimeMillis,elapsedRealtimeNanos,MagXMicroT,MagYMicroT,MagZMicroT
# 
# OrientationDeg,utcTimeMillis,elapsedRealtimeNanos,yawDeg,rollDeg,pitchDeg
# 
# Fix,Provider,LatitudeDegrees,LongitudeDegrees,AltitudeMeters,SpeedMps,AccuracyMeters,BearingDegrees,UnixTimeMillis,SpeedAccuracyMps,BearingAccuracyDegrees,elapsedRealtimeNanos,VerticalAccuracyMeters
# 
# Nav,Svid,Type,Status,MessageId,Sub-messageId,Data(Bytes)
# 
# Status,UnixTimeMillis,SignalCount,SignalIndex,ConstellationType,Svid,CarrierFrequencyHz,Cn0DbHz,AzimuthDegrees,ElevationDegrees,UsedInFix,HasAlmanacData,HasEphemerisData,BasebandCn0DbHz
# 
UncalAccel,1676595040460,122544091029552,0.24825534,2.7493532,8.415557,0.006110925,-0.043260336,-0.038735468
UncalMag,1676595040461,122544092161876,-33.9282,-14.762,-115.2046,-45.491467,0.31409264,-60.09035
UncalGyro,1676595040464,122544095509166,-0.19517145,-0.6765333,0.094989546,0.00034639591,-0.0007615208,-0.0032826553
UncalAccel,1676595040468,122544099999889,0.32303107,2.8163524,8.802596,0.006110925,-0.043260336,-0.038735468
OrientationDeg,1676595040469,122544099999889,276.0,-2.0,-20.0
UncalMag,1676595040472,122544102155285,-30.9026,-12.8832,-108.9094,-45.491467,0.31409264,-60.09035
Fix,FLP,37.4311830000,-122.1552345000,-16.100000381469727,0.64618224,13.239,356.1874,1676595039590,,,122543220047511,3.3686655
UncalGyro,1676595040474,122544104502086,-0.17516561,-0.729984,0.105832405,0.00034639591,-0.0007615208,-0.0032826553
UncalAccel,1676595040477,122544108988231,0.46779683,2.7338,9.23151,0.006110925,-0.043260336,-0.038735468
OrientationDeg,1676595040477,122544108988231,276.0,-2.0,-20.0
UncalMag,1676595040482,122544112165539,-32.5374,-14.762,-112.8012,-45.491467,0.31409264,-60.09035
UncalGyro,1676595040482,122544113470958,-0.17562376,-0.66599584,0.10323623,0.00034639591,-0.0007615208,-0.0032826553
UncalAccel,1676595040486,122544117969249,0.6263213,2.5172493,9.612567,0.006110925,-0.043260336,-0.038735468
OrientationDeg,1676595040486,122544117969249,276.0,-3.0,-20.0
UncalMag,1676595040492,122544122165783,-31.378399,-13.3102,-116.7174,-45.491467,0.31409264,-60.09035
UncalGyro,1676595040491,122544122456126,-0.19517145,-0.5007568,0.101556346,0.00034639591,-0.0007615208,-0.0032826553
UncalAccel,1676595040495,122544126938914,0.73818576,2.2821546,9.830912,0.006110925,-0.043260336,-0.038735468
OrientationDeg,1676595040496,122544126938914,276.0,-3.0,-19.0
UncalGyro,1676595040501,122544131437939,-0.22785273,-0.28893927,0.10949759,0.00034639591,-0.0007615208,-0.0032826553
UncalMag,1676595040502,122544132165294,-33.1596,-13.7006,-115.4608,-45.491467,0.31409264,-60.09035
UncalAccel,1676595040504,122544135927013,0.7938189,2.0895324,9.835099,0.006110925,-0.043260336,-0.038735468
OrientationDeg,1676595040504,122544135927013,276.0,-3.0,-19.0
UncalGyro,1676595040509,122544140420909,-0.279929,-0.12461651,0.124005646,0.00034639591,-0.0007615208,-0.0032826553
UncalMag,1676595040512,122544142152355,-32.8668,-14.091,-112.8134,-45.491467,0.31409264,-60.09035
UncalAccel,1676595040513,122544144906810,0.8350951,1.9507487,9.905687,0.006110925,-0.043260336,-0.038735468
OrientationDeg,1676595040514,122544144906810,276.0,-3.0,-19.0
UncalGyro,1676595040519,122544149397716,-0.3378085,0.016035212,0.14889841,0.00034639591,-0.0007615208,-0.0032826553
UncalMag,1676595040521,122544152165050,-34.281998,-14.2374,-114.6556,-45.491467,0.31409264,-60.09035
UncalAccel,1676595040523,122544153886974,0.83988076,2.0895324,10.0779705,0.006110925,-0.043260336,-0.038735468
OrientationDeg,1676595040522,122544153886974,276.0,-3.0,-19.0
UncalGyro,1676595040527,122544158376964,-0.38072178,0.19013181,0.16600263,0.00034639591,-0.0007615208,-0.0032826553
UncalMag,1676595040531,122544162165539,-30.0852,-12.3098,-107.7504,-45.491467,0.31409264,-60.09035
UncalAccel,1676595040531,122544162865978,0.7268199,2.277369,10.145568,0.006110925,-0.043260336,-0.038735468
OrientationDeg,1676595040532,122544162865978,276.0,-3.0,-19.0
UncalGyro,1676595040537,122544167357189,-0.39706242,0.3837761,0.17531833,0.00034639591,-0.0007615208,-0.0032826553
UncalAccel,1676595040540,122544171844982,0.5557331,2.2301106,9.9344015,0.006110925,-0.043260336,-0.038735468
UncalMag,1676595040542,122544172157970,-29.084799,-11.346,-107.616196,-45.491467,0.31409264,-60.09035
OrientationDeg,1676595040541,122544171844982,276.0,-3.0,-18.0
UncalGyro,1676595040545,122544176335888,-0.38820487,0.5036584,0.2518292,0.00034639591,-0.0007615208,-0.0032826553
UncalAccel,1676595040550,122544180824230,0.22552353,1.7670995,9.582657,0.006110925,-0.043260336,-0.038735468
UncalMag,1676595040551,122544182165050,-29.3776,-11.4192,-106.262,-45.491467,0.31409264,-60.09035
OrientationDeg,1676595040549,122544180824230,276.0,-2.0,-18.0
UncalGyro,1676595040554,122544185312755,-0.41645738,0.52595496,0.47540587,0.00034639591,-0.0007615208,-0.0032826553
UncalAccel,1676595040558,122544189793224,-0.31106696,0.6580262,9.360124,0.006110925,-0.043260336,-0.038735468
OrientationDeg,1676595040558,122544189793224,275.0,-2.0,-18.0
UncalMag,1676595040561,122544192155529,-26.791199,-10.8946,-106.701195,-45.491467,0.31409264,-60.09035
UncalGyro,1676595040563,122544194294994,-0.46914452,0.48670688,0.8614727,0.00034639591,-0.0007615208,-0.0032826553
UncalAccel,1676595040567,122544198783702,-0.4139583,0.9607183,9.399606,0.006110925,-0.043260336,-0.038735468
OrientationDeg,1676595040567,122544198783702,275.0,-2.0,-18.0
UncalMag,1676595040572,122544202165294,-26.108,-10.5896,-108.543396,-45.491467,0.31409264,-60.09035
UncalGyro,1676595040572,122544203277110,-0.4578435,0.45112398,1.2234104,0.00034639591,-0.0007615208,-0.0032826553
UncalAccel,1676595040577,122544207762890,-0.3290131,1.9094725,10.028918,0.006110925,-0.043260336,-0.038735468
OrientationDeg,1676595040577,122544207762890,274.0,-2.0,-17.0
UncalMag,1676595040582,122544212165294,-29.865599,-12.382999,-115.3632,-45.491467,0.31409264,-60.09035
UncalGyro,1676595040581,122544212252940,-0.3483459,0.5532912,1.4475979,0.00034639591,-0.0007615208,-0.0032826553
UncalAccel,1676595040586,122544216739757,0.0041874396,2.8378878,10.626525,0.006110925,-0.043260336,-0.038735468
OrientationDeg,1676595040585,122544216739757,273.0,-2.0,-17.0
UncalGyro,1676595040590,122544221233715,-0.14813483,0.762818,1.4796684,0.00034639591,-0.0007615208,-0.0032826553
UncalMag,1676595040592,122544222165539,-27.254799,-10.9556,-107.774796,-45.491467,0.31409264,-60.09035
UncalAccel,1676595040594,122544225723217,0.56769717,3.045465,10.7683,0.006110925,-0.043260336,-0.038735468
OrientationDeg,1676595040594,122544225723217,272.0,-2.0,-17.0
UncalGyro,1676595040599,122544230213512,0.11957687,0.97219205,1.3642148,0.00034639591,-0.0007615208,-0.0032826553
UncalMag,1676595040602,122544232165539,-29.6216,-12.053599,-108.555595,-45.491467,0.31409264,-60.09035
UncalAccel,1676595040603,122544234701488,1.2574283,2.7008986,10.536197,0.006110925,-0.043260336,-0.038735468
OrientationDeg,1676595040604,122544234701488,272.0,-1.0,-17.0
UncalGyro,1676595040608,122544239193370,0.4437936,1.1232284,1.1829406,0.00034598302,-0.00075598224,-0.0032818948
UncalMag,1676595040612,122544242165539,-26.669199,-11.712,-106.713394,-45.491467,0.31409264,-60.09035
UncalAccel,1676595040613,122544243681163,1.698904,1.5858432,10.088738,0.006110925,-0.043260336,-0.038735468
OrientationDeg,1676595040612,122544243681163,271.0,-1.0,-18.0
UncalGyro,1676595040617,122544248172008,0.8051204,1.1777482,1.0622946,0.0003457599,-0.0007529898,-0.003281484
UncalMag,1676595040622,122544252153576,-29.3288,-13.42,-107.5308,-45.491467,0.31409264,-60.09035
UncalAccel,1676595040622,122544252655773,1.7868403,1.4177474,10.43151,0.006110925,-0.043260336,-0.038735468
OrientationDeg,1676595040621,122544252655773,270.0,-1.0,-18.0
UncalGyro,1676595040626,122544257133373,1.1823297,1.2739595,0.9801333,0.00034572615,-0.00075253705,-0.0032814217
UncalAccel,1676595040630,122544261641369,1.5439688,2.2677977,10.644471,0.006110925,-0.043260336,-0.038735468
UncalMag,1676595040631,122544262153820,-27.645199,-13.493199,-105.151794,-45.491467,0.31409264,-60.09035
OrientationDeg,1676595040630,122544261641369,270.0,0.0,-19.0
UncalGyro,1676595040635,122544266130931,1.4520267,1.31672,0.8341365,0.00034572103,-0.0007524685,-0.0032814122
UncalAccel,1676595040639,122544270624461,1.3812568,4.022335,7.783852,0.006110925,-0.043260336,-0.038735468
OrientationDeg,1676595040639,122544270624461,270.0,0.0,-20.0
UncalMag,1676595040641,122544272165539,-26.864399,-14.3228,-106.4938,-45.491467,0.31409264,-60.09035
UncalGyro,1676595040644,122544275105846,1.2886202,0.7509061,0.47861293,0.00034572027,-0.0007524581,-0.0032814108
UncalAccel,1676595040648,122544279582347,1.6516458,5.395815,4.3130627,0.006110925,-0.043260336,-0.038735468
OrientationDeg,1676595040649,122544279582347,269.0,0.0,-20.0
UncalMag,1676595040651,122544282154796,-28.121,-15.225599,-105.8472,-45.491467,0.31409264,-60.09035
UncalGyro,1676595040654,122544284090038,0.8312349,-0.3200934,-0.0888809,0.00034572015,-0.0007524566,-0.0032814108
UncalAccel,1676595040657,122544288578685,2.2295125,5.229514,5.8019967,0.006110925,-0.043260336,-0.038735468
OrientationDeg,1676595040658,122544288578685,270.0,0.0,-21.0
UncalMag,1676595040661,122544292166271,-26.205599,-14.3228,-104.493,-45.491467,0.31409264,-60.09035
UncalGyro,1676595040662,122544293071178,0.552833,-1.0836749,-0.6792821,0.00034572015,-0.00075245637,-0.0032814108
UncalAccel,1676595040666,122544297544689,2.7026932,4.0480576,7.5086775,0.006110925,-0.043260336,-0.038735468
OrientationDeg,1676595040666,122544297544689,270.0,0.0,-21.0
UncalGyro,1676595040671,122544302037365,0.44608435,-1.5115861,-1.1682798,0.00034572015,-0.00075245637,-0.0032814108
UncalMag,1676595040671,122544302149669,-28.8652,-15.0914,-107.481995,-45.491467,0.31409264,-60.09035
UncalAccel,1676595040676,122544306537853,2.932404,2.8289146,8.361719,0.006110925,-0.043260336,-0.038735468
OrientationDeg,1676595040675,122544306537853,271.0,-1.0,-21.0
UncalGyro,1676595040680,122544311032176,0.39293906,-1.7310394,-1.545031,0.00034572015,-0.00075245637,-0.0032814108
UncalMag,1676595040681,122544312165050,-30.414598,-15.359799,-107.481995,-45.491467,0.31409264,-60.09035
UncalAccel,1676595040684,122544315520030,2.9832516,2.1098714,8.610572,0.006110925,-0.043260336,-0.038735468
OrientationDeg,1676595040684,122544315520030,272.0,-2.0,-21.0
UncalGyro,1676595040689,122544320008068,0.3210097,-1.8162551,-1.847562,0.00034572015,-0.00075245637,-0.0032814108
UncalMag,1676595040691,122544322165294,-28.730999,-14.5912,-108.421394,-45.491467,0.31409264,-60.09035
UncalAccel,1676595040694,122544324496288,2.9862428,1.9184456,9.572487,0.006110925,-0.043260336,-0.038735468
OrientationDeg,1676595040693,122544324496288,273.0,-2.0,-21.0
UncalGyro,1676595040697,122544328987621,0.25381452,-1.6678149,-2.132225,0.00034572015,-0.00075245637,-0.0032814108
UncalMag,1676595040701,122544332165294,-28.0966,-14.2252,-105.957,-45.491467,0.31409264,-60.09035
UncalAccel,1676595040702,122544333477306,2.7966115,2.082952,10.625329,0.006110925,-0.043260336,-0.038735468
OrientationDeg,1676595040702,122544333477306,274.0,-3.0,-22.0
UncalGyro,1676595040706,122544337967113,0.2405282,-1.2738068,-2.430022,0.00034572015,-0.00075245637,-0.0032814108
UncalMag,1676595040711,122544342165539,-27.5842,-13.822599,-106.7866,-45.491467,0.31409264,-60.09035
UncalAccel,1676595040711,122544342452953,2.283351,2.2444677,11.472388,0.006110925,-0.043260336,-0.038735468
OrientationDeg,1676595040712,122544342452953,276.0,-2.0,-22.0
UncalGyro,1676595040716,122544346934521,0.2695443,-0.66431594,-2.7275133,0.00034572015,-0.00075245637,-0.0032814108
UncalAccel,1676595040721,122544351435009,1.5720844,1.7838492,11.957533,0.006110925,-0.043260336,-0.038735468
UncalMag,1676595040722,122544352153820,-28.2796,-13.785999,-108.275,-45.491467,0.31409264,-60.09035
OrientationDeg,1676595040721,122544351435009,277.0,-2.0,-22.0
UncalGyro,1676595040724,122544355925792,0.25610524,0.18616119,-2.965598,0.00034572015,-0.00075245637,-0.0032814108
UncalAccel,1676595040730,122544360417735,1.052842,1.5038891,11.52503,0.006110925,-0.043260336,-0.038735468
OrientationDeg,1676595040729,122544360417735,279.0,-1.0,-22.0
UncalMag,1676595040731,122544362165294,-24.461,-11.5168,-107.7138,-45.491467,0.31409264,-60.09035
UncalGyro,1676595040734,122544364905773,0.2452624,0.9309586,-3.095407,0.00034572015,-0.00075245637,-0.0032814108
UncalAccel,1676595040739,122544369395092,0.23688944,1.2346965,9.308679,0.006110925,-0.043260336,-0.038735468
OrientationDeg,1676595040738,122544369395092,281.0,0.0,-22.0
UncalMag,1676595040741,122544372154796,-25.9494,-11.8096,-109.861,-45.491467,0.31409264,-60.09035
UncalGyro,1676595040742,122544373885021,0.2843578,1.225243,-3.0179799,0.00034572015,-0.00075245637,-0.0032814108
UncalAccel,1676595040748,122544378374034,-4.6378884,1.3926228,8.248059,0.006110925,-0.043260336,-0.038735468
OrientationDeg,1676595040747,122544378374034,282.0,1.0,-22.0
UncalMag,1676595040751,122544382165539,-24.7172,-10.748199,-108.701996,-45.491467,0.31409264,-60.09035
UncalGyro,1676595040752,122544382865245,0.26160303,1.2157745,-2.3952026,0.00034572015,-0.00075245637,-0.0032814108
UncalAccel,1676595040757,122544387353038,-9.114262,2.344368,6.7651076,0.006110925,-0.043260336,-0.038735468
OrientationDeg,1676595040756,122544387353038,283.0,2.0,-22.0
UncalGyro,1676595040760,122544391844005,0.114689946,0.75915277,-1.2588406,0.00034572015,-0.00075245637,-0.0032814108
UncalMag,1676595040761,122544392153576,-24.338999,-10.8824,-110.0928,-45.491467,0.31409264,-60.09035
UncalAccel,1676595040766,122544396331981,-10.754541,3.3176486,5.4185467,0.006110925,-0.043260336,-0.038735468
OrientationDeg,1676595040766,122544396331981,284.0,2.0,-22.0
UncalGyro,1676595040770,122544400821605,-0.1469131,0.11224649,0.13408493,0.00034572015,-0.00075245637,-0.0032814108
UncalMag,1676595040772,122544402165294,-24.156,-10.9678,-106.993996,-45.491467,0.31409264,-60.09035
UncalAccel,1676595040775,122544405313183,-5.899504,3.0436704,5.5872407,0.006110925,-0.043260336,-0.038735468
OrientationDeg,1676595040774,122544405313183,283.0,2.0,-22.0
UncalGyro,1676595040778,122544409802745,-0.31887165,-0.5137377,1.0009027,0.00034572015,-0.00075245637,-0.0032814108
UncalMag,1676595040782,122544412165539,-23.668,-10.492,-108.824,-45.491467,0.31409264,-60.09035
UncalAccel,1676595040784,122544414292308,0.7716853,2.1702902,6.699305,0.006110925,-0.043260336,-0.038735468
OrientationDeg,1676595040784,122544414292308,283.0,1.0,-22.0
UncalGyro,1676595040788,122544418782115,-0.37980548,-0.87796605,1.0735956,0.00034572015,-0.00075245637,-0.0032814108
UncalMag,1676595040792,122544422165294,-24.7782,-11.3948,-108.3604,-45.491467,0.31409264,-60.09035
UncalAccel,1676595040793,122544423270824,2.87378,3.074179,9.086744,0.006110925,-0.043260336,-0.038735468
OrientationDeg,1676595040793,122544423270824,282.0,0.0,-22.0
UncalGyro,1676595040797,122544427761974,-0.45433104,-0.7993172,0.7603745,0.00034572015,-0.00075245637,-0.0032814108
UncalMag,1676595040801,122544432165539,-24.9856,-11.0044,-107.2014,-45.491467,0.31409264,-60.09035
UncalAccel,1676595040802,122544432250255,2.672783,3.0664022,10.225129,0.006110925,-0.043260336,-0.038735468
OrientationDeg,1676595040802,122544432250255,282.0,0.0,-22.0
UncalGyro,1676595040805,122544436739940,-0.37858373,-0.6227771,0.5004513,0.00034572015,-0.00075245637,-0.0032814108
UncalAccel,1676595040811,122544441228648,2.0291135,3.324827,11.577074,0.006110925,-0.043260336,-0.038735468
UncalMag,1676595040812,122544442160656,-24.7782,-10.6505995,-108.9582,-45.491467,0.31409264,-60.09035
OrientationDeg,1676595040810,122544441228648,282.0,0.0,-22.0
UncalGyro,1676595040815,122544445709667,-0.2576324,-0.35155296,0.3315471,0.00034572015,-0.00075245637,-0.0032814108
UncalAccel,1676595040819,122544450210277,1.5140585,3.4289148,11.760723,0.006110925,-0.043260336,-0.038735468
UncalMag,1676595040821,122544452161632,-23.5338,-10.492,-109.5438,-45.491467,0.31409264,-60.09035
OrientationDeg,1676595040819,122544450210277,282.0,0.0,-21.0
UncalGyro,1676595040824,122544454701366,-0.172264,-0.106137834,0.22479841,0.00034572015,-0.00075245637,-0.0032814108
UncalAccel,1676595040828,122544459192027,1.282553,3.463611,11.407184,0.006110925,-0.043260336,-0.038735468
OrientationDeg,1676595040829,122544459192027,281.0,0.0,-21.0
UncalMag,1676595040832,122544462154308,-24.2292,-10.613999,-107.628395,-45.491467,0.31409264,-60.09035
UncalGyro,1676595040833,122544463677867,-0.16126843,0.034972034,0.15470162,0.00034572015,-0.00075245637,-0.0032814108
UncalAccel,1676595040837,122544468159923,1.410569,3.2183464,11.206186,0.006110925,-0.043260336,-0.038735468
OrientationDeg,1676595040838,122544468159923,281.0,0.0,-21.0
UncalMag,1676595040841,122544472165294,-26.0348,-11.6144,-107.6528,-45.491467,0.31409264,-60.09035
UncalGyro,1676595040841,122544472657115,-0.18035796,0.118507855,0.11789699,0.00034572015,-0.00075245637,-0.0032814108
UncalAccel,1676595040847,122544477138012,1.747957,3.0293136,11.116456,0.006110925,-0.043260336,-0.038735468
OrientationDeg,1676595040847,122544477138012,281.0,0.0,-21.0
UncalGyro,1676595040850,122544481641307,-0.19394971,0.160963,0.09789115,0.00034572015,-0.00075245637,-0.0032814108
UncalMag,1676595040852,122544482161632,-23.1068,-9.7234,-107.8846,-45.491467,0.31409264,-60.09035
UncalAccel,1676595040856,122544486124523,1.8466609,2.7505496,11.005788,0.006110925,-0.043260336,-0.038735468
OrientationDeg,1676595040856,122544486124523,281.0,0.0,-21.0
UncalGyro,1676595040860,122544490608592,-0.19226983,0.16600263,0.07819075,0.00034572015,-0.00075245637,-0.0032814108
UncalMag,1676595040862,122544492165294,-25.6078,-11.626599,-106.8842,-45.491467,0.31409264,-60.09035
UncalAccel,1676595040864,122544495107433,1.7312071,2.6602206,11.0811615,0.006110925,-0.043260336,-0.038735468
OrientationDeg,1676595040865,122544495107433,281.0,0.0,-21.0
UncalGyro,1676595040869,122544499598217,-0.15103643,0.14614952,0.03283401,0.00034572015,-0.00075245637,-0.0032814108
UncalMag,1676595040872,122544502165539,-24.4854,-10.37,-106.237595,-45.491467,0.31409264,-60.09035
UncalAccel,1676595040873,122544504090038,1.3896317,2.7433712,10.865808,0.006110925,-0.043260336,-0.038735468
OrientationDeg,1676595040873,122544504090038,281.0,0.0,-21.0
UncalGyro,1676595040878,122544508574718,-0.0804815,0.073303826,-0.04230242,0.00034572015,-0.00075245637,-0.0032814108
UncalMag,1676595040882,122544512165294,-24.2902,-10.4432,-108.7752,-45.491467,0.31409264,-60.09035
UncalAccel,1676595040882,122544513055675,1.218545,2.8307092,10.826924,0.006110925,-0.043260336,-0.038735468
OrientationDeg,1676595040883,122544513055675,281.0,0.0,-21.0
UncalGyro,1676595040886,122544517557140,0.019547688,-0.026267206,-0.1301143,0.00034572015,-0.00075245637,-0.0032814108
UncalAccel,1676595040892,122544522046215,1.0959128,2.9515467,10.746166,0.006110925,-0.043260336,-0.038735468
UncalMag,1676595040892,122544522149669,-25.192999,-11.0654,-109.617,-45.491467,0.31409264,-60.09035
OrientationDeg,1676595040892,122544522046215,281.0,0.0,-21.0
UncalGyro,1676595040895,122544526540233,0.15714508,-0.17837265,-0.23350324,0.00034572015,-0.00075245637,-0.0032814108
UncalAccel,1676595040900,122544531025158,0.9242278,2.8660033,10.635498,0.006110925,-0.043260336,-0.038735468
OrientationDeg,1676595040900,122544531025158,282.0,0.0,-21.0
UncalMag,1676595040902,122544532153576,-26.108,-10.8336,-108.275,-45.491467,0.31409264,-60.09035
UncalGyro,1676595040904,122544535516124,0.3286455,-0.38072178,-0.3222314,0.00034572015,-0.00075245637,-0.0032814108
UncalAccel,1676595040910,122544540004588,0.99900347,2.5489542,10.457831,0.006110925,-0.043260336,-0.038735468
OrientationDeg,1676595040909,122544540004588,282.0,0.0,-21.0
UncalMag,1676595040911,122544542153576,-24.180399,-10.223599,-108.031,-45.491467,0.31409264,-60.09035
UncalGyro,1676595040913,122544544495677,0.49312097,-0.5731443,-0.3594942,0.00034572015,-0.00075245637,-0.0032814108
UncalAccel,1676595040918,122544548982433,1.2807583,2.3605196,10.110274,0.006110925,-0.043260336,-0.038735468
OrientationDeg,1676595040917,122544548982433,282.0,0.0,-21.0
UncalMag,1676595040922,122544552153576,-26.718,-11.6022,-106.7378,-45.491467,0.31409264,-60.09035
UncalGyro,1676595040923,122544553460521,0.61315596,-0.74113226,-0.36911532,0.00034572015,-0.00075245637,-0.0032814108
UncalAccel,1676595040927,122544557952526,1.5678971,2.248057,9.725029,0.006110925,-0.043260336,-0.038735468
OrientationDeg,1676595040927,122544557952526,282.0,0.0,-22.0
UncalMag,1676595040932,122544562165539,-25.2906,-10.8702,-107.628395,-45.491467,0.31409264,-60.09035
UncalGyro,1676595040931,122544562451671,0.6797403,-0.88239485,-0.36865717,0.00034572015,-0.00075245637,-0.0032814108
UncalAccel,1676595040936,122544566934581,1.5816557,2.344368,9.891929,0.006110925,-0.043260336,-0.038735468
OrientationDeg,1676595040935,122544566934581,282.0,-1.0,-22.0
UncalGyro,1676595040940,122544571436961,0.68523806,-0.9231701,-0.37110063,0.00034572015,-0.00075245637,-0.0032814108
UncalMag,1676595040941,122544572165539,-28.2552,-11.6754,-108.091995,-45.491467,0.31409264,-60.09035
UncalAccel,1676595040945,122544575922802,1.375873,2.4269204,10.2347,0.006110925,-0.043260336,-0.038735468
OrientationDeg,1676595040944,122544575922802,283.0,-1.0,-23.0
UncalGyro,1676595040949,122544580416758,0.6421721,-0.8738427,-0.37797287,0.00034572015,-0.00075245637,-0.0032814108
UncalMag,1676595040951,122544582153820,-28.0112,-11.760799,-107.36,-45.491467,0.31409264,-60.09035
UncalAccel,1676595040953,122544584903392,1.2705889,2.2791636,10.10489,0.006110925,-0.043260336,-0.038735468
OrientationDeg,1676595040953,122544584903392,283.0,-2.0,-23.0
UncalGyro,1676595040959,122544589393322,0.5716171,-0.8258898,-0.3717115,0.00034572015,-0.00075245637,-0.0032814108
UncalMag,1676595040962,122544592165294,-29.0238,-12.480599,-107.9944,-45.491467,0.31409264,-60.09035
UncalAccel,1676595040962,122544593882152,1.0319048,2.1026928,9.936196,0.006110925,-0.043260336,-0.038735468
OrientationDeg,1676595040963,122544593882152,283.0,-2.0,-23.0
UncalGyro,1676595040968,122544598373546,0.5010622,-0.7837401,-0.31566462,0.00034572015,-0.00075245637,-0.0032814108
UncalMag,1676595040972,122544602165294,-30.6098,-13.1272,-109.5438,-45.491467,0.31409264,-60.09035
UncalAccel,1676595040972,122544602861278,0.7830512,2.1906292,10.17847,0.006110925,-0.043260336,-0.038735468
OrientationDeg,1676595040971,122544602861278,283.0,-2.0,-23.0
UncalGyro,1676595040977,122544607353404,0.4457789,-0.7125743,-0.22739458,0.00034572015,-0.00075245637,-0.0032814108
UncalAccel,1676595040980,122544611845958,0.9391829,2.2378874,10.47518,0.006110925,-0.043260336,-0.038735468
UncalMag,1676595040981,122544612152355,-28.0844,-12.248799,-110.6174,-45.491467,0.31409264,-60.09035
OrientationDeg,1676595040981,122544611845958,283.0,-3.0,-24.0
UncalGyro,1676595040985,122544616332103,0.42195517,-0.63453627,-0.16401732,0.00034572015,-0.00075245637,-0.0032814108
UncalAccel,1676595040990,122544620821544,1.5200406,2.3060827,10.777871,0.006110925,-0.043260336,-0.038735468
UncalMag,1676595040992,122544622153331,-27.7916,-11.834,-109.1168,-45.491467,0.31409264,-60.09035
OrientationDeg,1676595040989,122544620821544,283.0,-3.0,-24.0
UncalGyro,1676595040994,122544625309764,0.42653665,-0.5209153,-0.13790283,0.00034572015,-0.00075245637,-0.0032814108
UncalAccel,1676595040998,122544629798351,1.8879371,2.501098,10.904691,0.006110925,-0.043260336,-0.038735468
OrientationDeg,1676595040999,122544629798351,283.0,-3.0,-24.0
UncalMag,1676595041002,122544632165294,-27.1084,-12.1268,-107.799194,-45.491467,0.31409264,-60.09035
UncalGyro,1676595041003,122544634283703,0.44638976,-0.38866302,-0.12675454,0.00034572015,-0.00075245637,-0.0032814108
UncalAccel,1676595041008,122544638779613,1.9010975,2.8695927,10.687542,0.006110925,-0.043260336,-0.038735468
OrientationDeg,1676595041007,122544638779613,283.0,-3.0,-24.0
UncalMag,1676595041011,122544642154308,-26.9376,-12.1146,-107.762596,-45.491467,0.31409264,-60.09035
UncalGyro,1676595041012,122544643270275,0.48395798,-0.28145617,-0.1207986,0.00034572015,-0.00075245637,-0.0032814108
UncalAccel,1676595041016,122544647760692,1.6534405,3.173481,10.216156,0.006110925,-0.043260336,-0.038735468
OrientationDeg,1676595041017,122544647760692,283.0,-3.0,-24.0
UncalMag,1676595041021,122544652165294,-29.7558,-13.200399,-109.739,-45.491467,0.31409264,-60.09035
UncalGyro,1676595041021,122544652250194,0.5233588,-0.2182316,-0.10980303,0.00034572015,-0.00075245637,-0.0032814108
UncalAccel,1676595041025,122544656741222,1.4069797,3.1986058,9.952946,0.006110925,-0.043260336,-0.038735468
OrientationDeg,1676595041026,122544656741222,283.0,-3.0,-25.0
UncalGyro,1676595041030,122544661229259,0.5664248,-0.1853976,-0.081397794,0.00034572015,-0.00075245637,-0.0032814108
UncalMag,1676595041032,122544662165294,-31.109999,-14.1886,-110.727196,-45.491467,0.31409264,-60.09035
UncalAccel,1676595041034,122544665718273,1.3704891,2.8869405,10.122836,0.006110925,-0.043260336,-0.038735468
OrientationDeg,1676595041034,122544665718273,283.0,-4.0,-25.0
UncalGyro,1676595041039,122544670208751,0.6064365,-0.118202426,-0.032528576,0.00034572015,-0.00075245637,-0.0032814108
UncalMag,1676595041041,122544672165294,-26.669199,-12.5416,-109.2266,-45.491467,0.31409264,-60.09035
UncalAccel,1676595041043,122544674697216,1.2664014,2.7008986,10.66481,0.006110925,-0.043260336,-0.038735468
OrientationDeg,1676595041044,122544674697216,283.0,-4.0,-25.0
UncalGyro,1676595041048,122544679187999,0.64965516,0.048716504,0.04886922,0.00034572015,-0.00075245637,-0.0032814108
UncalMag,1676595041052,122544682165294,-28.5602,-12.932,-112.5328,-45.491467,0.31409264,-60.09035
UncalAccel,1676595041053,122544683676830,1.0516455,2.6973093,10.706685,0.006110925,-0.043260336,-0.038735468
OrientationDeg,1676595041052,122544683676830,283.0,-4.0,-26.0
UncalGyro,1676595041057,122544688168041,0.6760751,0.2680171,0.15622878,0.00034572015,-0.00075245637,-0.0032814108
UncalMag,1676595041062,122544692153576,-26.595999,-12.3342,-109.3608,-45.491467,0.31409264,-60.09035
UncalAccel,1676595041061,122544692654796,0.8644072,2.7702904,10.0576315,0.006110925,-0.043260336,-0.038735468
OrientationDeg,1676595041061,122544692654796,283.0,-3.0,-26.0
Status,0,15,0,3,15,1602000000,40.46,304.0,80.0,1,1,1,36.26457
Status,0,15,1,1,11,1575420030,38.38,108.0,77.0,1,1,1,34.183235
Status,0,15,2,3,17,1604249980,36.46,332.0,71.0,1,1,1,32.264046
Status,0,15,3,1,12,1575420030,38.25,329.0,68.0,1,1,1,34.045902
Status,0,15,4,6,34,1575420030,40.51,209.0,62.0,0,1,1,36.314037
Status,0,15,5,3,14,1598062460,37.54,155.0,42.0,1,1,1,33.336884
Status,0,15,6,1,6,1575420030,32.29,46.0,41.0,1,1,1,28.091383
Status,0,15,7,3,18,1600312450,41.72,243.0,39.0,1,1,1,37.51569
Status,0,15,8,1,25,1575420030,40.49,313.0,38.0,1,1,1,36.286587
Status,0,15,9,1,20,1575420030,42.13,140.0,29.0,1,1,1,37.932068
Status,0,15,10,3,24,1603124990,39.30,35.0,27.0,1,1,1,35.09739
Status,0,15,11,3,16,1601437440,37.49,328.0,25.0,1,1,1,33.29305
Status,0,15,12,1,19,1575420030,35.61,63.0,23.0,1,1,1,31.407026
Status,0,15,13,1,29,1575420030,41.20,267.0,17.0,0,1,1,37.00296
Status,0,15,14,1,2,1575420030,46.45,218.0,14.0,0,1,1,42.254307
UncalGyro,1676595041067,122544697132091,0.65836,0.45478916,0.24724771,0.00034572015,-0.00075245637,-0.0032814108
Fix,GPS,37.4311786542,-122.1551233012,-10.195936962412352,0.0,14.344915,,1676595039968,0.32548898,,122544591626697,18.594719
Raw,1676595039968,3105000000,,,-1360630254863999071,0.0,200621973.29957247,,,23,2,0.0,17,496601,12,46.454307556152344,-541.2687748195128,0.15,16,-1567.6916807309826,340282346638528860000000000000000000000,1575420030,,,,0,,1,,42.25430679321289,0.0,1.0,0.0,1.0,C,122544641736276
Raw,1676595039968,3105000000,,,-1360630254863999071,0.0,200621973.29957247,,,23,6,0.0,17,227482,38,30.151535034179688,581.3400301902288,0.7845587115041095,16,1686.2637234777856,340282346638528860000000000000000000000,1575420030,,,,0,,1,,25.951534271240234,0.320142130558394,1.0,0.320142130558394,1.0,C,122544641736276
Raw,1676595039968,3105000000,,,-1360630254863999071,0.0,200621973.29957247,,,23,11,0.0,17,11986,25,35.05288314819336,77.69539036309425,0.5648313775896794,16,202.31452031167936,340282346638528860000000000000000000000,1575420030,,,,0,,1,,30.852882385253906,-0.20372681261465636,1.0,-0.20372681261465636,1.0,C,122544641736276
Raw,1676595039968,3105000000,,,-1360630254863999071,0.0,200621973.29957247,,,23,12,0.0,17,762160,19,38.24590301513672,-141.96795906459812,0.15,16,-396.61192875479185,340282346638528860000000000000000000000,1575420030,,,,0,,1,,34.045902252197266,-0.6984919076624261,1.0,-0.6984919076624261,1.0,C,122544641736276
Raw,1676595039968,3105000000,,,-1360630254863999071,0.0,200621973.29957247,,,23,19,0.0,17,786815,24,35.607025146484375,602.5173008805032,0.5384326511284216,16,1681.5579173151818,340282346638528860000000000000000000000,1575420030,,,,1,,1,,31.407026290893555,0.0,1.0,0.0,1.0,C,122544641736276
Raw,1676595039968,3105000000,,,-1360630254863999071,0.0,200621973.29957247,,,23,20,0.0,17,771287,14,41.85690689086914,-429.27528823118837,0.15,16,-1243.0227258669408,340282346638528860000000000000000000000,1575420030,,,,0,,1,,37.65690612792969,0.0,1.0,0.0,1.0,C,122544641736276
Raw,1676595039968,3105000000,,,-1360630254863999071,0.0,200621973.29957247,,,23,25,0.0,17,322554,16,40.48658752441406,-421.6711172739276,0.15,16,-1231.336894286065,340282346638528860000000000000000000000,1575420030,,,,0,,1,,36.28658676147461,-2.0372682255564105,1.0,-2.0372682255564105,1.0,C,122544641736276
Raw,1676595039968,3105000000,,,-1360630254863999071,0.0,200621973.29957247,,,23,29,0.0,17,207905,18,39.35628128051758,-397.4100659174694,0.15,16,-1095.9788908069766,340282346638528860000000000000000000000,1575420030,,,,0,,1,,35.156280517578125,-0.6984919076624261,1.0,-0.6984919076624261,1.0,C,122544641736276
Raw,1676595039968,3105000000,,,-1360630254863999071,0.0,200621973.29957247,,,23,6,0.0,16,16227487,1000000000,18.80793571472168,579.0996539931584,299792458,16,3483.584216932946,340282346638528860000000000000000000000,1176450050,,,,0,,1,,14.707935333251953,1.9208527336454408,7.671281903963041,1.9208527336454408,1.0,Q,122544641736276
Raw,1676595039968,3105000000,,,-1360630254863999071,0.0,200621973.29957247,,,23,11,0.0,16,20011985,1000000000,11.23237419128418,76.79560499027792,299792458,16,460.61679299871935,340282346638528860000000000000000000000,1176450050,,,,0,,1,,7.132373809814453,0.0,7.671281903963041,0.0,1.0,Q,122544641736276
Raw,1676595039968,3105000000,,,-1360630254863999071,0.0,200621973.29957247,,,23,25,0.0,16,16322551,1000000000,17.703561782836914,-418.51620652098063,299792458,16,-2531.494844541432,340282346638528860000000000000000000000,1176450050,,,,0,,1,,13.603561401367188,1.0186341127782053,7.671281903963041,1.0186341127782053,1.0,Q,122544641736276
Raw,1676595039968,3105000000,,,-1360630254863999071,0.0,200621973.29957247,,,23,14,0.0,17,535537,42,37.53688430786133,704.8766654010683,0.15,17,2660.085990839594,0.09561737245221677,1598062460,,,,0,,3,,33.336883544921875,50.29141902923584,2.0000000474974513,50.29141902923584,2.0000000474974513,C,122544641736276
Raw,1676595039968,3105000000,,,-1360630254863999071,0.0,200621973.29957247,,,23,18,0.0,49,8954992,33,41.48055648803711,-364.12108306496657,0.15,17,-1262.9174904750978,0.09489013927411773,1600312450,,,,0,,3,,37.280555725097656,50.29141902923584,2.0000000474974513,50.29141902923584,2.0000000474974513,C,122544641736276
Raw,1676595039968,3105000000,,,-1360630254863999071,0.0,200621973.29957247,,,23,16,0.0,17,22456,42,37.49304962158203,-627.4156941739379,0.15,16,-1160.4464596364521,340282346638528860000000000000000000000,1601437440,,,,0,,3,,33.29304885864258,50.29141902923584,2.0000000474974513,50.29141902923584,2.0000000474974513,C,122544641736276
Raw,1676595039968,3105000000,,,-1360630254863999071,0.0,200621973.29957247,,,23,15,0.0,49,4925128,35,39.77756881713867,-15.599624491554856,0.15,17,-46.20788679960236,0.09505487535756468,1602000000,,,,0,,3,,35.57756805419922,50.29141902923584,2.0000000474974513,50.29141902923584,2.0000000474974513,C,122544641736276
Raw,1676595039968,3105000000,,,-1360630254863999071,0.0,200621973.29957247,,,23,24,0.0,17,693637,40,37.92184066772461,736.69147976159,0.15,16,1746.0325819702293,340282346638528860000000000000000000000,1603124990,,,,0,,3,,33.721839904785156,50.29141902923584,2.0000000474974513,50.29141902923584,2.0000000474974513,C,122544641736276
Raw,1676595039968,3105000000,,,-1360630254863999071,0.0,200621973.29957247,,,23,17,0.0,17,762120,45,36.464046478271484,229.8320292641696,0.15,17,633.1298329569545,0.09548675076618718,1604249980,,,,0,,3,,32.26404571533203,50.29141902923584,2.0000000474974513,50.29141902923584,2.0000000474974513,C,122544641736276
Raw,1676595039968,3105000000,,,-1360630254863999071,0.0,200621973.29957247,,,23,34,0.0,68642,89476366,22,40.5140380859375,-188.56703585374214,0.15,16,-829.3828996034556,340282346638528860000000000000000000000,1575420030,,,,0,,6,,36.31403732299805,-6.024492904543876,1.5000000237487257,-6.024492904543876,1.5000000237487257,C,122544641736276
Raw,1676595039968,3105000000,,,-1360630254863999071,0.0,200621973.29957247,,,23,34,0.0,16,99979269,1000000000,11.100000381469727,-189.253746228992,299792458,16,-946.1759068022252,340282346638528860000000000000000000000,1176450050,,,,0,,6,,7.0,-10.0879929959774,8.171281927711767,-10.0879929959774,1.5000000237487257,Q,122544641736276
UncalAccel,1676595041071,122544701619396,0.91525465,2.879762,8.581261,0.006110925,-0.043260336,-0.038735468
UncalMag,1676595041072,122544702154064,-29.670399,-13.981199,-108.8972,-45.491467,0.31409264,-60.09035
OrientationDeg,1676595041071,122544701619396,283.0,-3.0,-26.0
Fix,FLP,37.4311814000,-122.1552149000,-16.100000381469727,0.58041984,12.885,359.73972,1676595040595,,,122544225749721,3.081732
UncalGyro,1676595041075,122544706126476,0.5645922,0.44257188,0.28802297,0.00034572015,-0.00075245637,-0.0032814108
UncalAccel,1676595041080,122544710618236,1.1766706,2.9443684,6.95773,0.006110925,-0.043260336,-0.038735468
UncalMag,1676595041082,122544712170910,-29.9632,-14.4692,-110.0562,-45.491467,0.31409264,-60.09035
OrientationDeg,1676595041079,122544710618236,283.0,-3.0,-26.0
UncalGyro,1676595041084,122544715110362,0.41141775,0.13958271,0.32268956,0.00034572015,-0.00075245637,-0.0032814108
UncalAccel,1676595041088,122544719592052,1.2287145,2.6518457,6.532406,0.006110925,-0.043260336,-0.038735468
OrientationDeg,1676595041089,122544719592052,283.0,-3.0,-27.0
UncalMag,1676595041092,122544722165294,-30.7074,-14.7741995,-109.5194,-45.491467,0.31409264,-60.09035
UncalGyro,1676595041093,122544724074230,0.2565634,-0.30543262,0.44073927,0.00034572015,-0.00075245637,-0.0032814108
UncalAccel,1676595041098,122544728575451,1.1515459,2.3216362,7.240083,0.006110925,-0.043260336,-0.038735468
OrientationDeg,1676595041097,122544728575451,283.0,-4.0,-27.0
UncalMag,1676595041102,122544732155040,-30.097399,-14.8596,-108.0554,-45.491467,0.31409264,-60.09035
UncalGyro,1676595041102,122544733062389,0.13209961,-0.68630713,0.65102965,0.00034572015,-0.00075245637,-0.0032814108
UncalAccel,1676595041106,122544737545971,1.0073783,2.5962126,7.874779,0.006110925,-0.043260336,-0.038735468
OrientationDeg,1676595041107,122544737545971,282.0,-4.0,-27.0
UncalGyro,1676595041111,122544742042858,0.030848695,-0.9575313,0.86422163,0.00034572015,-0.00075245637,-0.0032814108
UncalMag,1676595041111,122544742154796,-33.0254,-16.323599,-107.4942,-45.491467,0.31409264,-60.09035
UncalAccel,1676595041116,122544746522289,0.76271224,3.321836,8.411369,0.006110925,-0.043260336,-0.038735468
OrientationDeg,1676595041115,122544746522289,282.0,-5.0,-27.0
UncalGyro,1676595041120,122544751027293,-0.060322944,-1.0873401,0.98670006,0.00034572015,-0.00075245637,-0.0032814108
UncalMag,1676595041122,122544752165294,-30.3536,-14.7132,-107.616196,-45.491467,0.31409264,-60.09035
UncalAccel,1676595041124,122544755512950,0.64606214,4.008576,8.905488,0.006110925,-0.043260336,-0.038735468
OrientationDeg,1676595041125,122544755512950,281.0,-6.0,-27.0
UncalGyro,1676595041129,122544760006968,-0.117744274,-1.104139,1.0012082,0.00034572015,-0.00075245637,-0.0032814108
UncalMag,1676595041131,122544762165294,-33.8672,-16.409,-109.739,-45.491467,0.31409264,-60.09035
UncalAccel,1676595041133,122544764493358,0.4953143,4.5224347,9.293125,0.006110925,-0.043260336,-0.038735468
OrientationDeg,1676595041133,122544764493358,280.0,-7.0,-26.0
UncalGyro,1676595041137,122544768983104,-0.093767814,-1.0241156,0.95829487,0.00034572015,-0.00075245637,-0.0032814108
UncalMag,1676595041141,122544772165294,-32.3056,-15.518399,-108.7874,-45.491467,0.31409264,-60.09035
UncalAccel,1676595041142,122544773471935,0.5132605,4.584648,9.693923,0.006110925,-0.043260336,-0.038735468
OrientationDeg,1676595041143,122544773471935,280.0,-8.0,-26.0
UncalGyro,1676595041147,122544777962658,0.022143865,-0.8527679,0.929126,0.00034572015,-0.00075245637,-0.0032814108
UncalMag,1676595041152,122544782165294,-32.7082,-15.750199,-108.726395,-45.491467,0.31409264,-60.09035
UncalAccel,1676595041151,122544782448558,0.46121657,4.2927237,10.059426,0.006110925,-0.043260336,-0.038735468
OrientationDeg,1676595041151,122544782448558,279.0,-8.0,-26.0
UncalGyro,1676595041155,122544786930797,0.19685133,-0.5839872,0.9295842,0.00034572015,-0.00075245637,-0.0032814108
UncalAccel,1676595041161,122544791431347,0.43968117,4.3357944,9.720842,0.006110925,-0.043260336,-0.038735468
UncalMag,1676595041161,122544792148449,-30.7684,-14.945,-107.774796,-45.491467,0.31409264,-60.09035
OrientationDeg,1676595041161,122544791431347,279.0,-9.0,-26.0
UncalGyro,1676595041164,122544795921947,0.3492622,-0.29458976,0.90026265,0.00034572015,-0.00075245637,-0.0032814108
UncalAccel,1676595041170,122544800414561,0.46899325,4.6325045,8.983852,0.006110925,-0.043260336,-0.038735468
OrientationDeg,1676595041169,122544800414561,278.0,-9.0,-26.0
UncalMag,1676595041172,122544802165539,-32.9766,-16.286999,-108.6776,-45.491467,0.31409264,-60.09035
UncalGyro,1676595041174,122544804901256,0.4173737,-0.029474247,0.8223773,0.00034572015,-0.00075245637,-0.0032814108
UncalAccel,1676595041179,122544809390270,0.5347959,4.6558347,8.260024,0.006110925,-0.043260336,-0.038735468
OrientationDeg,1676595041179,122544809390270,278.0,-9.0,-27.0
UncalMag,1676595041181,122544812165539,-33.306,-16.286999,-110.7028,-45.491467,0.31409264,-60.09035
UncalGyro,1676595041183,122544813881847,0.38056904,0.21548271,0.73639804,0.00034572015,-0.00075245637,-0.0032814108
UncalAccel,1676595041187,122544818370983,0.509073,4.545765,7.5828547,0.006110925,-0.043260336,-0.038735468
OrientationDeg,1676595041187,122544818370983,277.0,-9.0,-27.0
UncalMag,1676595041192,122544822154796,-33.0498,-16.8238,-107.921196,-45.491467,0.31409264,-60.09035
UncalGyro,1676595041192,122544822863170,0.24831672,0.4298964,0.68233645,0.00034572015,-0.00075245637,-0.0032814108
UncalAccel,1676595041196,122544827338390,0.39182472,4.4835515,7.0002027,0.006110925,-0.043260336,-0.038735468
OrientationDeg,1676595041196,122544827338390,277.0,-9.0,-27.0
UncalGyro,1676595041200,122544831840404,0.04917465,0.58200186,0.6731735,0.00034572015,-0.00075245637,-0.0032814108
UncalMag,1676595041202,122544832152111,-31.695599,-16.518799,-107.116,-45.491467,0.31409264,-60.09035
UncalAccel,1676595041205,122544836328563,0.62153566,4.726423,6.321239,0.006110925,-0.043260336,-0.038735468
OrientationDeg,1676595041205,122544836328563,277.0,-9.0,-27.0
UncalGyro,1676595041210,122544840819286,-0.14477506,0.56673026,0.6435465,0.00034572015,-0.00075245637,-0.0032814108
UncalMag,1676595041211,122544842165050,-28.2064,-15.1036,-108.9338,-45.491467,0.31409264,-60.09035
UncalAccel,1676595041215,122544845296337,0.78364944,5.3007,6.181857,0.006110925,-0.043260336,-0.038735468
OrientationDeg,1676595041214,122544845296337,276.0,-9.0,-27.0
UncalGyro,1676595041218,122544849798534,-0.27076602,0.39278635,0.56337047,0.00034572015,-0.00075245637,-0.0032814108
UncalMag,1676595041221,122544852165294,-30.1218,-16.2138,-108.726395,-45.491467,0.31409264,-60.09035
UncalAccel,1676595041223,122544854287609,0.6939186,5.7667027,6.674779,0.006110925,-0.043260336,-0.038735468
OrientationDeg,1676595041224,122544854287609,276.0,-9.0,-26.0
UncalGyro,1676595041227,122544858781505,-0.2817616,0.13637567,0.44684792,0.00034572015,-0.00075245637,-0.0032814108
UncalMag,1676595041232,122544862165294,-31.6834,-16.043,-110.6784,-45.491467,0.31409264,-60.09035
UncalAccel,1676595041233,122544863267101,0.57547385,5.710471,7.393224,0.006110925,-0.043260336,-0.038735468
OrientationDeg,1676595041233,122544863267101,276.0,-9.0,-26.0
UncalGyro,1676595041237,122544867758129,-0.2134974,-0.091477074,0.33933565,0.00034572015,-0.00075245637,-0.0032814108
UncalMag,1676595041242,122544872165294,-31.2076,-15.615999,-108.701996,-45.491467,0.31409264,-60.09035
UncalAccel,1676595041241,122544872248241,0.38404804,5.285147,7.8670025,0.006110925,-0.043260336,-0.038735468
OrientationDeg,1676595041241,122544872248241,276.0,-9.0,-26.0
UncalGyro,1676595041246,122544876739330,-0.12110403,-0.22159137,0.29458976,0.00034572015,-0.00075245637,-0.0032814108
UncalAccel,1676595041250,122544881226634,0.3260221,4.786842,8.273783,0.006110925,-0.043260336,-0.038735468
UncalMag,1676595041251,122544882161632,-31.0002,-16.2138,-108.519,-45.491467,0.31409264,-60.09035
OrientationDeg,1676595041250,122544881226634,276.0,-9.0,-26.0
UncalGyro,1676595041255,122544885716564,-0.046120327,-0.27473664,0.31031954,0.00034572015,-0.00075245637,-0.0032814108
UncalAccel,1676595041259,122544890200511,0.34516466,4.3262234,8.543573,0.006110925,-0.043260336,-0.038735468
OrientationDeg,1676595041260,122544890200511,275.0,-9.0,-26.0
UncalMag,1676595041262,122544892165539,-31.890799,-16.7628,-109.812195,-45.491467,0.31409264,-60.09035
UncalGyro,1676595041264,122544894696483,0.0,-0.28160888,0.36361754,0.00034572015,-0.00075245637,-0.0032814108
UncalAccel,1676595041269,122544899184825,0.5306084,4.383053,8.673384,0.006110925,-0.043260336,-0.038735468
OrientationDeg,1676595041268,122544899184825,275.0,-10.0,-26.0
UncalMag,1676595041272,122544902165050,-31.0124,-16.3968,-109.2388,-45.491467,0.31409264,-60.09035
UncalGyro,1676595041273,122544903677501,0.03481932,-0.27672195,0.3998113,0.00034572015,-0.00075245637,-0.0032814108
UncalAccel,1676595041278,122544908164684,0.89072824,4.706682,8.662018,0.006110925,-0.043260336,-0.038735468
OrientationDeg,1676595041278,122544908164684,275.0,-10.0,-26.0
UncalMag,1676595041282,122544912154308,-31.5858,-16.4578,-108.9338,-45.491467,0.31409264,-60.09035
UncalGyro,1676595041282,122544912648265,0.06872234,-0.2762638,0.38545597,0.00034572015,-0.00075245637,-0.0032814108
UncalAccel,1676595041286,122544917132518,1.0229317,5.022535,8.468798,0.006110925,-0.043260336,-0.038735468
OrientationDeg,1676595041286,122544917132518,275.0,-10.0,-26.0
UncalGyro,1676595041291,122544921634532,0.083383106,-0.26251933,0.33551773,0.00034572015,-0.00075245637,-0.0032814108
UncalMag,1676595041291,122544922154552,-31.5126,-16.6286,-107.6894,-45.491467,0.31409264,-60.09035
UncalAccel,1676595041296,122544926124888,1.1653047,5.2899327,8.051848,0.006110925,-0.043260336,-0.038735468
OrientationDeg,1676595041296,122544926124888,275.0,-10.0,-26.0
UncalGyro,1676595041300,122544930616161,0.04886922,-0.2490803,0.26267207,0.00034572015,-0.00075245637,-0.0032814108
UncalMag,1676595041302,122544932162609,-33.8428,-17.263,-109.653595,-45.491467,0.31409264,-60.09035
UncalAccel,1676595041304,122544935096691,1.3202399,5.389833,7.7383885,0.006110925,-0.043260336,-0.038735468
OrientationDeg,1676595041304,122544935096691,274.0,-10.0,-26.0
UncalGyro,1676595041308,122544939585521,-0.016340645,-0.25809056,0.18173242,0.00034572015,-0.00075245637,-0.0032814108
UncalMag,1676595041311,122544942153820,-32.2324,-16.775,-110.0074,-45.491467,0.31409264,-60.09035
UncalAccel,1676595041314,122544944070506,1.4374882,5.1876397,7.8281193,0.006110925,-0.043260336,-0.038735468
OrientationDeg,1676595041313,122544944070506,274.0,-11.0,-26.0
UncalGyro,1676595041317,122544948563853,-0.0936151,-0.26374108,0.11713341,0.00034572015,-0.00075245637,-0.0032814108
UncalMag,1676595041321,122544952165050,-30.8172,-15.9576,-108.091995,-45.491467,0.31409264,-60.09035
UncalAccel,1676595041323,122544953061900,1.3609179,5.063213,7.7036924,0.006110925,-0.043260336,-0.038735468
OrientationDeg,1676595041323,122544953061900,274.0,-11.0,-26.0
UncalGyro,1676595041326,122544957546825,-0.17256944,-0.29077184,0.07925977,0.00034572015,-0.00075245637,-0.0032814108
UncalAccel,1676595041332,122544962044505,1.4943178,5.091328,7.7186475,0.006110925,-0.043260336,-0.038735468
UncalMag,1676595041331,122544962164806,-31.1954,-15.615999,-108.4824,-45.491467,0.31409264,-60.09035
OrientationDeg,1676595041332,122544962044505,274.0,-11.0,-26.0
UncalGyro,1676595041336,122544966529613,-0.21700987,-0.36147952,0.026267206,0.00034572015,-0.00075245637,-0.0032814108
UncalAccel,1676595041340,122544971012218,1.430908,4.645665,8.306684,0.006110925,-0.043260336,-0.038735468
OrientationDeg,1676595041341,122544971012218,274.0,-11.0,-26.0
UncalMag,1676595041341,122544972153820,-32.720398,-16.8116,-107.7382,-45.491467,0.31409264,-60.09035
UncalGyro,1676595041345,122544975512523,-0.21105394,-0.3801109,0.0036651916,0.00034572015,-0.00075245637,-0.0032814108
UncalAccel,1676595041349,122544980001964,0.9212367,3.9637108,9.092128,0.006110925,-0.043260336,-0.038735468
OrientationDeg,1676595041350,122544980001964,274.0,-11.0,-26.0
UncalMag,1676595041352,122544982165783,-31.305199,-15.86,-107.164795,-45.491467,0.31409264,-60.09035
UncalGyro,1676595041354,122544984494334,-0.20662516,-0.24617869,0.093767814,0.00034572015,-0.00075245637,-0.0032814108
UncalAccel,1676595041358,122544988977489,0.6843473,3.792624,9.524033,0.006110925,-0.043260336,-0.038735468
OrientationDeg,1676595041357,122544988977489,274.0,-11.0,-25.0
UncalMag,1676595041362,122544992165294,-32.5862,-16.7018,-113.3502,-45.491467,0.31409264,-60.09035
UncalGyro,1676595041363,122544993458935,-0.21181752,-0.047494773,0.23640485,0.00034572015,-0.00075245637,-0.0032814108
UncalAccel,1676595041366,122544997959789,0.7722835,4.007978,9.367901,0.006110925,-0.043260336,-0.038735468
OrientationDeg,1676595041367,122544997959789,274.0,-11.0,-25.0
UncalMag,1676595041372,122545002165539,-30.8294,-16.043,-111.4348,-45.491467,0.31409264,-60.09035
UncalGyro,1676595041371,122545002447704,-0.23380867,0.12843442,0.33383787,0.00034572015,-0.00075245637,-0.0032814108
UncalAccel,1676595041375,122545006930430,0.8279166,4.347759,9.2177515,0.006110925,-0.043260336,-0.038735468
OrientationDeg,1676595041376,122545006930430,274.0,-11.0,-25.0
UncalGyro,1676595041381,122545011430248,-0.27763826,0.31413746,0.37812558,0.00034572015,-0.00075245637,-0.0032814108
UncalMag,1676595041382,122545012165294,-32.3666,-16.1894,-112.2156,-45.491467,0.31409264,-60.09035
UncalAccel,1676595041385,122545015919933,0.9493524,4.5003014,9.004191,0.006110925,-0.043260336,-0.038735468
OrientationDeg,1676595041385,122545015919933,274.0,-11.0,-25.0
UncalGyro,1676595041389,122545020412670,-0.3266602,0.47601673,0.3930918,0.00034572015,-0.00075245637,-0.0032814108
UncalMag,1676595041391,122545022165539,-32.1958,-15.884399,-110.837,-45.491467,0.31409264,-60.09035
UncalAccel,1676595041393,122545024898754,1.1760724,4.469793,8.40479,0.006110925,-0.043260336,-0.038735468
OrientationDeg,1676595041394,122545024898754,274.0,-11.0,-25.0
UncalGyro,1676595041399,122545029389843,-0.37614027,0.5369505,0.38744128,0.00034572015,-0.00075245637,-0.0032814108
UncalMag,1676595041401,122545032165539,-30.597599,-16.0552,-108.0188,-45.491467,0.31409264,-60.09035
UncalAccel,1676595041402,122545033877758,1.1042876,4.26401,8.141579,0.006110925,-0.043260336,-0.038735468
OrientationDeg,1676595041403,122545033877758,273.0,-11.0,-24.0
UncalGyro,1676595041408,122545038368908,-0.41416663,0.49938235,0.38912117,0.00034572015,-0.00075245637,-0.0032814108
UncalMag,1676595041412,122545042169201,-30.7684,-15.884399,-107.665,-45.491467,0.31409264,-60.09035
UncalAccel,1676595041411,122545042854259,1.1353943,3.9619162,8.168498,0.006110925,-0.043260336,-0.038735468
OrientationDeg,1676595041411,122545042854259,273.0,-11.0,-24.0
UncalGyro,1676595041416,122545047336742,-0.41538838,0.39187005,0.40393466,0.00034572015,-0.00075245637,-0.0032814108
UncalAccel,1676595041420,122545051837780,1.2281163,3.8464625,8.592627,0.006110925,-0.043260336,-0.038735468
UncalMag,1676595041422,122545052153331,-29.7314,-15.311,-108.8362,-45.491467,0.31409264,-60.09035
OrientationDeg,1676595041420,122545051837780,273.0,-11.0,-24.0
UncalGyro,1676595041425,122545056327465,-0.35262197,0.28512135,0.40454552,0.00034572015,-0.00075245637,-0.0032814108
UncalAccel,1676595041429,122545060819651,0.8207382,3.6143587,9.533006,0.006110925,-0.043260336,-0.038735468
OrientationDeg,1676595041429,122545060819651,273.0,-10.0,-24.0
UncalMag,1676595041431,122545062165294,-28.67,-14.737599,-109.556,-45.491467,0.31409264,-60.09035
UncalGyro,1676595041434,122545065307140,-0.24495697,0.34437528,0.4343252,0.00034572015,-0.00075245637,-0.0032814108
UncalAccel,1676595041438,122545069796032,0.4755735,3.2237303,10.320843,0.006110925,-0.043260336,-0.038735468
OrientationDeg,1676595041439,122545069796032,273.0,-10.0,-24.0
UncalMag,1676595041442,122545072155529,-29.036,-14.457,-108.9582,-45.491467,0.31409264,-60.09035
UncalGyro,1676595041444,122545074283885,-0.14523321,0.59131753,0.52946746,0.00034572015,-0.00075245637,-0.0032814108
UncalAccel,1676595041447,122545078763683,0.40797627,2.9168508,10.032507,0.006110925,-0.043260336,-0.038735468
OrientationDeg,1676595041448,122545078763683,272.0,-10.0,-24.0
UncalMag,1676595041451,122545082165294,-29.3776,-15.066999,-106.4206,-45.491467,0.31409264,-60.09035
UncalGyro,1676595041452,122545083266674,-0.09773844,0.8268061,0.66859204,0.00034572015,-0.00075245637,-0.0032814108
UncalAccel,1676595041456,122545087756115,0.50488555,3.0598218,9.009576,0.006110925,-0.043260336,-0.038735468
OrientationDeg,1676595041457,122545087756115,272.0,-10.0,-23.0
UncalMag,1676595041461,122545092165783,-30.8294,-15.7746,-107.921196,-45.491467,0.31409264,-60.09035
UncalGyro,1676595041462,122545092244945,-0.11255192,0.89995724,0.7867944,0.00034572015,-0.00075245637,-0.0032814108
UncalAccel,1676595041465,122545096719188,0.81954175,3.2063823,8.258827,0.006110925,-0.043260336,-0.038735468
OrientationDeg,1676595041465,122545096719188,272.0,-9.0,-23.0
UncalGyro,1676595041470,122545101225840,-0.13408493,0.8362745,0.8709411,0.00034572015,-0.00075245637,-0.0032814108
UncalMag,1676595041471,122545102165050,-29.0604,-15.2134,-109.1168,-45.491467,0.31409264,-60.09035
UncalAccel,1676595041474,122545105714061,1.0648061,3.3343983,7.9980097,0.006110925,-0.043260336,-0.038735468
OrientationDeg,1676595041474,122545105714061,271.0,-9.0,-23.0
UncalGyro,1676595041480,122545110205638,-0.12339478,0.68401635,0.9289733,0.00034572015,-0.00075245637,-0.0032814108
UncalMag,1676595041482,122545112165539,-31.963999,-16.3358,-111.0078,-45.491467,0.31409264,-60.09035
UncalAccel,1676595041484,122545114681957,1.1431711,3.2093735,8.36471,0.006110925,-0.043260336,-0.038735468
OrientationDeg,1676595041484,122545114681957,271.0,-9.0,-23.0
UncalGyro,1676595041488,122545119184520,-0.079107046,0.55680364,0.9469938,0.00034572015,-0.00075245637,-0.0032814108
UncalMag,1676595041491,122545122165539,-33.6476,-17.1166,-110.0684,-45.491467,0.31409264,-60.09035
UncalAccel,1676595041493,122545123673839,0.95353985,3.0855448,8.911469,0.006110925,-0.043260336,-0.038735468
OrientationDeg,1676595041493,122545123673839,270.0,-9.0,-23.0
UncalGyro,1676595041497,122545128166453,-0.019089539,0.54336464,0.9631818,0.00034572015,-0.00075245637,-0.0032814108
UncalMag,1676595041501,122545132165539,-31.0612,-16.2016,-106.1522,-45.491467,0.31409264,-60.09035
UncalAccel,1676595041501,122545132649730,0.3188436,2.8743782,9.722636,0.006110925,-0.043260336,-0.038735468
OrientationDeg,1676595041501,122545132649730,269.0,-9.0,-23.0
UncalGyro,1676595041506,122545137131664,0.050396383,0.7118107,1.0230466,0.00034572015,-0.00075245637,-0.0032814108
UncalAccel,1676595041510,122545141627635,-0.5712864,1.8490537,10.733006,0.006110925,-0.043260336,-0.038735468
UncalMag,1676595041511,122545142153820,-33.7086,-17.604599,-107.481995,-45.491467,0.31409264,-60.09035
OrientationDeg,1676595041511,122545141627635,269.0,-9.0,-23.0
UncalGyro,1676595041515,122545146104747,0.09819659,0.98364574,1.0838276,0.00034572015,-0.00075245637,-0.0032814108
UncalAccel,1676595041519,122545150614451,1.6761723,2.9856443,9.195618,0.006110925,-0.043260336,-0.038735468
OrientationDeg,1676595041520,122545150614451,268.0,-8.0,-23.0
UncalMag,1676595041521,122545152165050,-31.0246,-16.1528,-109.617,-45.491467,0.31409264,-60.09035
UncalGyro,1676595041525,122545155102550,0.08277224,1.146594,1.1039863,0.00034572015,-0.00075245637,-0.0032814108
UncalAccel,1676595041529,122545159596507,0.63230336,3.7878382,8.493922,0.006110925,-0.043260336,-0.038735468
OrientationDeg,1676595041529,122545159596507,268.0,-8.0,-23.0
UncalMag,1676595041531,122545162165539,-27.376799,-15.5794,-108.396996,-45.491467,0.31409264,-60.09035
UncalGyro,1676595041534,122545164078868,0.06154467,1.1134546,1.1559098,0.00034572015,-0.00075245637,-0.0032814108
UncalAccel,1676595041538,122545168560070,1.8801605,3.7896328,7.670791,0.006110925,-0.043260336,-0.038735468
OrientationDeg,1676595041537,122545168560070,267.0,-8.0,-23.0
UncalMag,1676595041541,122545172165294,-31.4394,-17.2386,-110.129395,-45.491467,0.31409264,-60.09035
UncalGyro,1676595041542,122545173062023,0.046120327,0.9424124,1.0534371,0.00034572015,-0.00075245637,-0.0032814108
UncalAccel,1676595041547,122545177550121,1.7754744,4.0683966,8.05783,0.006110925,-0.043260336,-0.038735468
OrientationDeg,1676595041546,122545177550121,266.0,-8.0,-23.0
UncalGyro,1676595041551,122545182043529,0.11178834,0.7637343,0.9254609,0.00034572015,-0.00075245637,-0.0032814108
UncalMag,1676595041551,122545182163097,-31.2442,-17.140999,-106.530396,-45.491467,0.31409264,-60.09035
UncalAccel,1676595041556,122545186529613,1.0755738,3.8518462,8.577671,0.006110925,-0.043260336,-0.038735468
OrientationDeg,1676595041555,122545186529613,266.0,-7.0,-23.0
UncalGyro,1676595041561,122545191020763,0.23930646,0.6406449,0.8240572,0.00034572015,-0.00075245637,-0.0032814108
UncalMag,1676595041562,122545192165294,-32.024998,-17.6412,-107.3722,-45.491467,0.31409264,-60.09035
UncalAccel,1676595041564,122545195510082,1.3501502,3.955934,8.179266,0.006110925,-0.043260336,-0.038735468
OrientationDeg,1676595041564,122545195510082,266.0,-7.0,-23.0
UncalGyro,1676595041569,122545200000011,0.33460143,0.57818395,0.6760751,0.00034572015,-0.00075245637,-0.0032814108
UncalMag,1676595041572,122545202165539,-31.5614,-18.190199,-107.0306,-45.491467,0.31409264,-60.09035
UncalAccel,1676595041574,122545204488781,1.1724831,3.8560338,7.3100734,0.006110925,-0.043260336,-0.038735468
OrientationDeg,1676595041573,122545204488781,265.0,-7.0,-23.0
UncalGyro,1676595041578,122545208979259,0.35216382,0.46043968,0.61682117,0.00034572015,-0.00075245637,-0.0032814108
UncalMag,1676595041581,122545212165539,-31.5492,-18.1658,-108.872795,-45.491467,0.31409264,-60.09035
UncalAccel,1676595041583,122545213468029,1.2628121,3.03051,6.977471,0.006110925,-0.043260336,-0.038735468
OrientationDeg,1676595041583,122545213468029,265.0,-7.0,-23.0
UncalGyro,1676595041586,122545217958934,0.33017266,0.31245756,0.6603453,0.00034572015,-0.00075245637,-0.0032814108
UncalMag,1676595041591,122545222165539,-32.098198,-18.6538,-108.250595,-45.491467,0.31409264,-60.09035
UncalAccel,1676595041591,122545222444591,1.5493526,2.7266214,7.420741,0.006110925,-0.043260336,-0.038735468
OrientationDeg,1676595041591,122545222444591,264.0,-7.0,-23.0
UncalGyro,1676595041595,122545226927074,0.29229903,0.27107146,0.714865,0.00034572015,-0.00075245637,-0.0032814108
UncalAccel,1676595041601,122545231428234,1.6013966,3.1872396,8.185846,0.006110925,-0.043260336,-0.038735468
UncalMag,1676595041601,122545232153820,-32.098198,-18.8612,-106.688995,-45.491467,0.31409264,-60.09035
OrientationDeg,1676595041600,122545231428234,264.0,-7.0,-23.0
UncalGyro,1676595041604,122545235918041,0.24923302,0.40332377,0.7325801,0.00034572015,-0.00075245637,-0.0032814108
UncalAccel,1676595041609,122545240409984,1.7413766,3.4546378,8.306684,0.006110925,-0.043260336,-0.038735468
OrientationDeg,1676595041609,122545240409984,263.0,-7.0,-23.0
UncalMag,1676595041611,122545242150402,-32.488598,-18.727,-105.408,-45.491467,0.31409264,-60.09035
UncalGyro,1676595041613,122545244898387,0.17928895,0.58459806,0.7872526,0.00034572015,-0.00075245637,-0.0032814108
UncalAccel,1676595041618,122545249385997,1.8909281,3.5114672,8.026724,0.006110925,-0.043260336,-0.038735468
OrientationDeg,1676595041618,122545249385997,263.0,-7.0,-23.0
UncalMag,1676595041621,122545252146984,-32.3056,-19.032,-104.432,-45.491467,0.31409264,-60.09035
UncalGyro,1676595041622,122545253874095,0.084910266,0.7367035,0.9074403,0.00034572015,-0.00075245637,-0.0032814108
UncalAccel,1676595041628,122545258353953,1.628914,3.5700915,7.1156564,0.006110925,-0.043260336,-0.038735468
OrientationDeg,1676595041627,122545258353953,262.0,-7.0,-23.0
UncalMag,1676595041631,122545262165294,-31.0002,-19.044199,-103.882996,-45.491467,0.31409264,-60.09035
UncalGyro,1676595041631,122545262856151,-0.059101213,0.8391761,1.1065824,0.00034572015,-0.00075245637,-0.0032814108
UncalAccel,1676595041637,122545267343761,1.5918252,3.6466618,5.9958153,0.006110925,-0.043260336,-0.038735468
OrientationDeg,1676595041636,122545267343761,262.0,-7.0,-23.0
UncalGyro,1676595041641,122545271838817,-0.27885997,0.87872964,1.3252722,0.00034572015,-0.00075245637,-0.0032814108
UncalMag,1676595041642,122545272153576,-32.5984,-19.764,-105.103,-45.491467,0.31409264,-60.09035
UncalAccel,1676595041646,122545276324779,2.0117657,3.6436708,4.982455,0.006110925,-0.043260336,-0.038735468
OrientationDeg,1676595041646,122545276324779,261.0,-7.0,-23.0
UncalGyro,1676595041650,122545280816051,-0.5012149,0.6789767,1.4929546,0.00034572015,-0.00075245637,-0.0032814108
UncalMag,1676595041652,122545282165294,-30.3536,-18.775799,-104.212395,-45.491467,0.31409264,-60.09035
UncalAccel,1676595041655,122545285303233,2.6829524,3.3140593,5.6129637,0.006110925,-0.043260336,-0.038735468
OrientationDeg,1676595041655,122545285303233,260.0,-7.0,-22.0
UncalGyro,1676595041659,122545289786510,-0.6582073,0.48502702,1.5908458,0.00034572015,-0.00075245637,-0.0032814108
UncalMag,1676595041661,122545292165294,-32.9278,-19.9104,-104.065994,-45.491467,0.31409264,-60.09035
UncalAccel,1676595041663,122545294265636,2.8199415,2.5752754,6.6538415,0.006110925,-0.043260336,-0.038735468
OrientationDeg,1676595041664,122545294265636,259.0,-7.0,-22.0
