# 
# Header Description:
# 
# Version: v3.0.5.6 Platform: 13 Manufacturer: Google Model: Pixel 7
# 
# Raw,utcTimeMillis,TimeNanos,LeapSecond,TimeUncertaintyNanos,FullBiasNanos,BiasNanos,BiasUncertaintyNanos,DriftNanosPerSecond,DriftUncertaintyNanosPerSecond,HardwareClockDiscontinuityCount,Svid,TimeOffsetNanos,State,ReceivedSvTimeNanos,ReceivedSvTimeUncertaintyNanos,Cn0DbHz,PseudorangeRateMetersPerSecond,PseudorangeRateUncertaintyMetersPerSecond,AccumulatedDeltaRangeState,AccumulatedDeltaRangeMeters,AccumulatedDeltaRangeUncertaintyMeters,CarrierFrequencyHz,CarrierCycles,CarrierPhase,CarrierPhaseUncertainty,MultipathIndicator,SnrInDb,ConstellationType,AgcDb,BasebandCn0DbHz,FullInterSignalBiasNanos,FullInterSignalBiasUncertaintyNanos,SatelliteInterSignalBiasNanos,SatelliteInterSignalBiasUncertaintyNanos,CodeType,ChipsetElapsedRealtimeNanos
# 
# UncalAccel,utcTimeMillis,elapsedRealtimeNanos,UncalAccelXMps2,UncalAccelYMps2,UncalAccelZMps2,BiasXMps2,BiasYMps2,BiasZMps2
# 
# Accel,utcTimeMillis,elapsedRealtimeNanos,AccelXMps2,AccelYMps2,AccelZMps2
# 
# UncalGyro,utcTimeMillis,elapsedRealtimeNanos,UncalGyroXRadPerSec,UncalGyroYRadPerSec,UncalGyroZRadPerSec,DriftXRadPerSec,DriftYRadPerSec,DriftZRadPerSec
# 
# Gyro,utcTimeMillis,elapsedRealtimeNanos,GyroXRadPerSec,GyroYRadPerSec,GyroZRadPerSec
# 
# UncalMag,utcTimeMillis,elapsedRealtimeNanos,UncalMagXMicroT,UncalMagYMicroT,UncalMagZMicroT,BiasXMicroT,BiasYMicroT,BiasZMicroT
# 
# Mag,utcTimeMillis,elapsedRealtimeNanos,MagXMicroT,MagYMicroT,MagZMicroT
# 
# OrientationDeg,utcTimeMillis,elapsedRealtimeNanos,yawDeg,rollDeg,pitchDeg
# 
# Fix,Provider,LatitudeDegrees,LongitudeDegrees,AltitudeMeters,SpeedMps,AccuracyMeters,BearingDegrees,UnixTimeMillis,SpeedAccuracyMps,BearingAccuracyDegrees,elapsedRealtimeNanos,VerticalAccuracyMeters
# 
# Nav,Svid,Type,Status,MessageId,Sub-messageId,Data(Bytes)
# 
# Status,UnixTimeMillis,SignalCount,SignalIndex,ConstellationType,Svid,CarrierFrequencyHz,Cn0DbHz,AzimuthDegrees,ElevationDegrees,UsedInFix,HasAlmanacData,HasEphemerisData,BasebandCn0DbHz
# 
UncalMag,1676592085188,29142010433541,-188.3436,775.77356,388.04538,-174.57417,771.0116,430.86337
UncalGyro,1676592085189,29142011555894,-0.43783766,-0.02977968,0.10552697,0.0035825693,-0.0004933646,-0.00031584338
UncalAccel,1676592085189,29142011555894,-0.80578303,2.9018958,9.592826,0.037048545,-0.031444572,0.0098014325
Fix,FLP,37.4308047000,-122.1550081000,-15.80000114440918,0.606898,5.738,111.47929,1676592084587,,,29141409451836,2.451039
UncalGyro,1676592085198,29142020037789,-0.5021312,-0.06887506,0.055741455,0.0035825693,-0.0004933646,-0.00031584338
UncalAccel,1676592085198,29142020037789,-0.6520442,2.6871397,9.671191,0.037048545,-0.031444572,0.0098014325
UncalMag,1676592085198,29142020434070,-188.612,776.5544,388.1186,-174.57417,771.0116,430.86337
OrientationDeg,1676592085198,29142020037789,50.0,4.0,-14.0
UncalGyro,1676592085206,29142028521787,-0.5103779,-0.08200866,0.040775254,0.0035825693,-0.0004933646,-0.00031584338
UncalAccel,1676592085206,29142028521787,-0.48993045,2.4771698,9.840483,0.037048545,-0.031444572,0.0098014325
OrientationDeg,1676592085206,29142028521787,50.0,4.0,-14.0
UncalMag,1676592085208,29142030433500,-188.8438,776.31036,388.9238,-174.57417,771.0116,430.86337
UncalGyro,1676592085215,29142037002867,-0.46471575,-0.057268616,0.038331795,0.0035825693,-0.0004933646,-0.00031584338
UncalAccel,1676592085215,29142037002867,-0.34636107,2.353341,9.980463,0.037048545,-0.031444572,0.0098014325
OrientationDeg,1676592085215,29142037002867,50.0,4.0,-14.0
UncalMag,1676592085218,29142040435657,-188.6852,776.9814,387.9844,-174.57417,771.0116,430.86337
UncalGyro,1676592085223,29142045482480,-0.36758816,-0.0067195175,0.026267206,0.0035825693,-0.0004933646,-0.00031584338
UncalAccel,1676592085223,29142045482480,-0.20757736,2.2390838,10.005588,0.037048545,-0.031444572,0.0098014325
OrientationDeg,1676592085223,29142045482480,50.0,4.0,-14.0
UncalMag,1676592085228,29142050433745,-188.7706,777.4328,388.58218,-174.57417,771.0116,430.86337
UncalGyro,1676592085231,29142053966326,-0.23243423,0.061850104,0.004886922,0.0035825693,-0.0004933646,-0.00031584338
UncalAccel,1676592085231,29142053966326,-0.14895321,2.143969,9.963714,0.037048545,-0.031444572,0.0098014325
OrientationDeg,1676592085231,29142053966326,50.0,4.0,-14.0
UncalMag,1676592085238,29142060435698,-188.96579,777.68896,388.52118,-174.57417,771.0116,430.86337
UncalGyro,1676592085240,29142062444548,-0.07819075,0.14080444,-0.022449298,0.0035825693,-0.0004933646,-0.00031584338
UncalAccel,1676592085240,29142062444548,-0.18185452,2.1487548,9.882358,0.037048545,-0.031444572,0.0098014325
OrientationDeg,1676592085240,29142062444548,50.0,4.0,-14.0
UncalMag,1676592085248,29142070435983,-188.9048,776.8716,387.4842,-174.57417,771.0116,430.86337
UncalGyro,1676592085248,29142070923054,0.066737026,0.21013765,-0.04444045,0.0035825693,-0.0004933646,-0.00031584338
UncalAccel,1676592085248,29142070923054,-0.30149564,2.1912274,9.814162,0.037048545,-0.031444572,0.0098014325
OrientationDeg,1676592085248,29142070923054,50.0,4.0,-14.0
UncalGyro,1676592085257,29142079408182,0.1826487,0.25809056,-0.054367006,0.0035825693,-0.0004933646,-0.00031584338
UncalAccel,1676592085257,29142079408182,-0.4977071,2.25703,9.765109,0.037048545,-0.031444572,0.0098014325
OrientationDeg,1676592085257,29142079408182,50.0,4.0,-14.0
UncalMag,1676592085258,29142080433786,-188.5876,776.8838,387.594,-174.57417,771.0116,430.86337
UncalGyro,1676592085265,29142087886708,0.2678644,0.27977628,-0.05589417,0.0035825693,-0.0004933646,-0.00031584338
UncalAccel,1676592085265,29142087886708,-0.67477596,2.370689,9.725029,0.037048545,-0.031444572,0.0098014325
OrientationDeg,1676592085265,29142087886708,50.0,4.0,-14.0
UncalMag,1676592085268,29142090433827,-188.5876,776.9814,387.8624,-174.57417,771.0116,430.86337
UncalGyro,1676592085274,29142096367135,0.31795537,0.27259862,-0.049938235,0.0035825693,-0.0004933646,-0.00031584338
UncalAccel,1676592085274,29142096367135,-0.86141616,2.489732,9.675379,0.037048545,-0.031444572,0.0098014325
UncalMag,1676592085278,29142100432241,-188.3802,776.9204,388.57,-174.57417,771.0116,430.86337
OrientationDeg,1676592085274,29142096367135,50.0,4.0,-14.0
UncalGyro,1676592085282,29142104845295,0.32727104,0.23105977,-0.035277467,0.0035825693,-0.0004933646,-0.00031584338
UncalAccel,1676592085282,29142104845295,-1.0289137,2.589034,9.616755,0.037048545,-0.031444572,0.0098014325
OrientationDeg,1676592085282,29142104845295,50.0,5.0,-14.0
UncalMag,1676592085288,29142110434113,-188.2948,776.6642,388.63098,-174.57417,771.0116,430.86337
UncalGyro,1676592085291,29142113327432,0.3118467,0.17989981,-0.019394971,0.0035825693,-0.0004933646,-0.00031584338
UncalAccel,1676592085291,29142113327432,-1.096511,2.617748,9.659226,0.037048545,-0.031444572,0.0098014325
OrientationDeg,1676592085291,29142113327432,50.0,5.0,-14.0
UncalMag,1676592085298,29142120435618,-188.19719,776.5666,388.2406,-174.57417,771.0116,430.86337
UncalGyro,1676592085299,29142121810334,0.28985557,0.12018774,-0.0032070426,0.0035825693,-0.0004933646,-0.00031584338
UncalAccel,1676592085299,29142121810334,-1.0666007,2.603391,9.549755,0.037048545,-0.031444572,0.0098014325
OrientationDeg,1676592085299,29142121810334,50.0,5.0,-14.0
UncalGyro,1676592085308,29142130293631,0.257327,0.039858956,0.01450805,0.0035825693,-0.0004933646,-0.00031584338
UncalAccel,1676592085308,29142130293631,-1.0845468,2.6129622,9.387043,0.037048545,-0.031444572,0.0098014325
UncalMag,1676592085308,29142130433381,-187.7702,776.5544,387.7404,-174.57417,771.0116,430.86337
OrientationDeg,1676592085308,29142130293631,50.0,5.0,-14.0
UncalGyro,1676592085316,29142138764170,0.21013765,-0.022907447,0.025503624,0.0035825693,-0.0004933646,-0.00031584338
UncalAccel,1676592085316,29142138764170,-1.0516455,2.6135604,9.444471,0.037048545,-0.031444572,0.0098014325
UncalMag,1676592085318,29142140433544,-187.8068,776.1518,388.7286,-174.57417,771.0116,430.86337
OrientationDeg,1676592085316,29142138764170,50.0,5.0,-15.0
UncalGyro,1676592085325,29142147252788,0.1563815,-0.043218717,0.032375857,0.0035825693,-0.0004933646,-0.00031584338
UncalAccel,1676592085325,29142147252788,-0.9523434,2.608775,9.559925,0.037048545,-0.031444572,0.0098014325
OrientationDeg,1676592085325,29142147252788,50.0,5.0,-15.0
UncalMag,1676592085328,29142150444327,-187.575,776.3958,387.93558,-174.57417,771.0116,430.86337
UncalGyro,1676592085333,29142155739685,0.10781772,-0.05131268,0.03924809,0.0035825693,-0.0004933646,-0.00031584338
UncalAccel,1676592085333,29142155739685,-0.8458628,2.5956144,9.445667,0.037048545,-0.031444572,0.0098014325
OrientationDeg,1676592085333,29142155739685,50.0,5.0,-15.0
UncalMag,1676592085338,29142160439322,-187.9044,776.1152,387.52078,-174.57417,771.0116,430.86337
UncalGyro,1676592085342,29142164221813,0.07269296,-0.06261369,0.047800206,0.0035825693,-0.0004933646,-0.00031584338
UncalAccel,1676592085342,29142164221813,-0.76331043,2.524428,9.346365,0.037048545,-0.031444572,0.0098014325
OrientationDeg,1676592085342,29142164221813,50.0,5.0,-15.0
UncalMag,1676592085348,29142170444002,-187.9166,776.042,388.10638,-174.57417,771.0116,430.86337
UncalGyro,1676592085350,29142172689148,0.04520403,-0.058643065,0.057726767,0.0035825693,-0.0004933646,-0.00031584338
UncalAccel,1676592085350,29142172689148,-0.6963114,2.4963121,9.351749,0.037048545,-0.031444572,0.0098014325
OrientationDeg,1676592085350,29142172689148,50.0,5.0,-15.0
UncalMag,1676592085358,29142180444287,-188.4778,776.9936,388.10638,-174.57417,771.0116,430.86337
UncalGyro,1676592085359,29142181179567,0.019242255,-0.041080687,0.06704246,0.0035825693,-0.0004933646,-0.00031584338
UncalAccel,1676592085359,29142181179567,-0.6442675,2.525026,9.366106,0.037048545,-0.031444572,0.0098014325
OrientationDeg,1676592085359,29142181179567,50.0,5.0,-15.0
OrientationDeg,1676592085367,29142189663647,50.0,5.0,-15.0
UncalGyro,1676592085367,29142189663647,-0.0022907446,-0.010079277,0.06841691,0.0035825693,-0.0004933646,-0.00031584338
UncalAccel,1676592085367,29142189663647,-0.59641105,2.5154548,9.428918,0.037048545,-0.031444572,0.0098014325
UncalMag,1676592085368,29142190433871,-188.612,776.4324,387.1304,-174.57417,771.0116,430.86337
UncalGyro,1676592085376,29142198141603,-0.013439035,0.032528576,0.06093381,0.0035825693,-0.0004933646,-0.00031584338
UncalAccel,1676592085376,29142198141603,-0.5491528,2.4586253,9.48156,0.037048545,-0.031444572,0.0098014325
OrientationDeg,1676592085376,29142198141603,50.0,5.0,-15.0
UncalMag,1676592085378,29142200433586,-188.429,776.1762,386.93518,-174.57417,771.0116,430.86337
UncalGyro,1676592085384,29142206615694,-0.018478673,0.07284568,0.05497787,0.0035825693,-0.0004933646,-0.00031584338
UncalAccel,1676592085384,29142206615694,-0.56769717,2.352743,9.515657,0.037048545,-0.031444572,0.0098014325
OrientationDeg,1676592085384,29142206615694,50.0,5.0,-15.0
UncalMag,1676592085388,29142210444328,-188.0996,776.3592,387.3378,-174.57417,771.0116,430.86337
UncalGyro,1676592085393,29142215091514,-0.014049901,0.09040806,0.048258353,0.0035825693,-0.0004933646,-0.00031584338
UncalAccel,1676592085393,29142215091514,-0.6149554,2.2905295,9.496515,0.037048545,-0.031444572,0.0098014325
OrientationDeg,1676592085393,29142215091514,50.0,5.0,-15.0
UncalMag,1676592085398,29142220435173,-187.87999,776.5666,388.3504,-174.57417,771.0116,430.86337
UncalGyro,1676592085402,29142223583753,0.0030543262,0.08597928,0.041996986,0.0035825693,-0.0004933646,-0.00031584338
UncalAccel,1676592085401,29142223583753,-0.701097,2.2031915,9.577272,0.037048545,-0.031444572,0.0098014325
OrientationDeg,1676592085401,29142223583753,50.0,5.0,-15.0
UncalMag,1676592085408,29142230444125,-187.67259,776.469,387.594,-174.57417,771.0116,430.86337
UncalGyro,1676592085410,29142232063653,0.0290161,0.070249505,0.03894266,0.0035825693,-0.0004933646,-0.00031584338
UncalAccel,1676592085410,29142232063653,-0.7543373,2.1649063,9.629914,0.037048545,-0.031444572,0.0098014325
OrientationDeg,1676592085410,29142232063653,50.0,5.0,-15.0
UncalMag,1676592085418,29142240444126,-187.7946,776.20056,387.655,-174.57417,771.0116,430.86337
UncalGyro,1676592085418,29142240542453,0.06795876,0.033444874,0.035888333,0.0035825693,-0.0004933646,-0.00031584338
UncalAccel,1676592085418,29142240542453,-0.7680961,2.1649063,9.562916,0.037048545,-0.031444572,0.0098014325
OrientationDeg,1676592085418,29142240542453,50.0,5.0,-15.0
UncalGyro,1676592085427,29142249012556,0.110413894,-0.0022907446,0.033444874,0.0035825693,-0.0004933646,-0.00031584338
UncalAccel,1676592085427,29142249012556,-0.78783685,2.1690936,9.615558,0.037048545,-0.031444572,0.0098014325
UncalMag,1676592085428,29142250433587,-188.2948,776.5422,387.63058,-174.57417,771.0116,430.86337
OrientationDeg,1676592085427,29142249012556,50.0,5.0,-15.0
UncalGyro,1676592085435,29142257504601,0.1470658,-0.013897184,0.03359759,0.0035825693,-0.0004933646,-0.00031584338
UncalAccel,1676592085435,29142257504601,-0.7830512,2.2121646,9.643674,0.037048545,-0.031444572,0.0098014325
OrientationDeg,1676592085435,29142257504601,50.0,5.0,-15.0
UncalMag,1676592085438,29142260444330,-188.3192,776.20056,388.0332,-174.57417,771.0116,430.86337
UncalGyro,1676592085443,29142265974389,0.17898351,-0.0053450707,0.039553523,0.0035825693,-0.0004933646,-0.00031584338
UncalAccel,1676592085443,29142265974389,-0.78783685,2.288735,9.610174,0.037048545,-0.031444572,0.0098014325
OrientationDeg,1676592085443,29142265974389,50.0,5.0,-15.0
UncalMag,1676592085448,29142270433262,-188.124,775.9322,387.6062,-174.57417,771.0116,430.86337
UncalGyro,1676592085452,29142274462386,0.20830505,0.0056505036,0.051923547,0.0035825693,-0.0004933646,-0.00031584338
UncalAccel,1676592085452,29142274462386,-0.8063812,2.3132613,9.495318,0.037048545,-0.031444572,0.0098014325
OrientationDeg,1676592085452,29142274462386,50.0,5.0,-15.0
UncalMag,1676592085458,29142280444452,-188.46559,775.57837,387.3988,-174.57417,771.0116,430.86337
UncalGyro,1676592085460,29142282942864,0.2275473,0.021991149,0.0777326,0.0035825693,-0.0004933646,-0.00031584338
UncalAccel,1676592085460,29142282942864,-0.7920243,2.318047,9.500104,0.037048545,-0.031444572,0.0098014325
OrientationDeg,1676592085460,29142282942864,50.0,5.0,-15.0
UncalMag,1676592085468,29142290436721,-187.819,775.7614,387.4354,-174.57417,771.0116,430.86337
UncalGyro,1676592085469,29142291424108,0.23640485,0.03481932,0.114689946,0.0035825693,-0.0004933646,-0.00031584338
UncalAccel,1676592085469,29142291424108,-0.7830512,2.318047,9.519247,0.037048545,-0.031444572,0.0098014325
OrientationDeg,1676592085469,29142291424108,50.0,5.0,-15.0
UncalGyro,1676592085477,29142299907252,0.23625213,0.032375857,0.15867224,0.0035825693,-0.0004933646,-0.00031584338
UncalAccel,1676592085477,29142299907252,-0.80757767,2.288735,9.605389,0.037048545,-0.031444572,0.0098014325
UncalMag,1676592085478,29142300433182,-187.9166,775.8468,387.3256,-174.57417,771.0116,430.86337
OrientationDeg,1676592085477,29142299907252,50.0,5.0,-15.0
UncalGyro,1676592085486,29142308389296,0.23258694,0.01282817,0.20357084,0.0035825693,-0.0004933646,-0.00031584338
UncalAccel,1676592085486,29142308389296,-0.8751749,2.283351,9.747761,0.037048545,-0.031444572,0.0098014325
UncalMag,1676592085488,29142310444209,-187.37979,776.1396,387.99658,-174.57417,771.0116,430.86337
UncalGyro,1676592085494,29142316856836,0.23884831,-0.01786781,0.24419338,0.0035825693,-0.0004933646,-0.00031584338
UncalAccel,1676592085494,29142316856836,-0.8805587,2.2785654,9.7908325,0.037048545,-0.031444572,0.0098014325
OrientationDeg,1676592085486,29142308389296,50.0,5.0,-16.0
OrientationDeg,1676592085494,29142316856836,50.0,5.0,-16.0
UncalMag,1676592085498,29142320444250,-187.6238,775.5174,387.9722,-174.57417,771.0116,430.86337
UncalGyro,1676592085503,29142325337488,0.25473082,-0.052534413,0.27214047,0.0035825693,-0.0004933646,-0.00031584338
UncalAccel,1676592085503,29142325337488,-0.9092726,2.239682,9.824331,0.037048545,-0.031444572,0.0098014325
OrientationDeg,1676592085503,29142325337488,50.0,5.0,-16.0
UncalMag,1676592085508,29142330433711,-187.0138,775.23676,386.679,-174.57417,771.0116,430.86337
UncalGyro,1676592085511,29142333823481,0.27015516,-0.079870634,0.2828306,0.0035825693,-0.0004933646,-0.00031584338
UncalAccel,1676592085511,29142333823481,-0.9236295,2.2205393,9.876974,0.037048545,-0.031444572,0.0098014325
OrientationDeg,1676592085511,29142333823481,50.0,5.0,-16.0
UncalMag,1676592085519,29142340444332,-187.8434,775.3344,387.8136,-174.57417,771.0116,430.86337
UncalGyro,1676592085520,29142342309107,0.2762638,-0.10919216,0.28298333,0.0035825693,-0.0004933646,-0.00031584338
UncalAccel,1676592085520,29142342309107,-0.8757731,2.2211375,9.834501,0.037048545,-0.031444572,0.0098014325
OrientationDeg,1676592085520,29142342309107,49.0,4.0,-16.0
UncalMag,1676592085528,29142350444088,-187.7458,775.3344,387.56958,-174.57417,771.0116,430.86337
UncalGyro,1676592085528,29142350789181,0.26816985,-0.12736541,0.26557365,0.0035825693,-0.0004933646,-0.00031584338
UncalAccel,1676592085528,29142350789181,-1.0438689,2.263012,9.933205,0.037048545,-0.031444572,0.0098014325
OrientationDeg,1676592085528,29142350789181,49.0,4.0,-16.0
UncalGyro,1676592085537,29142359270168,0.24846944,-0.16035213,0.22388211,0.0035825693,-0.0004933646,-0.00031584338
UncalAccel,1676592085537,29142359270168,-1.0241281,2.315654,9.775877,0.037048545,-0.031444572,0.0098014325
UncalMag,1676592085538,29142360433753,-187.5262,775.45636,388.67978,-174.57417,771.0116,430.86337
OrientationDeg,1676592085537,29142359270168,49.0,4.0,-16.0
UncalGyro,1676592085545,29142367749223,0.22693644,-0.19318613,0.16355917,0.0035825693,-0.0004933646,-0.00031584338
UncalAccel,1676592085545,29142367749223,-1.0576276,2.411367,9.741181,0.037048545,-0.031444572,0.0098014325
OrientationDeg,1676592085545,29142367749223,49.0,4.0,-16.0
UncalMag,1676592085548,29142370444292,-187.56279,774.9074,387.94778,-174.57417,771.0116,430.86337
UncalGyro,1676592085554,29142376231014,0.20830505,-0.21426098,0.093767814,0.0035825693,-0.0004933646,-0.00031584338
UncalAccel,1676592085554,29142376231014,-1.1204392,2.4879375,9.807582,0.037048545,-0.031444572,0.0098014325
OrientationDeg,1676592085554,29142376231014,49.0,4.0,-17.0
UncalMag,1676592085558,29142380444373,-187.85559,775.15137,387.533,-174.57417,771.0116,430.86337
UncalGyro,1676592085562,29142384718360,0.21777347,-0.21288654,-0.0053450707,0.0035825693,-0.0004933646,-0.00031584338
UncalAccel,1676592085562,29142384718360,-1.4327025,2.725425,9.823135,0.037048545,-0.031444572,0.0098014325
OrientationDeg,1676592085562,29142384718360,49.0,4.0,-17.0
UncalMag,1676592085568,29142390433835,-187.5872,774.4682,387.83798,-174.57417,771.0116,430.86337
UncalGyro,1676592085571,29142393187924,0.26740626,-0.21838433,-0.12935072,0.0035825693,-0.0004933646,-0.00031584338
UncalAccel,1676592085571,29142393187924,-1.4321043,2.6919255,9.704092,0.037048545,-0.031444572,0.0098014325
OrientationDeg,1676592085571,29142393187924,49.0,4.0,-17.0
UncalMag,1676592085578,29142400444048,-187.9654,775.26117,388.3992,-174.57417,771.0116,430.86337
UncalGyro,1676592085579,29142401670173,0.34147367,-0.22892176,-0.23732115,0.0035825693,-0.0004933646,-0.00031584338
UncalAccel,1676592085579,29142401670173,-1.326222,2.472384,9.772886,0.037048545,-0.031444572,0.0098014325
OrientationDeg,1676592085579,29142401670173,49.0,4.0,-17.0
UncalGyro,1676592085588,29142410153674,0.4251622,-0.21533,-0.3023783,0.0035825693,-0.0004933646,-0.00031584338
UncalAccel,1676592085588,29142410153674,-1.1485549,2.2767708,9.822537,0.037048545,-0.031444572,0.0098014325
UncalMag,1676592085588,29142410439980,-188.1118,774.5536,387.99658,-174.57417,771.0116,430.86337
UncalGyro,1676592085596,29142418635617,0.5352707,-0.19013181,-0.31413746,0.0035825693,-0.0004933646,-0.00031584338
UncalAccel,1676592085596,29142418635617,-1.07019,2.1194427,9.695119,0.037048545,-0.031444572,0.0098014325
UncalMag,1676592085598,29142420444293,-188.2216,774.28516,387.6916,-174.57417,771.0116,430.86337
UncalGyro,1676592085605,29142427113381,0.7107417,-0.15118915,-0.2771801,0.0035825693,-0.0004933646,-0.00031584338
UncalAccel,1676592085605,29142427113381,-1.0139586,1.9046868,9.357731,0.037048545,-0.031444572,0.0098014325
UncalMag,1676592085608,29142430444049,-188.35579,773.846,387.96,-174.57417,771.0116,430.86337
UncalGyro,1676592085613,29142435594043,0.94042706,-0.1160644,-0.21487185,0.0035825693,-0.0004933646,-0.00031584338
UncalAccel,1676592085613,29142435594043,-1.0582259,1.7419748,8.986245,0.037048545,-0.031444572,0.0098014325
UncalMag,1676592085618,29142440431639,-189.161,774.3462,387.4842,-174.57417,771.0116,430.86337
UncalGyro,1676592085622,29142444074612,1.1607966,-0.10216721,-0.18280143,0.0035825693,-0.0004933646,-0.00031584338
UncalAccel,1676592085622,29142444074612,-1.1946167,1.6313069,8.756535,0.037048545,-0.031444572,0.0098014325
OrientationDeg,1676592085588,29142410153674,49.0,4.0,-17.0
OrientationDeg,1676592085596,29142418635617,50.0,4.0,-17.0
OrientationDeg,1676592085606,29142427113381,50.0,4.0,-18.0
OrientationDeg,1676592085613,29142435594043,50.0,4.0,-18.0
OrientationDeg,1676592085622,29142444074612,50.0,4.0,-19.0
UncalMag,1676592085628,29142450444172,-188.3802,773.419,387.9722,-174.57417,771.0116,430.86337
UncalGyro,1676592085630,29142452555550,1.323745,-0.12873985,-0.2087632,0.0035825693,-0.0004933646,-0.00031584338
UncalAccel,1676592085630,29142452555550,-1.1557333,1.6031911,8.747561,0.037048545,-0.031444572,0.0098014325
OrientationDeg,1676592085630,29142452555550,50.0,4.0,-19.0
UncalMag,1676592085638,29142460441039,-188.8682,772.3698,388.3382,-174.57417,771.0116,430.86337
UncalGyro,1676592085639,29142461034992,1.4141531,-0.20311269,-0.29123,0.0035825693,-0.0004933646,-0.00031584338
UncalAccel,1676592085639,29142461034992,-1.2526426,1.8083757,8.755338,0.037048545,-0.031444572,0.0098014325
OrientationDeg,1676592085639,29142461034992,50.0,4.0,-20.0
UncalGyro,1676592085647,29142469516590,1.4407257,-0.29901853,-0.40011674,0.0035825693,-0.0004933646,-0.00031584338
UncalAccel,1676592085647,29142469516590,-1.3686945,1.989632,8.7679,0.037048545,-0.031444572,0.0098014325
UncalMag,1676592085648,29142470433511,-189.41719,771.9916,387.77698,-174.57417,771.0116,430.86337
OrientationDeg,1676592085647,29142469516590,51.0,4.0,-21.0
UncalGyro,1676592085655,29142477996763,1.3869696,-0.3388775,-0.5161811,0.0035825693,-0.0004933646,-0.00031584338
UncalAccel,1676592085655,29142477996763,-1.4673985,2.2666013,9.014361,0.037048545,-0.031444572,0.0098014325
OrientationDeg,1676592085655,29142477996763,51.0,4.0,-21.0
UncalMag,1676592085658,29142480444335,-189.1366,771.406,388.2406,-174.57417,771.0116,430.86337
UncalGyro,1676592085664,29142486476795,1.2521211,-0.34468073,-0.6609562,0.0035825693,-0.0004933646,-0.00031584338
UncalAccel,1676592085664,29142486476795,-1.5463617,2.5387847,9.09811,0.037048545,-0.031444572,0.0098014325
OrientationDeg,1676592085664,29142486476795,51.0,4.0,-22.0
UncalMag,1676592085668,29142490444376,-189.5026,770.4178,387.6428,-174.57417,771.0116,430.86337
UncalGyro,1676592085672,29142494953337,1.0545062,-0.34254268,-0.8677341,0.0035825693,-0.0004933646,-0.00031584338
UncalAccel,1676592085672,29142494953337,-1.7347964,2.7529426,9.205787,0.037048545,-0.031444572,0.0098014325
OrientationDeg,1676592085672,29142494953337,52.0,4.0,-22.0
UncalMag,1676592085678,29142500433675,-189.4538,769.6492,388.1918,-174.57417,771.0116,430.86337
UncalGyro,1676592085681,29142503437183,0.8197812,-0.36560285,-1.1539245,0.0035825693,-0.0004933646,-0.00031584338
UncalAccel,1676592085681,29142503437183,-2.0691934,2.928815,9.0544405,0.037048545,-0.031444572,0.0098014325
OrientationDeg,1676592085681,29142503437183,53.0,4.0,-23.0
UncalMag,1676592085688,29142510444173,-189.75879,769.62476,387.7038,-174.57417,771.0116,430.86337
UncalGyro,1676592085689,29142511916086,0.5897904,-0.40943244,-1.5016595,0.0035825693,-0.0004933646,-0.00031584338
UncalAccel,1676592085689,29142511916086,-2.2217357,3.0909286,8.833105,0.037048545,-0.031444572,0.0098014325
OrientationDeg,1676592085689,29142511916086,53.0,4.0,-23.0
OrientationDeg,1676592085698,29142520399333,54.0,4.0,-23.0
UncalGyro,1676592085698,29142520399333,0.39721513,-0.45875978,-1.8264871,0.0035825693,-0.0004933646,-0.00031584338
UncalAccel,1676592085698,29142520399333,-2.0422742,3.0729825,8.572288,0.037048545,-0.031444572,0.0098014325
UncalMag,1676592085698,29142520433553,-189.91739,768.7708,388.3504,-174.57417,771.0116,430.86337
UncalGyro,1676592085706,29142528882141,0.23044892,-0.50243664,-2.0622811,0.0035825693,-0.0004933646,-0.00031584338
UncalAccel,1676592085706,29142528882141,-1.6576279,2.8893332,8.427522,0.037048545,-0.031444572,0.0098014325
UncalMag,1676592085708,29142530433798,-190.5762,768.4292,388.7652,-174.57417,771.0116,430.86337
OrientationDeg,1676592085707,29142528882141,56.0,4.0,-23.0
UncalGyro,1676592085715,29142537360860,0.09315695,-0.52122074,-2.1904101,0.0035825693,-0.0004933646,-0.00031584338
UncalAccel,1676592085715,29142537360860,-1.3172488,2.728416,8.406584,0.037048545,-0.031444572,0.0098014325
OrientationDeg,1676592085715,29142537360860,57.0,4.0,-23.0
UncalMag,1676592085718,29142540444255,-190.4664,768.417,388.3992,-174.57417,771.0116,430.86337
UncalGyro,1676592085723,29142545829742,0.018784106,-0.5314528,-2.230269,0.0035825693,-0.0004933646,-0.00031584338
UncalAccel,1676592085723,29142545829742,-1.2807583,2.7146573,8.048857,0.037048545,-0.031444572,0.0098014325
OrientationDeg,1676592085723,29142545829742,58.0,5.0,-23.0
UncalMag,1676592085728,29142550441407,-189.75879,767.8802,387.655,-174.57417,771.0116,430.86337
UncalGyro,1676592085732,29142554320760,0.01740966,-0.50335294,-2.2230914,0.0035825693,-0.0004933646,-0.00031584338
UncalAccel,1676592085732,29142554320760,-1.2933207,2.6386852,7.8442707,0.037048545,-0.031444572,0.0098014325
OrientationDeg,1676592085732,29142554320760,59.0,5.0,-23.0
UncalMag,1676592085738,29142560444134,-190.4298,767.29456,388.6188,-174.57417,771.0116,430.86337
UncalGyro,1676592085740,29142562801218,0.06994407,-0.3578143,-2.179567,0.0035825693,-0.0004933646,-0.00031584338
UncalAccel,1676592085740,29142562801218,-1.1359925,2.5004997,7.9794655,0.037048545,-0.031444572,0.0098014325
OrientationDeg,1676592085740,29142562801218,60.0,5.0,-23.0
UncalMag,1676592085748,29142570444337,-190.4542,766.87976,389.241,-174.57417,771.0116,430.86337
UncalGyro,1676592085749,29142571271536,0.15409076,-0.035430185,-2.112372,0.0035825693,-0.0004933646,-0.00031584338
UncalAccel,1676592085749,29142571271536,-0.8853444,2.5202405,8.386844,0.037048545,-0.031444572,0.0098014325
OrientationDeg,1676592085749,29142571271536,61.0,6.0,-23.0
UncalGyro,1676592085757,29142579762025,0.24602598,0.46303585,-2.0285308,0.0035825693,-0.0004933646,-0.00031584338
UncalAccel,1676592085757,29142579762025,-0.34456646,2.6428726,8.847462,0.037048545,-0.031444572,0.0098014325
OrientationDeg,1676592085757,29142579762025,62.0,6.0,-23.0
UncalMag,1676592085758,29142580430218,-190.3932,766.282,389.58258,-174.57417,771.0116,430.86337
UncalGyro,1676592085766,29142588242321,0.34437528,1.0451905,-1.9341521,0.0035825693,-0.0004933646,-0.00031584338
UncalAccel,1676592085766,29142588242321,0.13938192,2.8701909,9.274581,0.037048545,-0.031444572,0.0098014325
UncalMag,1676592085768,29142590433718,-189.7832,765.8428,389.21658,-174.57417,771.0116,430.86337
OrientationDeg,1676592085766,29142588242321,63.0,7.0,-23.0
UncalGyro,1676592085774,29142596720074,0.4540256,1.6122261,-1.8457294,0.0035825693,-0.0004933646,-0.00031584338
UncalAccel,1676592085774,29142596720074,0.14656039,2.9796624,9.488738,0.037048545,-0.031444572,0.0098014325
OrientationDeg,1676592085774,29142596720074,64.0,8.0,-23.0
UncalMag,1676592085778,29142600430829,-189.588,765.7452,388.58218,-174.57417,771.0116,430.86337
UncalGyro,1676592085783,29142605195985,0.5847508,2.0529654,-1.7864754,0.0035825693,-0.0004933646,-0.00031584338
UncalAccel,1676592085783,29142605195985,-0.33499518,3.0059834,9.237492,0.037048545,-0.031444572,0.0098014325
OrientationDeg,1676592085783,29142605195985,65.0,10.0,-23.0
UncalMag,1676592085788,29142610440432,-188.856,765.5622,388.1674,-174.57417,771.0116,430.86337
UncalGyro,1676592085791,29142613684205,0.7475463,2.2699752,-1.7733418,0.0035825693,-0.0004933646,-0.00031584338
UncalAccel,1676592085791,29142613684205,-0.84347,2.7649066,8.376076,0.037048545,-0.031444572,0.0098014325
OrientationDeg,1676592085791,29142613684205,66.0,11.0,-23.0
UncalMag,1676592085798,29142620444257,-187.2334,764.8058,388.0698,-174.57417,771.0116,430.86337
UncalGyro,1676592085800,29142622163170,0.9112582,2.3037255,-1.7556267,0.0035825693,-0.0004933646,-0.00031584338
UncalAccel,1676592085800,29142622163170,-1.3160524,2.4849463,7.749156,0.037048545,-0.031444572,0.0098014325
OrientationDeg,1676592085800,29142622163170,67.0,13.0,-23.0
UncalMag,1676592085808,29142630444095,-186.5136,764.5374,387.25238,-174.57417,771.0116,430.86337
UncalGyro,1676592085808,29142630643751,1.0137309,2.319608,-1.715615,0.0035825693,-0.0004933646,-0.00031584338
UncalAccel,1676592085808,29142630643751,-1.6378871,2.641078,7.8610206,0.037048545,-0.031444572,0.0098014325
OrientationDeg,1676592085808,29142630643751,68.0,14.0,-23.0
UncalGyro,1676592085817,29142639127586,1.0096076,2.4985917,-1.6555976,0.0035825693,-0.0004933646,-0.00031584338
UncalAccel,1676592085817,29142639127586,-1.8155541,2.969493,8.321041,0.037048545,-0.031444572,0.0098014325
UncalMag,1676592085818,29142640433841,-184.73239,762.927,387.5574,-174.57417,771.0116,430.86337
OrientationDeg,1676592085817,29142639127586,69.0,16.0,-24.0
UncalGyro,1676592085825,29142647607476,0.93767816,2.818074,-1.6085609,0.0035825693,-0.0004933646,-0.00031584338
UncalAccel,1676592085825,29142647607476,-2.4149563,3.4163525,8.233703,0.037048545,-0.031444572,0.0098014325
OrientationDeg,1676592085825,29142647607476,70.0,18.0,-24.0
UncalMag,1676592085828,29142650441206,-183.4148,762.256,387.716,-174.57417,771.0116,430.86337
UncalGyro,1676592085834,29142656078402,0.89659745,3.142138,-1.6450601,0.0035825693,-0.0004933646,-0.00031584338
UncalAccel,1676592085834,29142656078402,-3.3780673,3.7034912,7.643872,0.037048545,-0.031444572,0.0098014325
UncalMag,1676592085838,29142660433516,-182.573,762.42676,387.0206,-174.57417,771.0116,430.86337
OrientationDeg,1676592085834,29142656078402,71.0,20.0,-24.0
UncalGyro,1676592085842,29142664566928,0.87995136,3.3773212,-1.8435913,0.0035825693,-0.0004933646,-0.00031584338
UncalAccel,1676592085842,29142664566928,-4.631308,3.949952,7.501499,0.037048545,-0.031444572,0.0098014325
OrientationDeg,1676592085842,29142664566928,72.0,22.0,-24.0
UncalMag,1676592085848,29142670440230,-179.7914,761.6216,387.1182,-174.57417,771.0116,430.86337
UncalGyro,1676592085851,29142673034752,0.9334021,3.59876,-2.152231,0.0035825693,-0.0004933646,-0.00031584338
UncalAccel,1676592085851,29142673034752,-4.9812584,3.7172499,7.7437725,0.037048545,-0.031444572,0.0098014325
OrientationDeg,1676592085852,29142673034752,74.0,24.0,-24.0
UncalMag,1676592085858,29142680444381,-178.1566,761.036,386.93518,-174.57417,771.0116,430.86337
UncalGyro,1676592085859,29142681540084,1.0549643,3.796222,-2.3887885,0.0035825693,-0.0004933646,-0.00031584338
UncalAccel,1676592085860,29142681540084,-4.9728837,3.5156546,8.078768,0.037048545,-0.031444572,0.0098014325
OrientationDeg,1676592085859,29142681540084,75.0,27.0,-24.0
OrientationDeg,1676592085868,29142690002140,77.0,29.0,-24.0
UncalGyro,1676592085868,29142690002140,1.208597,3.9713876,-2.4807239,0.0035825693,-0.0004933646,-0.00031584338
UncalAccel,1676592085868,29142690002140,-5.156533,3.475575,8.344969,0.037048545,-0.031444572,0.0098014325
UncalMag,1676592085868,29142690434697,-176.3998,760.74316,387.5452,-174.57417,771.0116,430.86337
UncalGyro,1676592085876,29142698488997,1.3794864,4.0591993,-2.467743,0.0035825693,-0.0004933646,-0.00031584338
UncalAccel,1676592085876,29142698488997,-5.6823554,3.8368912,8.077571,0.037048545,-0.031444572,0.0098014325
OrientationDeg,1676592085876,29142698488997,78.0,32.0,-24.0
UncalMag,1676592085878,29142700444097,-174.80159,759.5232,386.4838,-174.57417,771.0116,430.86337
UncalGyro,1676592085884,29142706969812,1.5074627,3.962683,-2.4136813,0.0035825693,-0.0004933646,-0.00031584338
UncalAccel,1676592085884,29142706969812,-6.2847486,4.011567,7.295118,0.037048545,-0.031444572,0.0098014325
OrientationDeg,1676592085884,29142706969812,80.0,34.0,-24.0
UncalMag,1676592085888,29142710441004,-171.4832,759.1694,387.167,-174.57417,771.0116,430.86337
UncalGyro,1676592085893,29142715444625,1.5496124,3.7178786,-2.3742805,0.0035825693,-0.0004933646,-0.00031584338
UncalAccel,1676592085893,29142715444625,-6.734001,4.0103707,6.5665035,0.037048545,-0.031444572,0.0098014325
OrientationDeg,1676592085893,29142715444625,81.0,37.0,-24.0
UncalMag,1676592085898,29142720433924,-170.8732,758.7546,387.41098,-174.57417,771.0116,430.86337
UncalGyro,1676592085901,29142723931757,1.4989105,3.4197764,-2.397188,0.0035825693,-0.0004933646,-0.00031584338
UncalAccel,1676592085901,29142723931757,-6.83091,4.220939,5.9874406,0.037048545,-0.031444572,0.0098014325
OrientationDeg,1676592085901,29142723931757,83.0,39.0,-24.0
UncalMag,1676592085908,29142730444097,-168.8236,758.0714,386.7156,-174.57417,771.0116,430.86337
UncalGyro,1676592085910,29142732410933,1.3736832,3.1381674,-2.4637723,0.0035825693,-0.0004933646,-0.00031584338
UncalAccel,1676592085910,29142732410933,-6.8243303,4.375276,5.575875,0.037048545,-0.031444572,0.0098014325
OrientationDeg,1676592085910,29142732410933,84.0,41.0,-23.0
UncalMag,1676592085918,29142740444098,-167.0058,757.1564,387.0572,-174.57417,771.0116,430.86337
UncalGyro,1676592085918,29142740887182,1.2168436,2.9571986,-2.5337162,0.0035825693,-0.0004933646,-0.00031584338
UncalAccel,1676592085918,29142740887182,-6.7986073,4.21735,5.471787,0.037048545,-0.031444572,0.0098014325
OrientationDeg,1676592085918,29142740887182,86.0,43.0,-23.0
UncalGyro,1676592085927,29142749361049,1.0986412,2.9294043,-2.5833492,0.0035825693,-0.0004933646,-0.00031584338
UncalAccel,1676592085927,29142749361049,-7.0337024,4.1874394,5.5663037,0.037048545,-0.031444572,0.0098014325
UncalMag,1676592085928,29142750433803,-163.907,756.583,389.1434,-174.57417,771.0116,430.86337
OrientationDeg,1676592085927,29142749361049,87.0,45.0,-23.0
UncalGyro,1676592085935,29142757854549,1.0731375,3.0375273,-2.6163359,0.0035825693,-0.0004933646,-0.00031584338
UncalAccel,1676592085935,29142757854549,-7.652845,4.2161536,5.872585,0.037048545,-0.031444572,0.0098014325
OrientationDeg,1676592085935,29142757854549,88.0,47.0,-22.0
UncalMag,1676592085938,29142760444261,-163.907,756.583,389.1434,-174.57417,771.0116,430.86337
UncalGyro,1676592085944,29142766333115,1.14018,3.1482468,-2.605951,0.0035825693,-0.0004933646,-0.00031584338
UncalAccel,1676592085944,29142766333115,-8.502297,3.9571304,5.8013983,0.037048545,-0.031444572,0.0098014325
OrientationDeg,1676592085944,29142766333115,90.0,49.0,-21.0
UncalMag,1676592085948,29142770444342,-160.6984,756.07056,390.156,-174.57417,771.0116,430.86337
UncalGyro,1676592085952,29142774813655,1.2829697,3.1622968,-2.5474608,0.0035825693,-0.0004933646,-0.00031584338
UncalAccel,1676592085952,29142774813655,-9.312267,3.5503507,5.6650076,0.037048545,-0.031444572,0.0098014325
OrientationDeg,1676592085952,29142774813655,91.0,51.0,-21.0
UncalMag,1676592085958,29142780441006,-158.3194,755.7778,390.3878,-174.57417,771.0116,430.86337
UncalGyro,1676592085961,29142783289272,1.484708,3.1186197,-2.46759,0.0035825693,-0.0004933646,-0.00031584338
UncalAccel,1676592085961,29142783289272,-9.760324,3.379862,5.6099725,0.037048545,-0.031444572,0.0098014325
OrientationDeg,1676592085961,29142783289272,92.0,53.0,-20.0
UncalMag,1676592085968,29142790444262,-157.2702,755.7412,391.43698,-174.57417,771.0116,430.86337
UncalGyro,1676592085969,29142791773637,1.750129,3.0757065,-2.4040601,0.0035825693,-0.0004933646,-0.00031584338
UncalAccel,1676592085969,29142791773637,-10.016953,3.4169507,5.374878,0.037048545,-0.031444572,0.0098014325
OrientationDeg,1676592085969,29142791773637,94.0,55.0,-20.0
UncalGyro,1676592085979,29142800257748,2.0641136,3.0902145,-2.3738225,0.0035825693,-0.0004933646,-0.00031584338
UncalAccel,1676592085978,29142800257748,-9.656834,3.1555347,5.3497534,0.037048545,-0.031444572,0.0098014325
UncalMag,1676592085978,29142800437222,-155.5744,754.49677,392.3032,-174.57417,771.0116,430.86337
OrientationDeg,1676592085978,29142800257748,96.0,57.0,-19.0
UncalGyro,1676592085986,29142808734453,2.418721,3.0961704,-2.3703098,0.0035825693,-0.0004933646,-0.00031584338
UncalAccel,1676592085986,29142808734453,-9.218349,3.1555347,4.302295,0.037048545,-0.031444572,0.0098014325
OrientationDeg,1676592085986,29142808734453,97.0,59.0,-19.0
UncalMag,1676592085988,29142810434090,-153.6956,754.4724,393.34018,-174.57417,771.0116,430.86337
UncalGyro,1676592085995,29142817212969,2.7574458,2.995225,-2.4254405,0.0035825693,-0.0004933646,-0.00031584338
UncalAccel,1676592085995,29142817212969,-9.850653,3.5934215,3.441477,0.037048545,-0.031444572,0.0098014325
UncalMag,1676592085998,29142820444384,-151.9876,753.5086,394.8896,-174.57417,771.0116,430.86337
UncalGyro,1676592086003,29142825685838,2.9750664,2.853657,-2.5002716,0.0035825693,-0.0004933646,-0.00031584338
UncalAccel,1676592086003,29142825685838,-10.240683,3.4773695,2.5710878,0.037048545,-0.031444572,0.0098014325
OrientationDeg,1676592085995,29142817212969,99.0,61.0,-19.0
OrientationDeg,1676592086003,29142825685838,101.0,64.0,-18.0
UncalMag,1676592086008,29142830430224,-150.97499,752.9474,395.6948,-174.57417,771.0116,430.86337
UncalGyro,1676592086012,29142834169085,3.0471485,2.658791,-2.528524,0.0035825693,-0.0004933646,-0.00031584338
UncalAccel,1676592086012,29142834169085,-10.381859,3.1567314,1.8753748,0.037048545,-0.031444572,0.0098014325
OrientationDeg,1676592086012,29142834169085,103.0,65.0,-18.0
UncalMag,1676592086018,29142840440967,-149.5354,752.6546,396.68298,-174.57417,771.0116,430.86337
UncalGyro,1676592086020,29142842656674,3.0231721,2.514016,-2.518292,0.0035825693,-0.0004933646,-0.00031584338
UncalAccel,1676592086020,29142842656674,-10.527224,2.9982069,1.588236,0.037048545,-0.031444572,0.0098014325
OrientationDeg,1676592086020,29142842656674,105.0,67.0,-17.0
UncalMag,1676592086028,29142850444100,-148.19339,752.26416,397.4028,-174.57417,771.0116,430.86337
UncalGyro,1676592086029,29142851140125,2.9712486,2.3926065,-2.5088236,0.003598976,-0.000486319,-0.0003155698
UncalAccel,1676592086029,29142851140125,-10.733006,2.8731818,1.1246266,0.037048545,-0.031444572,0.0098014325
OrientationDeg,1676592086029,29142851140125,107.0,69.0,-17.0
UncalGyro,1676592086037,29142859607430,2.9152017,2.2171354,-2.4979806,0.0036014584,-0.00048525297,-0.00031552842
UncalAccel,1676592086037,29142859607430,-10.796415,2.6961129,0.738784,0.037048545,-0.031444572,0.0098014325
UncalMag,1676592086038,29142860433643,-147.5834,752.04456,398.2934,-174.57417,771.0116,430.86337
OrientationDeg,1676592086037,29142859607430,109.0,71.0,-16.0
UncalGyro,1676592086046,29142868098417,2.8345675,1.9720258,-2.4491115,0.0036018342,-0.00048509164,-0.00031552213
UncalAccel,1676592086046,29142868098417,-10.833505,2.7828526,0.54735816,0.037048545,-0.031444572,0.0098014325
OrientationDeg,1676592086046,29142868098417,110.0,72.0,-15.0
UncalMag,1676592086048,29142870444182,-146.0584,751.42236,399.5622,-174.57417,771.0116,430.86337
UncalGyro,1676592086054,29142876579140,2.709951,1.6557503,-2.3270912,0.003601891,-0.00048506726,-0.0003155212
UncalAccel,1676592086054,29142876579140,-11.110474,2.7332017,0.47916272,0.037048545,-0.031444572,0.0098014325
UncalMag,1676592086058,29142880444467,-144.7164,751.3004,400.70898,-174.57417,771.0116,430.86337
OrientationDeg,1676592086054,29142876579140,112.0,73.0,-15.0
UncalGyro,1676592086063,29142885048653,2.574339,1.2872458,-2.1311562,0.0036018994,-0.00048506356,-0.00031552106
UncalAccel,1676592086063,29142885048653,-11.32822,2.3485553,0.43669012,0.037048545,-0.031444572,0.0098014325
OrientationDeg,1676592086063,29142885048653,114.0,74.0,-14.0
UncalMag,1676592086068,29142890433969,-144.326,750.89777,401.3312,-174.57417,771.0116,430.86337
UncalGyro,1676592086071,29142893539274,2.472019,0.92179567,-1.9095647,0.0036019008,-0.000485063,-0.00031552103
UncalAccel,1676592086071,29142893539274,-11.2684,2.0087745,0.40498522,0.037048545,-0.031444572,0.0098014325
Raw,1676592086000,112294000000,,,-1360627191706337020,0.0,8.933800714866685,177.0,1.0,28,6,0.0,16431,432103931144342,12,43.165611267089844,254.3209559249393,0.15,16,27706.833241500237,340282346638528860000000000000000000000,1575420030,,,,0,,1,,39.56561279296875,0.320142130558394,1.0,0.320142130558394,1.0,C,29142793032000
Raw,1676592086000,112294000000,,,-1360627191706337020,0.0,8.933800714866685,177.0,1.0,28,11,0.0,16431,432103930549694,21,36.79496383666992,-304.16789484658216,0.15,16,-34836.56297035713,340282346638528860000000000000000000000,1575420030,,,,0,,1,,33.19496536254883,-0.20372681261465636,1.0,-0.20372681261465636,1.0,C,29142793032000
Raw,1676592086000,112294000000,,,-1360627191706337020,0.0,8.933800714866685,177.0,1.0,28,12,0.0,16431,432103928847488,14,44.39814758300781,-367.1051384633647,0.15,16,-41422.99370683768,340282346638528860000000000000000000000,1575420030,,,,0,,1,,40.79814910888672,-0.6984919076624261,1.0,-0.6984919076624261,1.0,C,29142793032000
Raw,1676592086000,112294000000,,,-1360627191706337020,0.0,8.933800714866685,177.0,1.0,28,17,0.0,16431,432103918721397,18,38.69911575317383,562.9764707806517,0.15,16,63081.68056155413,340282346638528860000000000000000000000,1575420030,,,,0,,1,,35.099117279052734,-0.7858034271858065,1.0,-0.7858034271858065,1.0,C,29142793032000
Raw,1676592086000,112294000000,,,-1360627191706337020,0.0,8.933800714866685,177.0,1.0,28,19,0.0,16431,432103927952099,13,42.468788146972656,499.3860028021529,0.15,16,55659.80843360363,340282346638528860000000000000000000000,1575420030,,,,0,,1,,38.86878967285156,0.0,1.0,0.0,1.0,C,29142793032000
Raw,1676592086000,112294000000,,,-1360627191706337020,0.0,8.933800714866685,177.0,1.0,28,20,0.0,16431,432103918627734,65,22.901643753051758,-519.5580796022,1.0840285426161462,16,-58305.68038396108,340282346638528860000000000000000000000,1575420030,,,,0,,1,,19.30164337158203,0.0,1.0,0.0,1.0,C,29142793032000
Raw,1676592086000,112294000000,,,-1360627191706337020,0.0,8.933800714866685,177.0,1.0,28,24,0.0,16431,432103929123236,19,38.204368591308594,342.3163202676508,0.15,16,37614.75967971094,340282346638528860000000000000000000000,1575420030,,,,0,,1,,34.6043701171875,-0.20372681261465636,1.0,-0.20372681261465636,1.0,C,29142793032000
Raw,1676592086000,112294000000,,,-1360627191706337020,0.0,8.933800714866685,177.0,1.0,28,25,0.0,16431,432103922141151,12,43.37083053588867,-546.3138304463018,0.15,16,-61378.82402474441,340282346638528860000000000000000000000,1575420030,,,,0,,1,,39.77083206176758,-2.0372682255564105,1.0,-2.0372682255564105,1.0,C,29142793032000
Raw,1676592086000,112294000000,,,-1360627191706337020,0.0,8.933800714866685,177.0,1.0,28,6,0.0,81921,432103931144847,14,32.287620544433594,254.2220997597949,0.6606056765433945,16,28451.97978286846,340282346638528860000000000000000000000,1176450050,,,,0,,1,,28.6876220703125,1.9208527336454408,1.9795392022404328,1.9208527336454408,1.0,Q,29142793032000
Raw,1676592086000,112294000000,,,-1360627191706337020,0.0,8.933800714866685,177.0,1.0,28,11,0.0,81921,432103930550180,28,28.688785552978516,-304.3549052855228,0.8223343882814942,16,-35787.54566572279,340282346638528860000000000000000000000,1176450050,,,,0,,1,,25.08878517150879,0.0,1.9795392022404328,0.0,1.0,Q,29142793032000
Raw,1676592086000,112294000000,,,-1360627191706337020,0.0,8.933800714866685,177.0,1.0,28,24,0.0,81921,432103929123776,9,35.56787109375,341.8544688993102,0.5127330144296689,16,38627.07581962872,340282346638528860000000000000000000000,1176450050,,,,0,,1,,31.967872619628906,3.5215636101095664,1.9795392022404328,3.5215636101095664,1.0,Q,29142793032000
Raw,1676592086000,112294000000,,,-1360627191706337020,0.0,8.933800714866685,177.0,1.0,28,25,0.0,81921,432103922141673,12,37.49806213378906,-546.5341394452653,0.15,16,-63020.92600681185,340282346638528860000000000000000000000,1176450050,,,,0,,1,,33.89806365966797,1.0186341127782053,1.9795392022404328,1.0186341127782053,1.0,Q,29142793032000
Raw,1676592086000,112294000000,,,-1360627191706337020,0.0,8.933800714866685,177.0,1.0,28,14,0.0,32867,10885935285268,33,43.11576843261719,307.4971373646433,0.15,16,33579.87093049076,340282346638528860000000000000000000000,1598062460,,,,0,,3,,39.515769958496094,52.1540641784668,2.0000000474974513,52.1540641784668,2.0000000474974513,C,29142793032000
Raw,1676592086000,112294000000,,,-1360627191706337020,0.0,8.933800714866685,177.0,1.0,28,18,0.0,32995,10885924597771,102,25.92857551574707,-643.188100743912,0.9453873668073558,16,-72209.22668569762,340282346638528860000000000000000000000,1600312450,,,,0,,3,,22.328575134277344,52.1540641784668,2.0000000474974513,52.1540641784668,2.0000000474974513,C,29142793032000
Raw,1676592086000,112294000000,,,-1360627191706337020,0.0,8.933800714866685,177.0,1.0,28,13,0.0,32768,10885921596964,1000000000,14.197870254516602,792.2350456725967,299792458,16,65612.81882320154,340282346638528860000000000000000000000,1600875010,,,,1,,3,,10.597869873046875,52.1540641784668,2.0000000474974513,52.1540641784668,2.0000000474974513,C,29142793032000
Raw,1676592086000,112294000000,,,-1360627191706337020,0.0,8.933800714866685,177.0,1.0,28,15,0.0,32995,10885933305199,33,42.92771530151367,-421.4541483557034,0.15,16,-48099.4013884848,340282346638528860000000000000000000000,1602000000,,,,0,,3,,39.32771682739258,52.1540641784668,2.0000000474974513,52.1540641784668,2.0000000474974513,C,29142793032000
Raw,1676592086000,112294000000,,,-1360627191706337020,0.0,8.933800714866685,177.0,1.0,28,24,0.0,32995,10885932893009,33,41.8587532043457,552.8992767780958,0.15,16,61347.40464440982,340282346638528860000000000000000000000,1603124990,,,,0,,3,,38.25875473022461,52.1540641784668,2.0000000474974513,52.1540641784668,2.0000000474974513,C,29142793032000
Raw,1676592086000,112294000000,,,-1360627191706337020,0.0,8.933800714866685,177.0,1.0,28,17,0.0,32995,10885935816596,41,37.22869873046875,-168.08509840021793,0.15,16,-19919.96254913126,340282346638528860000000000000000000000,1604249980,,,,0,,3,,33.628700256347656,52.1540641784668,2.0000000474974513,52.1540641784668,2.0000000474974513,C,29142793032000
Raw,1676592086000,112294000000,,,-1360627191706337020,0.0,8.933800714866685,177.0,1.0,28,2,0.0,85026,432103922506009,21,36.83877944946289,4.589832763703708,0.15,16,171.51444600369183,340282346638528860000000000000000000000,1575420030,,,,0,,6,,33.2387809753418,-5.878973752260207,1.5000000237487257,-5.878973752260207,1.5000000237487257,C,29142793032000
Raw,1676592086000,112294000000,,,-1360627191706337020,0.0,8.933800714866685,177.0,1.0,28,11,0.0,85026,432103913973073,16,40.30771255493164,512.7599587417037,0.15,16,56916.99822912511,340282346638528860000000000000000000000,1575420030,,,,0,,6,,36.70771408081055,-5.878973752260207,1.5000000237487257,-5.878973752260207,1.5000000237487257,C,29142793032000
Raw,1676592086000,112294000000,,,-1360627191706337020,0.0,8.933800714866685,177.0,1.0,28,25,0.0,85026,432103915296797,12,46.2908935546875,391.525457139154,0.15,16,43499.25060519999,340282346638528860000000000000000000000,1575420030,,,,0,,6,,42.690895080566406,-5.878973752260207,1.5000000237487257,-5.878973752260207,1.5000000237487257,C,29142793032000
Raw,1676592086000,112294000000,,,-1360627191706337020,0.0,8.933800714866685,177.0,1.0,28,30,0.0,85026,432103913407976,12,43.181148529052734,-361.60071948756126,0.15,16,-40468.7514247425,340282346638528860000000000000000000000,1575420030,,,,0,,6,,39.58115005493164,-5.878973752260207,1.5000000237487257,-5.878973752260207,1.5000000237487257,C,29142793032000
Raw,1676592086000,112294000000,,,-1360627191706337020,0.0,8.933800714866685,177.0,1.0,28,34,0.0,84002,432103917127492,1000000000,11.109258651733398,-418.4913604101755,299792458,16,-47608.61976762667,340282346638528860000000000000000000000,1575420030,,,,1,,6,,7.509258270263672,-5.878973752260207,1.5000000237487257,-5.878973752260207,1.5000000237487257,C,29142793032000
Raw,1676592086000,112294000000,,,-1360627191706337020,0.0,8.933800714866685,177.0,1.0,28,36,0.0,85026,432103921989417,15,40.99623107910156,76.52239149817694,0.15,16,8111.229543627475,340282346638528860000000000000000000000,1575420030,,,,0,,6,,37.39623260498047,-5.878973752260207,1.5000000237487257,-5.878973752260207,1.5000000237487257,C,29142793032000
Raw,1676592086000,112294000000,,,-1360627191706337020,0.0,8.933800714866685,177.0,1.0,28,2,0.0,84003,432103922506510,7,36.27726364135742,4.575513871657062,0.15,16,149.31620736527725,340282346638528860000000000000000000000,1176450050,,,,0,,6,,32.67726516723633,-4.216632805764675,2.4795392259891584,-4.216632805764675,1.5000000237487257,Q,29142793032000
Raw,1676592086000,112294000000,,,-1360627191706337020,0.0,8.933800714866685,177.0,1.0,28,11,0.0,84003,432103913973588,74,23.383237838745117,513.0839806558661,1.0615346538494745,16,56452.06349569797,340282346638528860000000000000000000000,1176450050,,,,0,,6,,19.78323745727539,4.279776476323602,2.4795392259891584,4.279776476323602,1.5000000237487257,Q,29142793032000
Raw,1676592086000,112294000000,,,-1360627191706337020,0.0,8.933800714866685,177.0,1.0,28,25,0.0,84003,432103915297305,15,32.378963470458984,391.5474062411547,0.657245159643705,16,43124.776660779666,340282346638528860000000000000000000000,1176450050,,,,0,,6,,28.778963088989258,-8.649541996419428,2.4795392259891584,-8.649541996419428,1.5000000237487257,Q,29142793032000
Raw,1676592086000,112294000000,,,-1360627191706337020,0.0,8.933800714866685,177.0,1.0,28,30,0.0,84003,432103913408484,7,34.172794342041016,-361.72757439073916,0.5762388822955407,16,-40152.06597436868,340282346638528860000000000000000000000,1176450050,,,,0,,6,,30.57279396057129,-8.2801328971982,2.4795392259891584,-8.2801328971982,1.5000000237487257,Q,29142793032000
Raw,1676592086000,112294000000,,,-1360627191706337020,0.0,8.933800714866685,177.0,1.0,28,34,0.0,84003,432103917128044,11,32.97282028198242,-418.3570073665626,0.6308693989002214,16,-48152.061877299115,340282346638528860000000000000000000000,1176450050,,,,0,,6,,29.372819900512695,-9.942473843693731,2.4795392259891584,-9.942473843693731,1.5000000237487257,Q,29142793032000
Raw,1676592086000,112294000000,,,-1360627191706337020,0.0,8.933800714866685,177.0,1.0,28,36,0.0,84003,432103921989926,20,29.508024215698242,76.44660063548434,0.7875518434867104,16,8126.856150508159,340282346638528860000000000000000000000,1176450050,,,,0,,6,,25.908023834228516,-10.865996591746804,2.4795392259891584,-10.865996591746804,1.5000000237487257,Q,29142793032000
UncalMag,1676592086078,29142900433603,-143.3866,750.78796,402.8562,-174.57417,771.0116,430.86337
UncalGyro,1676592086080,29142902018218,2.4126122,0.60139686,-1.7273742,0.003601901,-0.00048506292,-0.00031552103
UncalAccel,1676592086080,29142902018218,-11.176276,1.899303,0.32063824,0.037048545,-0.031444572,0.0098014325
UncalMag,1676592086088,29142910427215,-143.3134,750.36096,403.35638,-174.57417,771.0116,430.86337
UncalGyro,1676592086088,29142910498463,2.3868032,0.34147367,-1.6357445,0.003601901,-0.0004850629,-0.00031552103
UncalAccel,1676592086088,29142910498463,-11.030912,1.75693,0.16450655,0.037048545,-0.031444572,0.0098014325
OrientationDeg,1676592086071,29142893539274,115.0,75.0,-13.0
OrientationDeg,1676592086080,29142902018218,116.0,76.0,-13.0
OrientationDeg,1676592086088,29142910498463,118.0,76.0,-12.0
Status,0,30,0,6,2,1575420030,39.24,27.0,78.0,1,1,1,35.644897
Status,0,30,1,6,2,1176450050,37.57,27.0,78.0,1,1,1,33.974583
Status,0,30,2,6,36,1176450050,32.25,88.0,72.0,1,1,1,28.654127
Status,0,30,3,6,36,1575420030,41.06,88.0,72.0,1,1,1,37.45951
Status,0,30,4,3,14,1598062460,43.77,128.0,67.0,1,1,1,40.171993
Status,0,30,5,3,17,1604249980,38.70,240.0,67.0,1,1,1,35.104923
Status,0,30,6,1,11,1575420030,40.25,164.0,59.0,1,1,1,36.64685
Status,0,30,7,1,6,1575420030,43.17,68.0,59.0,1,1,1,39.565613
Status,0,30,8,1,11,1176450050,34.59,164.0,59.0,1,1,1,30.990948
Status,0,30,9,1,6,1176450050,38.07,68.0,59.0,1,1,1,34.47083
Status,0,30,10,3,15,1602000000,44.48,331.0,53.0,1,1,1,40.88047
Status,0,30,11,1,24,1176450050,35.99,239.0,52.0,1,1,1,32.388794
Status,0,30,12,1,24,1575420030,39.94,239.0,52.0,1,1,1,36.344357
Status,0,30,13,3,24,1603124990,43.37,28.0,51.0,1,1,1,39.773495
Status,0,30,14,1,12,1575420030,45.11,315.0,47.0,1,1,1,41.513287
Status,0,30,15,6,34,1575420030,31.20,197.0,42.0,0,1,1,27.605
Status,0,30,16,6,34,1176450050,35.69,197.0,42.0,1,1,1,32.086784
Status,0,30,17,1,19,1575420030,44.22,48.0,40.0,1,1,1,40.615646
Status,0,30,18,6,25,1176450050,35.50,112.0,37.0,1,1,1,31.904142
Status,0,30,19,6,25,1575420030,46.29,112.0,37.0,1,1,1,42.690895
Status,0,30,20,6,30,1176450050,34.21,311.0,32.0,1,1,1,30.610083
Status,0,30,21,6,30,1575420030,43.18,311.0,32.0,1,1,1,39.58115
Status,0,30,22,6,11,1575420030,40.31,42.0,27.0,1,1,1,36.707714
Status,0,30,23,6,11,1176450050,27.81,42.0,27.0,1,1,1,24.205433
Status,0,30,24,3,18,1600312450,32.36,221.0,18.0,1,1,1,28.759514
Status,0,30,25,1,25,1575420030,43.37,306.0,18.0,1,1,1,39.770832
Status,0,30,26,1,25,1176450050,38.21,306.0,18.0,1,1,1,34.613285
Status,0,30,27,1,17,1575420030,39.49,60.0,13.0,1,1,1,35.891907
Status,0,30,28,1,20,1575420030,36.58,153.0,11.0,1,1,1,32.9833
Status,0,30,29,3,13,1600875010,17.38,141.0,10.0,0,1,1,13.781698
Fix,GPS,37.4307989738,-122.1550327734,-20.726551123026567,0.12900382,3.2821963,113.303894,1676592086000,0.12631965,180.0,29142793032000,3.1998048
Fix,FLP,37.4308014000,-122.1550105000,-15.80000114440918,0.36998063,4.878,107.41481,1676592085605,,,29142427113381,2.592685
UncalGyro,1676592086096,29142918983449,2.3802364,0.1826487,-1.6276505,0.003601901,-0.0004850629,-0.00031552103
UncalAccel,1676592086096,29142918983449,-10.540982,1.4297116,0.12143575,0.037048545,-0.031444572,0.0098014325
OrientationDeg,1676592086096,29142918983449,119.0,77.0,-12.0
UncalMag,1676592086098,29142920431976,-142.923,749.8486,403.2222,-174.57417,771.0116,430.86337
UncalGyro,1676592086105,29142927463918,2.3832908,0.15836681,-1.681712,0.003601901,-0.0004850629,-0.00031552103
UncalAccel,1676592086105,29142927463918,-9.890733,1.1509477,0.31345975,0.037048545,-0.031444572,0.0098014325
OrientationDeg,1676592086105,29142927463918,120.0,77.0,-11.0
UncalMag,1676592086108,29142930444346,-142.252,750.69037,404.613,-174.57417,771.0116,430.86337
UncalGyro,1676592086113,29142935942270,2.379931,0.2780964,-1.7977765,0.003601901,-0.0004850629,-0.00031552103
UncalAccel,1676592086113,29142935942270,-9.128618,1.1018949,0.73340017,0.037048545,-0.031444572,0.0098014325
OrientationDeg,1676592086113,29142935942270,122.0,77.0,-11.0
UncalMag,1676592086118,29142940433564,-141.97139,750.0926,404.9546,-174.57417,771.0116,430.86337
UncalGyro,1676592086122,29142944420257,2.3787093,0.47510046,-1.9759964,0.003601901,-0.0004850629,-0.00031552103
UncalAccel,1676592086122,29142944420257,-8.310871,1.1114662,0.8153543,0.037048545,-0.031444572,0.0098014325
OrientationDeg,1676592086122,29142944420257,123.0,78.0,-10.0
UncalMag,1676592086128,29142950444184,-141.886,749.9218,405.14978,-174.57417,771.0116,430.86337
UncalGyro,1676592086130,29142952903167,2.3984096,0.6844745,-2.2148447,0.003601901,-0.0004850629,-0.00031552103
UncalAccel,1676592086130,29142952903167,-7.7072816,1.1395818,0.6664011,0.037048545,-0.031444572,0.0098014325
OrientationDeg,1676592086130,29142952903167,124.0,79.0,-9.0
UncalMag,1676592086138,29142960444266,-141.4346,750.45856,405.2718,-174.57417,771.0116,430.86337
UncalGyro,1676592086139,29142961385713,2.392759,0.8846856,-2.5022569,0.003601901,-0.0004850629,-0.00031552103
UncalAccel,1676592086139,29142961385713,-7.495517,0.20338993,-0.13459627,0.037048545,-0.031444572,0.0098014325
OrientationDeg,1676592086139,29142961385713,126.0,79.0,-8.0
UncalGyro,1676592086147,29142969852550,2.3344216,0.79305583,-2.7113254,0.003601901,-0.0004850629,-0.00031552103
UncalAccel,1676592086147,29142969852550,-8.700303,-2.6321049,-2.056033,0.037048545,-0.031444572,0.0098014325
UncalMag,1676592086148,29142970436901,-140.2146,749.8974,406.077,-174.57417,771.0116,430.86337
OrientationDeg,1676592086147,29142969852550,127.0,80.0,-7.0
UncalGyro,1676592086156,29142978345389,2.5378397,0.07360926,-2.7595837,0.003601901,-0.0004850629,-0.00031552103
UncalAccel,1676592086156,29142978345389,-10.359127,-3.3260236,0.20937198,0.037048545,-0.031444572,0.0098014325
UncalMag,1676592086158,29142980433565,-139.7632,750.37317,407.0164,-174.57417,771.0116,430.86337
OrientationDeg,1676592086156,29142978345389,129.0,80.0,-6.0
UncalGyro,1676592086164,29142986811006,2.4368942,0.29718593,-2.8075366,0.003601901,-0.0004850629,-0.00031552103
UncalAccel,1676592086164,29142986811006,-9.000004,0.23808585,2.0608184,0.037048545,-0.031444572,0.0098014325
OrientationDeg,1676592086164,29142986811006,130.0,80.0,-5.0
UncalMag,1676592086168,29142990444429,-139.32399,750.7392,407.4678,-174.57417,771.0116,430.86337
UncalGyro,1676592086173,29142995302685,2.378862,0.30772337,-2.7020097,0.003601901,-0.0004850629,-0.00031552103
UncalAccel,1676592086173,29142995302685,-9.498309,-0.05623133,-1.3818551,0.037048545,-0.031444572,0.0098014325
OrientationDeg,1676592086173,29142995302685,131.0,81.0,-3.0
UncalMag,1676592086178,29143000434135,-138.8848,751.1906,407.6752,-174.57417,771.0116,430.86337
UncalGyro,1676592086181,29143003775361,2.2449298,0.1647809,-2.5967882,0.003601901,-0.0004850629,-0.00031552103
UncalAccel,1676592086181,29143003775361,-9.985847,0.22671995,-0.39840496,0.037048545,-0.031444572,0.0098014325
OrientationDeg,1676592086181,29143003775361,133.0,81.0,-2.0
UncalMag,1676592086188,29143010433932,-138.4334,751.7518,408.4072,-174.57417,771.0116,430.86337
UncalGyro,1676592086191,29143012266421,1.9715676,0.064599,-2.548377,0.003601901,-0.0004850629,-0.00031552103
UncalAccel,1676592086190,29143012266421,-10.423734,-0.51445687,-0.14416756,0.037048545,-0.031444572,0.0098014325
OrientationDeg,1676592086190,29143012266421,134.0,81.0,-1.0
UncalMag,1676592086198,29143020444186,-137.57939,752.1178,408.59018,-174.57417,771.0116,430.86337
UncalGyro,1676592086198,29143020744244,1.7417295,-0.11911872,-2.452013,0.003601901,-0.0004850629,-0.00031552103
UncalAccel,1676592086198,29143020744244,-10.316655,-0.88235337,-0.14177474,0.037048545,-0.031444572,0.0098014325
OrientationDeg,1676592086198,29143020744244,135.0,81.0,0.0
UncalGyro,1676592086207,29143029228813,1.5943583,-0.2759584,-2.3380868,0.003601901,-0.0004850629,-0.00031552103
UncalAccel,1676592086207,29143029228813,-10.177871,-1.0313065,0.5563313,0.037048545,-0.031444572,0.0098014325
UncalMag,1676592086208,29143030434136,-137.3476,752.4594,408.1876,-174.57417,771.0116,430.86337
OrientationDeg,1676592086207,29143029228813,136.0,81.0,0.0
UncalGyro,1676592086215,29143037703158,1.5317446,-0.2948952,-2.1429152,0.003601901,-0.0004850629,-0.00031552103
UncalAccel,1676592086215,29143037703158,-9.795618,-1.5565311,1.0055838,0.037048545,-0.031444572,0.0098014325
OrientationDeg,1676592086215,29143037703158,137.0,81.0,1.0
UncalMag,1676592086218,29143040444268,-137.1158,752.8132,408.1388,-174.57417,771.0116,430.86337
UncalGyro,1676592086224,29143046189669,1.5383114,-0.19837849,-1.871233,0.003601901,-0.0004850629,-0.00031552103
UncalAccel,1676592086224,29143046189669,-9.375677,-1.387239,1.6851454,0.037048545,-0.031444572,0.0098014325
OrientationDeg,1676592086224,29143046189669,138.0,80.0,2.0
UncalMag,1676592086228,29143050440972,-136.96939,753.4476,408.8952,-174.57417,771.0116,430.86337
UncalGyro,1676592086232,29143054668927,1.565953,-0.06856962,-1.627345,0.003601901,-0.0004850629,-0.00031552103
UncalAccel,1676592086232,29143054668927,-9.216555,-0.8751749,2.437688,0.037048545,-0.031444572,0.0098014325
OrientationDeg,1676592086232,29143054668927,138.0,80.0,2.0
UncalMag,1676592086238,29143060444187,-136.96939,753.4476,409.01718,-174.57417,771.0116,430.86337
UncalGyro,1676592086241,29143063148552,1.5905404,-0.018936822,-1.4575244,0.003601901,-0.0004850629,-0.00031552103
UncalAccel,1676592086241,29143063148552,-9.397213,-0.8913264,2.8947172,0.037048545,-0.031444572,0.0098014325
