# 
# Header Description:
# 
# Version: v3.0.5.6 Platform: 13 Manufacturer: Google Model: Pixel 7
# 
# Raw,utcTimeMillis,TimeNanos,LeapSecond,TimeUncertaintyNanos,FullBiasNanos,BiasNanos,BiasUncertaintyNanos,DriftNanosPerSecond,DriftUncertaintyNanosPerSecond,HardwareClockDiscontinuityCount,Svid,TimeOffsetNanos,State,ReceivedSvTimeNanos,ReceivedSvTimeUncertaintyNanos,Cn0DbHz,PseudorangeRateMetersPerSecond,PseudorangeRateUncertaintyMetersPerSecond,AccumulatedDeltaRangeState,AccumulatedDeltaRangeMeters,AccumulatedDeltaRangeUncertaintyMeters,CarrierFrequencyHz,CarrierCycles,CarrierPhase,CarrierPhaseUncertainty,MultipathIndicator,SnrInDb,ConstellationType,AgcDb,BasebandCn0DbHz,FullInterSignalBiasNanos,FullInterSignalBiasUncertaintyNanos,SatelliteInterSignalBiasNanos,SatelliteInterSignalBiasUncertaintyNanos,CodeType,ChipsetElapsedRealtimeNanos
# 
# UncalAccel,utcTimeMillis,elapsedRealtimeNanos,UncalAccelXMps2,UncalAccelYMps2,UncalAccelZMps2,BiasXMps2,BiasYMps2,BiasZMps2
# 
# Accel,utcTimeMillis,elapsedRealtimeNanos,AccelXMps2,AccelYMps2,AccelZMps2
# 
# UncalGyro,utcTimeMillis,elapsedRealtimeNanos,UncalGyroXRadPerSec,UncalGyroYRadPerSec,UncalGyroZRadPerSec,DriftXRadPerSec,DriftYRadPerSec,DriftZRadPerSec
# 
# Gyro,utcTimeMillis,elapsedRealtimeNanos,GyroXRadPerSec,GyroYRadPerSec,GyroZRadPerSec
# 
# UncalMag,utcTimeMillis,elapsedRealtimeNanos,UncalMagXMicroT,UncalMagYMicroT,UncalMagZMicroT,BiasXMicroT,BiasYMicroT,BiasZMicroT
# 
# Mag,utcTimeMillis,elapsedRealtimeNanos,MagXMicroT,MagYMicroT,MagZMicroT
# 
# OrientationDeg,utcTimeMillis,elapsedRealtimeNanos,yawDeg,rollDeg,pitchDeg
# 
# Fix,Provider,LatitudeDegrees,LongitudeDegrees,AltitudeMeters,SpeedMps,AccuracyMeters,BearingDegrees,UnixTimeMillis,SpeedAccuracyMps,BearingAccuracyDegrees,elapsedRealtimeNanos,VerticalAccuracyMeters
# 
# Nav,Svid,Type,Status,MessageId,Sub-messageId,Data(Bytes)
# 
# Status,UnixTimeMillis,SignalCount,SignalIndex,ConstellationType,Svid,CarrierFrequencyHz,Cn0DbHz,AzimuthDegrees,ElevationDegrees,UsedInFix,HasAlmanacData,HasEphemerisData,BasebandCn0DbHz
# 
UncalAccel,1676593388898,30445720083474,-4.222734,1.061815,14.436498,0.037048545,-0.031444572,0.0098014325
UncalGyro,1676593388902,30445724323108,-0.17684549,-0.27870727,0.098043874,0.0006766186,-0.0016857095,-0.0003240822
UncalMag,1676593388902,30445724580911,-147.5224,749.8486,400.3064,-174.57417,771.0116,430.86337
UncalAccel,1676593388906,30445728565682,-3.8410785,0.9738788,14.014762,0.037048545,-0.031444572,0.0098014325
UncalGyro,1676593388910,30445732804523,-0.0016798794,-0.34147367,0.073303826,0.0006766186,-0.0016857095,-0.0003240822
UncalMag,1676593388912,30445734582010,-147.62,749.9218,399.96478,-174.57417,771.0116,430.86337
UncalAccel,1676593388915,30445737043689,-3.5539398,0.8955139,13.410575,0.037048545,-0.031444572,0.0098014325
OrientationDeg,1676593388906,30445728565682,224.0,16.0,-7.0
OrientationDeg,1676593388915,30445737043689,224.0,16.0,-7.0
UncalGyro,1676593388919,30445741285460,0.14462234,-0.3912592,0.048563786,0.0006766186,-0.0016857095,-0.0003240822
UncalMag,1676593388922,30445744583312,-148.1568,749.568,400.1356,-174.57417,771.0116,430.86337
UncalAccel,1676593388923,30445745527699,-3.5240295,0.8488538,12.666407,0.037048545,-0.031444572,0.0098014325
OrientationDeg,1676593388923,30445745527699,224.0,15.0,-7.0
UncalGyro,1676593388928,30445749767496,0.24648413,-0.47448957,0.035277467,0.0006766186,-0.0016857095,-0.0003240822
UncalAccel,1676593388932,30445754010253,-3.629912,0.738784,12.1459675,0.037048545,-0.031444572,0.0098014325
OrientationDeg,1676593388932,30445754010253,224.0,15.0,-7.0
UncalMag,1676593388932,30445754581400,-148.2666,749.4582,399.5134,-174.57417,771.0116,430.86337
UncalGyro,1676593388936,30445758247008,0.300393,-0.54641896,0.027641652,0.0006766186,-0.0016857095,-0.0003240822
UncalAccel,1676593388940,30445762480051,-3.708277,0.57607204,11.898311,0.037048545,-0.031444572,0.0098014325
UncalMag,1676593388942,30445764581116,-148.4496,749.8852,399.37918,-174.57417,771.0116,430.86337
OrientationDeg,1676593388940,30445762480051,224.0,15.0,-7.0
UncalGyro,1676593388944,30445766728148,0.3481932,-0.56214875,0.005955936,0.0006766186,-0.0016857095,-0.0003240822
UncalAccel,1676593388948,30445770968566,-3.8321054,0.4660022,11.2349,0.037048545,-0.031444572,0.0098014325
OrientationDeg,1676593388948,30445770968566,224.0,15.0,-7.0
UncalMag,1676593388952,30445774584046,-148.3886,749.20197,399.8184,-174.57417,771.0116,430.86337
UncalGyro,1676593388953,30445775211233,0.41798455,-0.5856671,-0.03756821,0.0006766186,-0.0016857095,-0.0003240822
UncalAccel,1676593388957,30445779448750,-3.9684963,0.3182454,10.432707,0.037048545,-0.031444572,0.0098014325
OrientationDeg,1676593388957,30445779448750,224.0,14.0,-7.0
UncalGyro,1676593388961,30445783693624,0.4821254,-0.6409504,-0.0936151,0.0006766186,-0.0016857095,-0.0003240822
UncalMag,1676593388962,30445784580994,-148.6082,749.019,399.53778,-174.57417,771.0116,430.86337
UncalAccel,1676593388965,30445787931244,-4.0067816,0.14656039,9.9038925,0.037048545,-0.031444572,0.0098014325
OrientationDeg,1676593388965,30445787931244,224.0,14.0,-8.0
UncalGyro,1676593388970,30445792173075,0.52122074,-0.68737614,-0.16584991,0.0006766186,-0.0016857095,-0.0003240822
UncalMag,1676593388972,30445794582703,-148.8156,749.18976,399.58658,-174.57417,771.0116,430.86337
UncalAccel,1676593388974,30445796410269,-3.9834516,0.03708875,9.431909,0.037048545,-0.031444572,0.0098014325
OrientationDeg,1676593388974,30445796410269,224.0,14.0,-8.0
UncalGyro,1676593388978,30445800658447,0.5529858,-0.6959282,-0.2574797,0.0006766186,-0.0016857095,-0.0003240822
UncalMag,1676593388982,30445804591452,-149.6574,748.88477,398.6838,-174.57417,771.0116,430.86337
UncalAccel,1676593388982,30445804901042,-3.9128633,-0.06699903,8.984451,0.037048545,-0.031444572,0.0098014325
OrientationDeg,1676593388982,30445804901042,225.0,13.0,-8.0
UncalGyro,1676593388987,30445809135060,0.58383447,-0.6656904,-0.36896262,0.0006766186,-0.0016857095,-0.0003240822
UncalAccel,1676593388991,30445813382884,-3.746562,-0.20937198,8.580064,0.037048545,-0.031444572,0.0098014325
UncalMag,1676593388992,30445814580913,-149.25479,748.7262,399.001,-174.57417,771.0116,430.86337
OrientationDeg,1676593388991,30445813382884,225.0,13.0,-8.0
UncalGyro,1676593388995,30445817619558,0.6096435,-0.6038403,-0.4810564,0.0006766186,-0.0016857095,-0.0003240822
UncalAccel,1676593388999,30445821865774,-3.5030923,-0.39361933,8.19123,0.037048545,-0.031444572,0.0098014325
OrientationDeg,1676593388999,30445821865774,225.0,13.0,-9.0
UncalMag,1676593389002,30445824591168,-149.43779,749.0556,398.7204,-174.57417,771.0116,430.86337
UncalGyro,1676593389004,30445826102032,0.63071835,-0.52198434,-0.57879484,0.0006766186,-0.0016857095,-0.0003240822
UncalAccel,1676593389009,30445830346213,-3.2943187,-0.5401797,7.8496547,0.037048545,-0.031444572,0.0098014325
OrientationDeg,1676593389008,30445830346213,226.0,13.0,-9.0
UncalGyro,1676593389012,30445834587099,0.6426302,-0.43127087,-0.65576386,0.0006766186,-0.0016857095,-0.0003240822
UncalMag,1676593389012,30445834597760,-149.57199,748.7384,399.611,-174.57417,771.0116,430.86337
UncalAccel,1676593389016,30445838826884,-3.167499,-0.64965135,7.57448,0.037048545,-0.031444572,0.0098014325
OrientationDeg,1676593389016,30445838826884,226.0,13.0,-9.0
UncalGyro,1676593389021,30445843068309,0.6507242,-0.33765575,-0.7153232,0.0006766186,-0.0016857095,-0.0003240822
UncalMag,1676593389022,30445844591290,-148.84,748.6408,398.9644,-174.57417,771.0116,430.86337
UncalAccel,1676593389025,30445847304169,-3.0939198,-0.74895346,7.408179,0.037048545,-0.031444572,0.0098014325
OrientationDeg,1676593389025,30445847304169,227.0,13.0,-9.0
UncalGyro,1676593389029,30445851538107,0.64828074,-0.23075435,-0.75625116,0.0006766186,-0.0016857095,-0.0003240822
UncalMag,1676593389032,30445854591372,-149.5354,749.3362,399.26938,-174.57417,771.0116,430.86337
UncalAccel,1676593389033,30445855787609,-3.0634112,-0.849452,7.2897344,0.037048545,-0.031444572,0.0098014325
OrientationDeg,1676593389033,30445855787609,227.0,13.0,-9.0
UncalGyro,1676593389038,30445860029176,0.63285637,-0.1337795,-0.7849618,0.0006766186,-0.0016857095,-0.0003240822
UncalAccel,1676593389042,30445864271721,-3.071188,-0.9068798,7.0893354,0.037048545,-0.031444572,0.0098014325
UncalMag,1676593389042,30445864585269,-149.0352,749.019,400.038,-174.57417,771.0116,430.86337
OrientationDeg,1676593389043,30445864271721,227.0,13.0,-10.0
UncalGyro,1676593389046,30445868509849,0.60032785,-0.073303826,-0.81183994,0.0006766186,-0.0016857095,-0.0003240822
UncalAccel,1676593389050,30445872744214,-3.0705895,-0.9302098,7.0133634,0.037048545,-0.031444572,0.0098014325
OrientationDeg,1676593389050,30445872744214,228.0,13.0,-10.0
UncalMag,1676593389052,30445874591372,-149.145,748.9214,399.8916,-174.57417,771.0116,430.86337
UncalGyro,1676593389054,30445876991294,0.5510005,-0.036651913,-0.84467393,0.0006766186,-0.0016857095,-0.0003240822
UncalAccel,1676593389059,30445881229921,-3.065804,-0.8967103,6.984649,0.037048545,-0.031444572,0.0098014325
OrientationDeg,1676593389059,30445881229921,228.0,13.0,-10.0
UncalMag,1676593389062,30445884591657,-148.9132,749.263,399.48898,-174.57417,771.0116,430.86337
UncalGyro,1676593389063,30445885470737,0.49205196,-0.014202617,-0.8918633,0.0006766186,-0.0016857095,-0.0003240822
UncalAccel,1676593389067,30445889711978,-3.0233314,-0.8488538,6.975078,0.037048545,-0.031444572,0.0098014325
OrientationDeg,1676593389067,30445889711978,229.0,13.0,-10.0
UncalGyro,1676593389071,30445893953189,0.42424592,0.0013744468,-0.95356065,0.0006766186,-0.0016857095,-0.0003240822
UncalMag,1676593389072,30445894592838,-148.80339,749.2752,399.7208,-174.57417,771.0116,430.86337
UncalAccel,1676593389076,30445898193901,-2.8995028,-0.80997044,7.075577,0.037048545,-0.031444572,0.0098014325
OrientationDeg,1676593389076,30445898193901,229.0,13.0,-10.0
UncalGyro,1676593389080,30445902437981,0.35155296,0.025503624,-1.0181596,0.0006766186,-0.0016857095,-0.0003240822
UncalMag,1676593389082,30445904591414,-148.4984,749.1044,399.55,-174.57417,771.0116,430.86337
UncalAccel,1676593389084,30445906684065,-2.800799,-0.75673014,7.233503,0.037048545,-0.031444572,0.0098014325
OrientationDeg,1676593389084,30445906684065,230.0,13.0,-10.0
Status,0,29,0,6,2,1176450050,33.74,71.0,79.0,1,1,1,30.137804
Status,0,29,1,6,2,1575420030,38.63,71.0,79.0,1,1,1,35.032204
Status,0,29,2,3,17,1604249980,44.55,276.0,74.0,1,1,1,40.946835
Status,0,29,3,1,11,1575420030,42.55,151.0,69.0,1,1,1,38.94825
Status,0,29,4,1,11,1176450050,38.84,151.0,69.0,1,1,1,35.239414
Status,0,29,5,6,36,1575420030,37.01,64.0,68.0,1,1,1,33.41421
Status,0,29,6,6,36,1176450050,34.94,64.0,68.0,1,1,1,31.34007
Status,0,29,7,3,15,1602000000,43.16,329.0,65.0,1,1,1,39.55564
Status,0,29,8,1,12,1575420030,45.56,321.0,56.0,1,1,1,41.955643
Status,0,29,9,3,14,1598062460,44.20,144.0,56.0,1,1,1,40.603027
Status,0,29,10,1,6,1176450050,35.76,55.0,52.0,1,1,1,32.161934
Status,0,29,11,1,6,1575420030,39.22,55.0,52.0,1,1,1,35.62466
Status,0,29,12,6,34,1575420030,44.79,201.0,51.0,1,1,1,41.188007
Status,0,29,13,6,34,1176450050,37.01,201.0,51.0,1,1,1,33.414394
Status,0,29,14,1,24,1575420030,44.71,227.0,45.0,1,1,1,41.105713
Status,0,29,15,1,24,1176450050,41.13,227.0,45.0,1,1,1,37.52698
Status,0,29,16,3,24,1603124990,42.50,30.0,40.0,1,1,1,38.895035
Status,0,29,17,6,30,1176450050,37.21,314.0,39.0,1,1,1,33.614895
Status,0,29,18,6,30,1575420030,42.80,314.0,39.0,1,1,1,39.19926
Status,0,29,19,1,19,1575420030,39.30,55.0,32.0,1,1,1,35.6971
Status,0,29,20,6,25,1176450050,33.10,120.0,31.0,1,1,1,29.500595
Status,0,29,21,6,25,1575420030,42.53,120.0,31.0,1,1,1,38.934765
Status,0,29,22,3,18,1600312450,45.66,230.0,28.0,1,1,1,42.05667
Status,0,29,23,1,25,1176450050,39.95,310.0,27.0,1,1,1,36.352695
Status,0,29,24,1,25,1575420030,43.80,310.0,27.0,1,1,1,40.199726
Status,0,29,25,6,11,1575420030,32.67,41.0,20.0,1,1,1,29.072716
Status,0,29,26,6,11,1176450050,30.97,41.0,20.0,1,1,1,27.373325
Status,0,29,27,1,20,1575420030,43.13,148.0,19.0,1,1,1,39.530396
Status,0,29,28,3,16,1601437440,43.97,327.0,12.0,1,1,1,40.370625
UncalGyro,1676593389088,30445910916588,0.2863431,0.056046885,-1.0867293,0.0006766186,-0.0016857095,-0.0003240822
UncalMag,1676593389092,30445914591414,-147.8884,748.9336,399.5012,-174.57417,771.0116,430.86337
Fix,GPS,37.4312977846,-122.1550381214,-8.270324175071995,0.27191204,3.0105448,302.299,1676593388999,0.123539835,31.309803,30445811374000,3.0
UncalAccel,1676593389093,30445915153832,-2.7397819,-0.7178468,7.367501,0.037048545,-0.031444572,0.0098014325
OrientationDeg,1676593389093,30445915153832,231.0,13.0,-10.0
Raw,1676593388999,145043000000,,,-1360628461956790709,0.0,6.5475997510545625,172.0,1.0,56,6,0.0,16431,433406929398295,18,38.827392578125,398.07654835477297,0.15,16,56622.01186794838,340282346638528860000000000000000000000,1575420030,,,,0,,1,,35.227394104003906,0.320142130558394,1.0,0.320142130558394,1.0,C,30445811374000
Raw,1676593388999,145043000000,,,-1360628461956790709,0.0,6.5475997510545625,172.0,1.0,56,11,0.0,16431,433406931240189,14,41.85445785522461,-157.7925032724379,0.15,16,-24145.241141589013,340282346638528860000000000000000000000,1575420030,,,,0,,1,,38.254459381103516,-0.20372681261465636,1.0,-0.20372681261465636,1.0,C,30445811374000
Raw,1676593388999,145043000000,,,-1360628461956790709,0.0,6.5475997510545625,172.0,1.0,56,12,0.0,16431,433406929983036,12,43.711666107177734,-299.0250225695727,0.15,16,-43910.36711037985,340282346638528860000000000000000000000,1575420030,,,,0,,1,,40.11166763305664,-0.6984919076624261,1.0,-0.6984919076624261,1.0,C,30445811374000
Raw,1676593388999,145043000000,,,-1360628461956790709,0.0,6.5475997510545625,172.0,1.0,56,19,0.0,16431,433406925378592,31,31.770671844482422,535.5517494799201,0.6828152563807519,16,77300.81698796691,340282346638528860000000000000000000000,1575420030,,,,0,,1,,28.170671463012695,0.0,1.0,0.0,1.0,C,30445811374000
Raw,1676593388999,145043000000,,,-1360628461956790709,0.0,6.5475997510545625,172.0,1.0,56,20,0.0,16431,433406920581378,17,39.06147003173828,-520.6177713404072,0.15,16,-75450.3090966685,340282346638528860000000000000000000000,1575420030,,,,0,,1,,35.46147155761719,0.0,1.0,0.0,1.0,C,30445811374000
Raw,1676593388999,145043000000,,,-1360628461956790709,0.0,6.5475997510545625,172.0,1.0,56,24,0.0,16431,433406927030490,18,38.387062072753906,470.22147434330145,0.15,16,67003.8103216093,340282346638528860000000000000000000000,1575420030,,,,0,,1,,34.78706359863281,-0.20372681261465636,1.0,-0.20372681261465636,1.0,C,30445811374000
Raw,1676593388999,145043000000,,,-1360628461956790709,0.0,6.5475997510545625,172.0,1.0,56,25,0.0,16431,433406924152861,18,38.36863327026367,-522.9286300575668,0.15,16,-76059.91557494018,340282346638528860000000000000000000000,1575420030,,,,0,,1,,34.76863479614258,-2.0372682255564105,1.0,-2.0372682255564105,1.0,C,30445811374000
Raw,1676593388999,145043000000,,,-1360628461956790709,0.0,6.5475997510545625,172.0,1.0,56,6,0.0,81921,433406929398831,6,34.71883010864258,398.27882773423585,0.5509628465969498,16,57793.83108482241,340282346638528860000000000000000000000,1176450050,,,,0,,1,,31.118831634521484,1.9208527336454408,1.7673276100678017,1.9208527336454408,1.0,Q,30445811374000
Raw,1676593388999,145043000000,,,-1360628461956790709,0.0,6.5475997510545625,172.0,1.0,56,11,0.0,81921,433406931240708,10,35.35197067260742,-158.16814306700405,0.522822586488134,16,-24683.06353097407,340282346638528860000000000000000000000,1176450050,,,,0,,1,,31.751972198486328,0.0,1.7673276100678017,0.0,1.0,Q,30445811374000
Raw,1676593388999,145043000000,,,-1360628461956790709,0.0,6.5475997510545625,172.0,1.0,56,24,0.0,81921,433406927030968,9,41.12697982788086,469.4765340910824,0.15,16,66990.73146601999,340282346638528860000000000000000000000,1176450050,,,,0,,1,,37.526981353759766,3.5215636101095664,1.7673276100678017,3.5215636101095664,1.0,Q,30445811374000
Raw,1676593388999,145043000000,,,-1360628461956790709,0.0,6.5475997510545625,172.0,1.0,56,25,0.0,81921,433406924153376,7,37.89585876464844,-523.1437585231388,0.15,16,-77677.50645432211,340282346638528860000000000000000000000,1176450050,,,,0,,1,,34.295860290527344,1.0186341127782053,1.7673276100678017,1.0186341127782053,1.0,Q,30445811374000
Raw,1676593388999,145043000000,,,-1360628461956790709,0.0,6.5475997510545625,172.0,1.0,56,14,0.0,32995,12188933257049,33,43.00261688232422,476.6154113518937,0.15,16,67646.51314153803,340282346638528860000000000000000000000,1598062460,,,,0,,3,,39.402618408203125,52.1540641784668,2.0000000474974513,52.1540641784668,2.0000000474974513,C,30445811374000
Raw,1676593388999,145043000000,,,-1360628461956790709,0.0,6.5475997510545625,172.0,1.0,56,18,0.0,32995,12188926877777,33,42.331214904785156,-549.6330186396888,0.15,16,-79782.45165073783,340282346638528860000000000000000000000,1600312450,,,,0,,3,,38.73121643066406,52.1540641784668,2.0000000474974513,52.1540641784668,2.0000000474974513,C,30445811374000
Raw,1676593388999,145043000000,,,-1360628461956790709,0.0,6.5475997510545625,172.0,1.0,56,16,0.0,32867,12188921735084,43,36.47174835205078,-718.5545005229765,0.15,16,-103847.02099935082,340282346638528860000000000000000000000,1601437440,,,,0,,3,,32.87174987792969,52.1540641784668,2.0000000474974513,52.1540641784668,2.0000000474974513,C,30445811374000
Raw,1676593388999,145043000000,,,-1360628461956790709,0.0,6.5475997510545625,172.0,1.0,56,15,0.0,32995,12188934530525,34,39.539669036865234,-282.5769653814905,0.15,16,-42196.52445698458,340282346638528860000000000000000000000,1602000000,,,,0,,3,,35.93967056274414,52.1540641784668,2.0000000474974513,52.1540641784668,2.0000000474974513,C,30445811374000
Raw,1676593388999,145043000000,,,-1360628461956790709,0.0,6.5475997510545625,172.0,1.0,56,24,0.0,32995,12188929963684,35,38.97605514526367,641.0959150678027,0.15,16,92826.44414768272,340282346638528860000000000000000000000,1603124990,,,,0,,3,,35.37605667114258,52.1540641784668,2.0000000474974513,52.1540641784668,2.0000000474974513,C,30445811374000
Raw,1676593388999,145043000000,,,-1360628461956790709,0.0,6.5475997510545625,172.0,1.0,56,17,0.0,32995,12188935860755,33,44.54683303833008,-0.06576558632298996,0.15,16,-1356.4132907592925,340282346638528860000000000000000000000,1604249980,,,,0,,3,,40.946834564208984,52.1540641784668,2.0000000474974513,52.1540641784668,2.0000000474974513,C,30445811374000
Raw,1676593388999,145043000000,,,-1360628461956790709,0.0,6.5475997510545625,172.0,1.0,56,2,0.0,85026,433406922027404,18,38.253875732421875,70.54847390285059,0.15,16,9680.907581623545,340282346638528860000000000000000000000,1575420030,,,,0,,6,,34.65387725830078,-5.878973752260207,1.5000000237487257,-5.878973752260207,1.5000000237487257,C,30445811374000
Raw,1676593388999,145043000000,,,-1360628461956790709,0.0,6.5475997510545625,172.0,1.0,56,11,0.0,85026,433406911320796,44,27.710973739624023,558.6286740494063,0.8657246172326287,16,80843.21759813328,340282346638528860000000000000000000000,1575420030,,,,0,,6,,24.110973358154297,-5.878973752260207,1.5000000237487257,-5.878973752260207,1.5000000237487257,C,30445811374000
Raw,1676593388999,145043000000,,,-1360628461956790709,0.0,6.5475997510545625,172.0,1.0,56,25,0.0,85026,433406913161536,13,42.53476333618164,443.9531026274758,0.15,16,64049.55803757878,340282346638528860000000000000000000000,1575420030,,,,0,,6,,38.93476486206055,-5.878973752260207,1.5000000237487257,-5.878973752260207,1.5000000237487257,C,30445811374000
Raw,1676593388999,145043000000,,,-1360628461956790709,0.0,6.5475997510545625,172.0,1.0,56,30,0.0,85026,433406914627264,15,40.367645263671875,-344.0553776117272,0.15,16,-50369.54431445754,340282346638528860000000000000000000000,1575420030,,,,0,,6,,36.76764678955078,-5.878973752260207,1.5000000237487257,-5.878973752260207,1.5000000237487257,C,30445811374000
Raw,1676593388999,145043000000,,,-1360628461956790709,0.0,6.5475997510545625,172.0,1.0,56,34,0.0,85026,433406918462470,16,40.113712310791016,-340.6893601230779,0.15,16,-50042.561736682976,340282346638528860000000000000000000000,1575420030,,,,0,,6,,36.51371383666992,-5.878973752260207,1.5000000237487257,-5.878973752260207,1.5000000237487257,C,30445811374000
Raw,1676593388999,145043000000,,,-1360628461956790709,0.0,6.5475997510545625,172.0,1.0,56,36,0.0,85026,433406921100452,21,36.954345703125,184.1843046045609,0.15,16,25887.705928258194,340282346638528860000000000000000000000,1575420030,,,,0,,6,,33.354347229003906,-5.878973752260207,1.5000000237487257,-5.878973752260207,1.5000000237487257,C,30445811374000
Raw,1676593388999,145043000000,,,-1360628461956790709,0.0,6.5475997510545625,172.0,1.0,56,2,0.0,84003,433406922027898,9,33.03433609008789,70.57027815441106,0.6289844792929951,16,9707.08095610056,340282346638528860000000000000000000000,1176450050,,,,0,,6,,29.434335708618164,-4.216632805764675,2.267327633816527,-4.216632805764675,1.5000000237487257,Q,30445811374000
Raw,1676593388999,145043000000,,,-1360628461956790709,0.0,6.5475997510545625,172.0,1.0,56,11,0.0,84003,433406911321320,16,30.691049575805664,557.3242021084523,0.7324335217230469,16,83809.78886302873,340282346638528860000000000000000000000,1176450050,,,,0,,6,,27.091049194335938,4.279776476323602,2.267327633816527,4.279776476323602,1.5000000237487257,Q,30445811374000
Raw,1676593388999,145043000000,,,-1360628461956790709,0.0,6.5475997510545625,172.0,1.0,56,25,0.0,84003,433406913162055,13,33.10059356689453,443.6784321103585,0.6244101077161699,16,64794.534439243005,340282346638528860000000000000000000000,1176450050,,,,0,,6,,29.500595092773438,-8.649541996419428,2.267327633816527,-8.649541996419428,1.5000000237487257,Q,30445811374000
Raw,1676593388999,145043000000,,,-1360628461956790709,0.0,6.5475997510545625,172.0,1.0,56,30,0.0,84003,433406914627748,12,35.13956832885742,-344.1037065350765,0.53298331898805,16,-50796.055586517665,340282346638528860000000000000000000000,1176450050,,,,0,,6,,31.539569854736328,-8.2801328971982,2.267327633816527,-8.2801328971982,1.5000000237487257,Q,30445811374000
Raw,1676593388999,145043000000,,,-1360628461956790709,0.0,6.5475997510545625,172.0,1.0,56,34,0.0,84003,433406918462978,8,37.0143928527832,-341.1712519758539,0.15,16,-50843.17897659445,340282346638528860000000000000000000000,1176450050,,,,0,,6,,33.41439437866211,-9.942473843693731,2.267327633816527,-9.942473843693731,1.5000000237487257,Q,30445811374000
Raw,1676593388999,145043000000,,,-1360628461956790709,0.0,6.5475997510545625,172.0,1.0,56,36,0.0,84003,433406921100994,9,34.81048583984375,183.80834102665779,0.5489462901581339,16,26127.01480985708,340282346638528860000000000000000000000,1176450050,,,,0,,6,,31.210485458374023,-10.865996591746804,2.267327633816527,-10.865996591746804,1.5000000237487257,Q,30445811374000
UncalGyro,1676593389097,30445919391106,0.24770586,0.08323039,-1.1578951,0.0006766186,-0.0016857095,-0.0003240822
UncalAccel,1676593389101,30445923635664,-2.7074788,-0.63170516,7.5009007,0.037048545,-0.031444572,0.0098014325
OrientationDeg,1676593389101,30445923635664,231.0,14.0,-10.0
UncalMag,1676593389102,30445924580957,-147.681,748.88477,400.4528,-174.57417,771.0116,430.86337
UncalGyro,1676593389105,30445927877627,0.2443461,0.13530666,-1.2243266,0.0006766186,-0.0016857095,-0.0003240822
Fix,FLP,37.4312931000,-122.1550353000,-16.200000762939453,0.19199766,4.321,346.54648,1676593388707,,,30445529259769,1.9570854
UncalAccel,1676593389110,30445932115329,-2.7391837,-0.46002015,7.757531,0.037048545,-0.031444572,0.0098014325
OrientationDeg,1676593389110,30445932115329,232.0,14.0,-10.0
UncalMag,1676593389112,30445934588444,-147.5468,749.31177,400.1844,-174.57417,771.0116,430.86337
UncalGyro,1676593389114,30445936346694,0.28527406,0.24602598,-1.2793045,0.0006766186,-0.0016857095,-0.0003240822
UncalAccel,1676593389118,30445940586857,-2.9222345,-0.40378883,7.8897343,0.037048545,-0.031444572,0.0098014325
OrientationDeg,1676593389118,30445940586857,232.0,14.0,-10.0
UncalMag,1676593389122,30445944591496,-146.7294,749.09216,400.96518,-174.57417,771.0116,430.86337
UncalGyro,1676593389122,30445944834700,0.364992,0.37140608,-1.3055718,0.0006766186,-0.0016857095,-0.0003240822
UncalAccel,1676593389127,30445949074222,-3.0550363,-0.38524446,7.745567,0.037048545,-0.031444572,0.0098014325
OrientationDeg,1676593389127,30445949074222,233.0,14.0,-10.0
UncalGyro,1676593389131,30445953319431,0.45249844,0.45066583,-1.2950343,0.0006766186,-0.0016857095,-0.0003240822
UncalMag,1676593389132,30445954591252,-146.8636,750.2268,400.9896,-174.57417,771.0116,430.86337
UncalAccel,1676593389135,30445957553775,-3.1884363,-0.381057,7.64447,0.037048545,-0.031444572,0.0098014325
OrientationDeg,1676593389135,30445957553775,234.0,15.0,-10.0
UncalGyro,1676593389139,30445961786839,0.5122105,0.4783075,-1.2527319,0.0006766186,-0.0016857095,-0.0003240822
UncalMag,1676593389142,30445964591212,-146.13159,750.422,401.258,-174.57417,771.0116,430.86337
UncalAccel,1676593389144,30445966042394,-3.2709885,-0.33439696,7.8059855,0.037048545,-0.031444572,0.0098014325
OrientationDeg,1676593389144,30445966042394,234.0,15.0,-10.0
UncalGyro,1676593389148,30445970282007,0.50991976,0.46379945,-1.1867584,0.0006766186,-0.0016857095,-0.0003240822
UncalAccel,1676593389152,30445974516342,-3.3206396,-0.17647067,7.9477606,0.037048545,-0.031444572,0.0098014325
OrientationDeg,1676593389152,30445974516342,235.0,15.0,-10.0
UncalMag,1676593389152,30445974580551,-145.3264,749.93396,401.97778,-174.57417,771.0116,430.86337
UncalGyro,1676593389156,30445978764663,0.4465425,0.39064834,-1.1239921,0.0006766186,-0.0016857095,-0.0003240822
UncalAccel,1676593389161,30445983003107,-3.3415768,0.053240303,7.9704924,0.037048545,-0.031444572,0.0098014325
OrientationDeg,1676593389161,30445983003107,236.0,16.0,-10.0
UncalMag,1676593389162,30445984591456,-145.1922,750.2878,401.929,-174.57417,771.0116,430.86337
UncalGyro,1676593389165,30445987247258,0.33490688,0.2518292,-1.0816896,0.0006766186,-0.0016857095,-0.0003240822
UncalAccel,1676593389169,30445991482824,-3.367898,0.3786642,8.087741,0.037048545,-0.031444572,0.0098014325
OrientationDeg,1676593389169,30445991482824,236.0,16.0,-10.0
UncalMag,1676593389172,30445994591538,-145.3752,750.7148,401.6728,-174.57417,771.0116,430.86337
UncalGyro,1676593389173,30445995720729,0.182496,0.06352998,-1.0830641,0.0006766186,-0.0016857095,-0.0003240822
UncalAccel,1676593389177,30445999965571,-3.4337006,0.72741807,8.300702,0.037048545,-0.031444572,0.0098014325
OrientationDeg,1676593389177,30445999965571,237.0,16.0,-10.0
UncalGyro,1676593389182,30446004207789,0.0036651916,-0.16783522,-1.1447614,0.0006766186,-0.0016857095,-0.0003240822
UncalMag,1676593389182,30446004575140,-144.7408,750.8124,401.563,-174.57417,771.0116,430.86337
UncalAccel,1676593389186,30446008447860,-3.4791641,0.9421739,8.480762,0.037048545,-0.031444572,0.0098014325
OrientationDeg,1676593389186,30446008447860,237.0,16.0,-10.0
UncalGyro,1676593389190,30446012687862,-0.20143281,-0.4558582,-1.2644911,0.0006766186,-0.0016857095,-0.0003240822
UncalMag,1676593389192,30446014591416,-145.0336,751.10516,400.06238,-174.57417,771.0116,430.86337
UncalAccel,1676593389194,30446016923772,-3.4911282,1.1335998,8.65125,0.037048545,-0.031444572,0.0098014325
OrientationDeg,1676593389194,30446016923772,238.0,16.0,-9.0
UncalGyro,1676593389199,30446021168921,-0.42302418,-0.8191703,-1.4512631,0.0006766186,-0.0016857095,-0.0003240822
UncalMag,1676593389202,30446024588162,-145.1068,751.7518,401.197,-174.57417,771.0116,430.86337
UncalAccel,1676593389203,30446025408412,-3.6227336,1.3142579,8.912068,0.037048545,-0.031444572,0.0098014325
OrientationDeg,1676593389203,30446025408412,239.0,15.0,-9.0
UncalGyro,1676593389207,30446029650844,-0.63804877,-1.2414309,-1.7085901,0.0006766186,-0.0016857095,-0.0003240822
UncalAccel,1676593389211,30446033889512,-3.8907297,1.527219,9.419945,0.037048545,-0.031444572,0.0098014325
OrientationDeg,1676593389211,30446033889512,239.0,15.0,-8.0
UncalMag,1676593389212,30446034601793,-145.8998,752.5082,400.7822,-174.57417,771.0116,430.86337
UncalGyro,1676593389216,30446038131872,-0.82527894,-1.6708691,-2.0237966,0.0006766186,-0.0016857095,-0.0003240822
UncalAccel,1676593389220,30446042370602,-4.0151563,1.6456637,9.953544,0.037048545,-0.031444572,0.0098014325
UncalMag,1676593389222,30446044591214,-144.9726,753.7892,399.6232,-174.57417,771.0116,430.86337
OrientationDeg,1676593389220,30446042370602,240.0,14.0,-7.0
UncalGyro,1676593389224,30446046612800,-0.98349303,-2.0809124,-2.3617578,0.0006766186,-0.0016857095,-0.0003240822
UncalAccel,1676593389228,30446050850389,-3.9661036,1.7455641,10.363315,0.037048545,-0.031444572,0.0098014325
OrientationDeg,1676593389228,30446050850389,241.0,13.0,-7.0
UncalMag,1676593389232,30446054591499,-145.65579,754.5578,399.33038,-174.57417,771.0116,430.86337
UncalGyro,1676593389233,30446055090492,-1.1177307,-2.4685066,-2.6891816,0.0006766186,-0.0016857095,-0.0003240822
UncalAccel,1676593389237,30446059321672,-3.78724,1.8610178,10.636097,0.037048545,-0.031444572,0.0098014325
OrientationDeg,1676593389237,30446059321672,243.0,12.0,-6.0
UncalGyro,1676593389241,30446063574287,-1.2145529,-2.81166,-2.9906435,0.0006766186,-0.0016857095,-0.0003240822
UncalMag,1676593389242,30446064580879,-146.217,755.729,398.04938,-174.57417,771.0116,430.86337
UncalAccel,1676593389245,30446067813890,-3.4689946,2.0548365,10.818549,0.037048545,-0.031444572,0.0098014325
OrientationDeg,1676593389245,30446067813890,244.0,11.0,-5.0
UncalGyro,1676593389250,30446072057960,-1.2519683,-3.0854805,-3.2443054,0.0006766186,-0.0016857095,-0.0003240822
UncalMag,1676593389252,30446074591459,-146.9856,756.81476,397.2442,-174.57417,771.0116,430.86337
UncalAccel,1676593389254,30446076291461,-3.1441689,1.9704895,10.921441,0.037048545,-0.031444572,0.0098014325
OrientationDeg,1676593389255,30446076291461,245.0,9.0,-4.0
UncalGyro,1676593389258,30446080536130,-1.2331842,-3.2711835,-3.412904,0.0006766186,-0.0016857095,-0.0003240822
UncalMag,1676593389262,30446084591255,-147.3028,758.3398,395.6826,-174.57417,771.0116,430.86337
UncalAccel,1676593389262,30446084774157,-2.7409782,1.7665013,10.901102,0.037048545,-0.031444572,0.0098014325
OrientationDeg,1676593389262,30446084774157,247.0,8.0,-3.0
UncalGyro,1676593389267,30446089013038,-1.1716396,-3.393051,-3.4794884,0.0006766186,-0.0016857095,-0.0003240822
UncalAccel,1676593389271,30446093256365,-2.268994,1.6648064,10.479965,0.037048545,-0.031444572,0.0098014325
OrientationDeg,1676593389271,30446093256365,249.0,6.0,-2.0
UncalMag,1676593389272,30446094580636,-148.14459,759.8526,394.731,-174.57417,771.0116,430.86337
UncalGyro,1676593389275,30446097498054,-1.0754282,-3.4967453,-3.467882,0.0006766186,-0.0016857095,-0.0003240822
UncalAccel,1676593389279,30446101739184,-1.7790636,1.6253247,10.244272,0.037048545,-0.031444572,0.0098014325
OrientationDeg,1676593389279,30446101739184,250.0,4.0,-2.0
UncalMag,1676593389282,30446104591459,-149.41339,761.37756,393.9136,-174.57417,771.0116,430.86337
UncalGyro,1676593389283,30446105980050,-0.9445504,-3.5161405,-3.3895385,0.0006766186,-0.0016857095,-0.0003240822
UncalAccel,1676593389288,30446110218901,-1.2747762,1.6037893,10.6103735,0.037048545,-0.031444572,0.0098014325
OrientationDeg,1676593389288,30446110218901,252.0,3.0,-1.0
UncalGyro,1676593389292,30446114461048,-0.7855727,-3.3542612,-3.244,0.0006766186,-0.0016857095,-0.0003240822
UncalMag,1676593389292,30446114593372,-149.877,762.378,392.718,-174.57417,771.0116,430.86337
UncalAccel,1676593389296,30446118698667,-0.79501534,1.5966109,11.090733,0.037048545,-0.031444572,0.0098014325
OrientationDeg,1676593389296,30446118698667,253.0,1.0,-1.0
UncalGyro,1676593389300,30446122938027,-0.60246587,-2.995225,-3.036764,0.0006766186,-0.0016857095,-0.0003240822
UncalMag,1676593389302,30446124593779,-151.402,762.9392,392.169,-174.57417,771.0116,430.86337
UncalAccel,1676593389305,30446127180723,-0.39481574,1.6181463,11.288739,0.037048545,-0.031444572,0.0098014325
OrientationDeg,1676593389305,30446127180723,255.0,0.0,-1.0
UncalGyro,1676593389309,30446131422321,-0.4092797,-2.5085182,-2.7743971,0.0006766186,-0.0016857095,-0.0003240822
UncalMag,1676593389312,30446134591297,-152.24379,764.56177,391.3638,-174.57417,771.0116,430.86337
UncalAccel,1676593389313,30446135662820,-0.083748795,1.6677973,11.247463,0.037048545,-0.031444572,0.0098014325
OrientationDeg,1676593389313,30446135662820,256.0,0.0,0.0
UncalGyro,1676593389317,30446139903257,-0.22724187,-1.9914207,-2.4733934,0.0006766186,-0.0016857095,-0.0003240822
UncalAccel,1676593389322,30446144139698,0.04127619,1.7790636,11.066207,0.037048545,-0.031444572,0.0098014325
UncalMag,1676593389322,30446144594675,-153.1954,765.977,390.034,-174.57417,771.0116,430.86337
OrientationDeg,1676593389322,30446144139698,257.0,-1.0,0.0
UncalGyro,1676593389326,30446148384266,-0.0711658,-1.50731,-2.1464279,0.0006766186,-0.0016857095,-0.0003240822
UncalAccel,1676593389330,30446152621184,0.0041874396,2.0045872,10.712069,0.037048545,-0.031444572,0.0098014325
OrientationDeg,1676593389330,30446152621184,258.0,-1.0,0.0
UncalMag,1676593389332,30446154591420,-153.1954,765.977,390.034,-174.57417,771.0116,430.86337
UncalGyro,1676593389334,30446156856688,0.056199603,-1.0871874,-1.8240436,0.0006766186,-0.0016857095,-0.0003240822
UncalAccel,1676593389339,30446161104613,-0.22253251,2.181058,10.280165,0.037048545,-0.031444572,0.0098014325
UncalMag,1676593389342,30446164591542,-153.72,766.0502,389.69238,-174.57417,771.0116,430.86337
UncalGyro,1676593389343,30446165346445,0.16187929,-0.7498371,-1.5331191,0.0006766186,-0.0016857095,-0.0003240822
OrientationDeg,1676593389339,30446161104613,259.0,-2.0,-1.0
UncalAccel,1676593389347,30446169588469,-0.39720857,2.2624137,9.848858,0.037048545,-0.031444572,0.0098014325
OrientationDeg,1676593389347,30446169588469,260.0,-2.0,-1.0
UncalGyro,1676593389351,30446173828420,0.22922719,-0.5169447,-1.278541,0.0006766186,-0.0016857095,-0.0003240822
UncalMag,1676593389352,30446174580963,-153.80539,766.3796,389.4118,-174.57417,771.0116,430.86337
UncalAccel,1676593389356,30446178067006,-0.48095736,2.243271,9.54796,0.037048545,-0.031444572,0.0098014325
OrientationDeg,1676593389356,30446178067006,260.0,-2.0,-1.0
UncalGyro,1676593389360,30446182309499,0.24480425,-0.35995236,-1.0558805,0.0006766186,-0.0016857095,-0.0003240822
UncalMag,1676593389362,30446184591299,-154.6106,766.9164,390.16818,-174.57417,771.0116,430.86337
UncalAccel,1676593389364,30446186547791,-0.7399804,2.3419752,9.626924,0.037048545,-0.031444572,0.0098014325
OrientationDeg,1676593389364,30446186547791,261.0,-2.0,-1.0
UncalGyro,1676593389368,30446190791229,0.22021692,-0.18493946,-0.8707884,0.0006766186,-0.0016857095,-0.0003240822
UncalMag,1676593389372,30446194591665,-154.07379,766.97736,389.0824,-174.57417,771.0116,430.86337
UncalAccel,1676593389373,30446195033030,-0.9936196,2.580061,9.495318,0.037048545,-0.031444572,0.0098014325
OrientationDeg,1676593389373,30446195033030,261.0,-2.0,-1.0
UncalGyro,1676593389377,30446199259236,0.16203201,-0.00076358154,-0.7273878,0.0006766186,-0.0016857095,-0.0003240822
UncalAccel,1676593389381,30446203506562,-1.294517,2.71705,9.339785,0.037048545,-0.031444572,0.0098014325
OrientationDeg,1676593389381,30446203506562,261.0,-2.0,-1.0
UncalMag,1676593389382,30446204580883,-153.842,767.3556,389.7656,-174.57417,771.0116,430.86337
UncalGyro,1676593389385,30446207747813,0.051159963,0.1769982,-0.6206391,0.0006766186,-0.0016857095,-0.0003240822
UncalAccel,1676593389389,30446211993896,-1.5044873,2.702095,9.229117,0.037048545,-0.031444572,0.0098014325
OrientationDeg,1676593389389,30446211993896,262.0,-2.0,-1.0
UncalMag,1676593389392,30446214591462,-154.0616,767.2336,389.0214,-174.57417,771.0116,430.86337
UncalGyro,1676593389394,30446216233501,-0.12767084,0.32925636,-0.5384777,0.0006766186,-0.0016857095,-0.0003240822
UncalAccel,1676593389398,30446220472809,-1.7611175,2.6620152,9.103494,0.037048545,-0.031444572,0.0098014325
OrientationDeg,1676593389398,30446220472809,262.0,-2.0,-1.0
UncalMag,1676593389402,30446224593334,-154.0494,767.51416,389.5704,-174.57417,771.0116,430.86337
UncalGyro,1676593389402,30446224713278,-0.36651915,0.4622723,-0.47800204,0.0006766186,-0.0016857095,-0.0003240822
UncalAccel,1676593389406,30446228952881,-2.0685952,2.544767,9.364311,0.037048545,-0.031444572,0.0098014325
OrientationDeg,1676593389406,30446228952881,262.0,-2.0,-1.0
UncalGyro,1676593389411,30446233194439,-0.5681047,0.84513205,-0.43997568,0.0006766186,-0.0016857095,-0.0003240822
UncalMag,1676593389412,30446234591178,-153.7322,767.5996,389.3386,-174.57417,771.0116,430.86337
UncalAccel,1676593389415,30446237434581,-1.3543376,2.6039891,16.699509,0.037048545,-0.031444572,0.0098014325
OrientationDeg,1676593389415,30446237434581,262.0,-1.0,-1.0
UncalGyro,1676593389419,30446241676891,-0.47067168,1.9955441,-0.4250095,0.0006766186,-0.0016857095,-0.0003240822
UncalMag,1676593389422,30446244591300,-152.5854,767.563,390.034,-174.57417,771.0116,430.86337
UncalAccel,1676593389423,30446245915508,-1.7300107,1.7575282,14.472389,0.037048545,-0.031444572,0.0098014325
OrientationDeg,1676593389423,30446245915508,262.0,0.0,-1.0
UncalGyro,1676593389428,30446250157411,-0.27672195,2.7812696,-0.27382034,0.0006766186,-0.0016857095,-0.0003240822
UncalAccel,1676593389432,30446254395621,-6.056234,1.6151553,9.205189,0.037048545,-0.031444572,0.0098014325
UncalMag,1676593389432,30446254593945,-151.5118,768.0266,390.2414,-174.57417,771.0116,430.86337
OrientationDeg,1676593389432,30446254395621,262.0,1.0,-1.0
UncalGyro,1676593389436,30446258637575,-0.10980303,1.5654949,-0.027947085,0.0006766186,-0.0016857095,-0.0003240822
UncalAccel,1676593389440,30446262877026,-13.311871,0.6681957,9.8321085,0.037048545,-0.031444572,0.0098014325
OrientationDeg,1676593389440,30446262877026,262.0,1.0,-1.0
UncalMag,1676593389442,30446264591423,-150.914,767.62396,391.2174,-174.57417,771.0116,430.86337
UncalGyro,1676593389445,30446267118827,0.31810808,-0.43020186,0.63713247,0.0006766186,-0.0016857095,-0.0003240822
UncalAccel,1676593389449,30446271357760,-8.5938225,2.0811574,13.019348,0.037048545,-0.031444572,0.0098014325
OrientationDeg,1676593389449,30446271357760,262.0,0.0,-1.0
UncalMag,1676593389452,30446274591586,-151.6704,767.1604,390.522,-174.57417,771.0116,430.86337
UncalGyro,1676593389453,30446275597648,0.41798455,-1.8417587,0.9456194,0.0006766186,-0.0016857095,-0.0003240822
UncalAccel,1676593389457,30446279838004,0.038285162,3.4725838,9.640084,0.037048545,-0.031444572,0.0098014325
OrientationDeg,1676593389457,30446279838004,261.0,0.0,-1.0
UncalGyro,1676593389462,30446284075635,0.11881329,-2.446668,0.79626286,0.0006766186,-0.0016857095,-0.0003240822
UncalMag,1676593389462,30446284582838,-153.1588,766.66016,389.47278,-174.57417,771.0116,430.86337
UncalAccel,1676593389466,30446288321280,2.2187448,3.8446677,10.110274,0.037048545,-0.031444572,0.0098014325
OrientationDeg,1676593389466,30446288321280,261.0,-1.0,-1.0
UncalGyro,1676593389470,30446292562543,-0.30757064,-2.1470387,0.42485678,0.0006766186,-0.0016857095,-0.0003240822
UncalMag,1676593389472,30446294581007,-154.1714,767.2702,389.9974,-174.57417,771.0116,430.86337
UncalAccel,1676593389474,30446296798962,2.5351956,3.6598222,10.1084795,0.037048545,-0.031444572,0.0098014325
OrientationDeg,1676593389474,30446296798962,261.0,-2.0,-1.0
UncalGyro,1676593389479,30446301042768,-0.7965683,-1.3567317,-0.052687127,0.0006766186,-0.0016857095,-0.0003240822
UncalMag,1676593389482,30446304591546,-154.6472,767.84357,389.18,-174.57417,771.0116,430.86337
UncalAccel,1676593389483,30446305282006,2.2139592,1.3106686,9.946365,0.037048545,-0.031444572,0.0098014325
OrientationDeg,1676593389483,30446305282006,261.0,-2.0,0.0
UncalGyro,1676593389487,30446309527519,-1.3049608,-0.46013424,-0.4775439,0.0006766186,-0.0016857095,-0.0003240822
UncalAccel,1676593389491,30446313770023,1.7120646,-0.3906283,8.520244,0.037048545,-0.031444572,0.0098014325
OrientationDeg,1676593389491,30446313770023,262.0,-2.0,0.0
UncalMag,1676593389492,30446314591668,-155.245,768.35596,389.1922,-174.57417,771.0116,430.86337
UncalGyro,1676593389496,30446318006015,-2.0222695,0.45631635,-0.7469355,0.0006766186,-0.0016857095,-0.0003240822
UncalAccel,1676593389500,30446322244235,1.4279169,-2.2534406,6.962516,0.037048545,-0.031444572,0.0098014325
OrientationDeg,1676593389500,30446322244235,262.0,-2.0,1.0
UncalMag,1676593389502,30446324580601,-154.5618,769.4418,390.0462,-174.57417,771.0116,430.86337
UncalGyro,1676593389504,30446326484298,-2.785851,1.2913691,-0.8043568,0.0006766186,-0.0016857095,-0.0003240822
UncalAccel,1676593389508,30446330724429,3.6143587,-0.85902333,6.4875402,0.037048545,-0.031444572,0.0098014325
OrientationDeg,1676593389508,30446330724429,263.0,-1.0,2.0
UncalMag,1676593389512,30446334591709,-153.7444,770.8204,389.0214,-174.57417,771.0116,430.86337
UncalGyro,1676593389512,30446334964521,-2.9048169,1.8513799,-1.2318097,0.0006766186,-0.0016857095,-0.0003240822
UncalAccel,1676593389517,30446339210706,3.9870408,-0.9804591,5.989235,0.037048545,-0.031444572,0.0098014325
OrientationDeg,1676593389517,30446339210706,263.0,0.0,4.0
UncalGyro,1676593389521,30446343449131,-2.6917777,2.3090706,-1.467451,0.0006766186,-0.0016857095,-0.0003240822
UncalMag,1676593389522,30446344581293,-152.7318,772.0038,390.2536,-174.57417,771.0116,430.86337
UncalAccel,1676593389525,30446347688266,3.8584266,-0.7896315,5.791827,0.037048545,-0.031444572,0.0098014325
OrientationDeg,1676593389525,30446347688266,264.0,0.0,5.0
UncalGyro,1676593389529,30446351927962,-2.2350032,2.54685,-1.4162911,0.0006766186,-0.0016857095,-0.0003240822
UncalMag,1676593389532,30446354591344,-152.21939,773.6142,391.22958,-174.57417,771.0116,430.86337
UncalAccel,1676593389534,30446356168380,3.7064822,-0.26141587,4.6618166,0.037048545,-0.031444572,0.0098014325
OrientationDeg,1676593389534,30446356168380,265.0,1.0,6.0
UncalGyro,1676593389538,30446360410059,-1.4998269,2.30342,-1.0034989,0.0006766186,-0.0016857095,-0.0003240822
UncalMag,1676593389542,30446364591222,-150.7066,774.4316,391.38818,-174.57417,771.0116,430.86337
UncalAccel,1676593389542,30446364647221,3.7794633,0.549751,3.9230328,0.037048545,-0.031444572,0.0098014325
OrientationDeg,1676593389542,30446364647221,265.0,2.0,6.0
UncalGyro,1676593389546,30446368878555,-0.5045747,1.5621351,-0.19043724,0.0006766186,-0.0016857095,-0.0003240822
UncalAccel,1676593389551,30446373120173,3.0269206,0.11784652,4.421338,0.037048545,-0.031444572,0.0098014325
UncalMag,1676593389552,30446374580887,-150.36499,774.7976,391.5834,-174.57417,771.0116,430.86337
OrientationDeg,1676593389551,30446373120173,265.0,2.0,6.0
UncalGyro,1676593389555,30446377362491,0.4167628,0.80848014,0.43753225,0.0006766186,-0.0016857095,-0.0003240822
UncalAccel,1676593389559,30446381614598,2.714059,-1.7096717,10.399805,0.037048545,-0.031444572,0.0098014325
OrientationDeg,1676593389559,30446381614598,265.0,3.0,6.0
UncalMag,1676593389562,30446384591344,-149.5842,774.029,391.498,-174.57417,771.0116,430.86337
UncalGyro,1676593389563,30446385856349,0.93569285,0.37003163,0.44440445,0.0006766186,-0.0016857095,-0.0003240822
UncalAccel,1676593389568,30446390094274,-0.30269206,-1.8532411,7.8227353,0.037048545,-0.031444572,0.0098014325
OrientationDeg,1676593389568,30446390094274,264.0,3.0,5.0
UncalGyro,1676593389572,30446394330856,1.1340714,-0.24113905,0.18829921,0.0006766186,-0.0016857095,-0.0003240822
UncalMag,1676593389572,30446394580643,-149.9258,773.4068,391.3638,-174.57417,771.0116,430.86337
UncalAccel,1676593389576,30446398573705,-1.1210374,0.011365907,9.760324,0.037048545,-0.031444572,0.0098014325
OrientationDeg,1676593389576,30446398573705,264.0,2.0,5.0
UncalGyro,1676593389580,30446402815303,1.0656544,-0.6056729,-0.19120082,0.0006766186,-0.0016857095,-0.0003240822
UncalMag,1676593389582,30446404591304,-150.04779,773.1506,391.7908,-174.57417,771.0116,430.86337
UncalAccel,1676593389585,30446407055771,-1.2179468,1.698904,11.288141,0.037048545,-0.031444572,0.0098014325
OrientationDeg,1676593389585,30446407055771,265.0,2.0,4.0
UncalGyro,1676593389589,30446411297287,0.8541423,-0.8553641,-0.60231316,0.0006766186,-0.0016857095,-0.0003240822
UncalMag,1676593389592,30446414591467,-150.1942,772.5162,390.7904,-174.57417,771.0116,430.86337
UncalAccel,1676593389593,30446415535569,-1.0145568,2.324029,10.54158,0.037048545,-0.031444572,0.0098014325
OrientationDeg,1676593389593,30446415535569,265.0,2.0,4.0
UncalGyro,1676593389597,30446419775162,0.551764,-1.1322387,-1.0355693,0.0006766186,-0.0016857095,-0.0003240822
UncalAccel,1676593389602,30446424005214,-0.08673982,2.158326,10.028319,0.037048545,-0.031444572,0.0098014325
UncalMag,1676593389602,30446424581498,-150.5968,772.7724,391.22958,-174.57417,771.0116,430.86337
OrientationDeg,1676593389602,30446424005214,266.0,1.0,4.0
UncalGyro,1676593389606,30446428247707,0.22342396,-1.378112,-1.4184291,0.0006766186,-0.0016857095,-0.0003240822
UncalAccel,1676593389610,30446432497931,0.8069794,1.6707884,9.787841,0.037048545,-0.031444572,0.0098014325
OrientationDeg,1676593389610,30446432497931,267.0,0.0,4.0
UncalMag,1676593389612,30446434585364,-151.6216,773.0896,390.6074,-174.57417,771.0116,430.86337
UncalGyro,1676593389614,30446436739935,-0.04184427,-1.5338826,-1.6630806,0.0006766186,-0.0016857095,-0.0003240822
Fix,FLP,37.4312945000,-122.1550365000,-16.200000762939453,0.18424901,4.281,343.8952,1676593389216,,,30446038131872,1.9570854
UncalAccel,1676593389618,30446440975876,1.7306089,0.8147561,9.659825,0.037048545,-0.031444572,0.0098014325
OrientationDeg,1676593389618,30446440975876,267.0,0.0,4.0
UncalMag,1676593389622,30446444591468,-151.29219,773.2726,390.8758,-174.57417,771.0116,430.86337
UncalGyro,1676593389624,30446445221258,-0.20525073,-1.5961909,-1.7560849,0.0006766186,-0.0016857095,-0.0003240822
UncalAccel,1676593389627,30446449460089,2.5106692,0.019740786,9.530014,0.037048545,-0.031444572,0.0098014325
OrientationDeg,1676593389627,30446449460089,268.0,-1.0,4.0
UncalGyro,1676593389631,30446453703813,-0.25305092,-1.5800029,-1.7366899,0.0006766186,-0.0016857095,-0.0003240822
UncalMag,1676593389632,30446454580929,-152.2072,773.6996,391.00998,-174.57417,771.0116,430.86337
UncalAccel,1676593389635,30446457940700,2.989832,-0.37986058,9.72144,0.037048545,-0.031444572,0.0098014325
OrientationDeg,1676593389635,30446457940700,269.0,-1.0,4.0
UncalGyro,1676593389640,30446462181739,-0.22327125,-1.4398094,-1.6549866,0.0006766186,-0.0016857095,-0.0003240822
UncalMag,1676593389642,30446464591550,-153.62239,774.50476,389.6558,-174.57417,771.0116,430.86337
UncalAccel,1676593389644,30446466418515,3.185445,-0.9349955,10.150353,0.037048545,-0.031444572,0.0098014325
OrientationDeg,1676593389644,30446466418515,270.0,-2.0,4.0
UncalGyro,1676593389648,30446470663490,-0.16157386,-1.1713341,-1.5030339,0.0006766186,-0.0016857095,-0.0003240822
UncalMag,1676593389652,30446474591265,-153.8298,774.4804,389.302,-174.57417,771.0116,430.86337
UncalAccel,1676593389652,30446474900388,3.2009985,-1.6253247,10.521241,0.037048545,-0.031444572,0.0098014325
OrientationDeg,1676593389652,30446474900388,271.0,-3.0,4.0
UncalGyro,1676593389657,30446479139024,-0.11209377,-0.8568912,-1.2913691,0.0006766186,-0.0016857095,-0.0003240822
UncalAccel,1676593389661,30446483397468,3.126821,-1.922633,10.40818,0.037048545,-0.031444572,0.0098014325
OrientationDeg,1676593389661,30446483397468,271.0,-3.0,4.0
UncalMag,1676593389662,30446484581622,-153.9518,774.2242,389.485,-174.57417,771.0116,430.86337
UncalGyro,1676593389665,30446487625363,-0.106901415,-0.5876524,-1.0545062,0.0006766186,-0.0016857095,-0.0003240822
UncalAccel,1676593389669,30446491867449,2.9042885,-1.9519451,10.1395855,0.037048545,-0.031444572,0.0098014325
OrientationDeg,1676593389669,30446491867449,272.0,-3.0,4.0
UncalMag,1676593389672,30446494591347,-154.7936,775.859,389.4118,-174.57417,771.0116,430.86337
UncalGyro,1676593389674,30446496103076,-0.13988814,-0.40332377,-0.8248208,0.0006766186,-0.0016857095,-0.0003240822
UncalAccel,1676593389678,30446500344826,2.545365,-1.7096717,9.973883,0.037048545,-0.031444572,0.0098014325
OrientationDeg,1676593389678,30446500344826,272.0,-4.0,4.0
UncalGyro,1676593389682,30446504582121,-0.1873829,-0.28695396,-0.63239825,0.0006766186,-0.0016857095,-0.0003240822
UncalMag,1676593389682,30446504599201,-155.2084,775.92,388.58218,-174.57417,771.0116,430.86337
UncalAccel,1676593389686,30446508827481,2.1379871,-1.2759727,9.825528,0.037048545,-0.031444572,0.0098014325
OrientationDeg,1676593389686,30446508827481,272.0,-4.0,4.0
UncalGyro,1676593389691,30446513069670,-0.23426682,-0.21578814,-0.50442195,0.0006766186,-0.0016857095,-0.0003240822
UncalMag,1676593389692,30446514591307,-155.00099,775.9566,389.5582,-174.57417,771.0116,430.86337
UncalAccel,1676593389695,30446517309740,1.7240287,-0.80937225,9.787243,0.037048545,-0.031444572,0.0098014325
OrientationDeg,1676593389695,30446517309740,272.0,-4.0,4.0
UncalGyro,1676593389699,30446521549935,-0.2669481,-0.17669277,-0.44822237,0.0006766186,-0.0016857095,-0.0003240822
UncalMag,1676593389702,30446524591429,-155.5134,776.1152,389.363,-174.57417,771.0116,430.86337
UncalAccel,1676593389703,30446525785785,1.3052847,-0.4001996,9.839885,0.037048545,-0.031444572,0.0098014325
OrientationDeg,1676593389703,30446525785785,273.0,-4.0,4.0
UncalGyro,1676593389708,30446530030730,-0.2855795,-0.15378532,-0.44700065,0.0006766186,-0.0016857095,-0.0003240822
UncalAccel,1676593389712,30446534269896,0.9984053,-0.25842485,9.856635,0.037048545,-0.031444572,0.0098014325
OrientationDeg,1676593389712,30446534269896,273.0,-4.0,5.0
UncalMag,1676593389712,30446534576252,-155.6476,775.57837,389.363,-174.57417,771.0116,430.86337
UncalGyro,1676593389716,30446538512236,-0.30298916,-0.12904528,-0.48930305,0.0006766186,-0.0016857095,-0.0003240822
UncalAccel,1676593389720,30446542751229,0.91346,-0.2632105,9.693324,0.037048545,-0.031444572,0.0098014325
OrientationDeg,1676593389720,30446542751229,273.0,-4.0,5.0
UncalMag,1676593389722,30446544591430,-155.672,776.7862,388.67978,-174.57417,771.0116,430.86337
UncalGyro,1676593389725,30446546993610,-0.32635477,-0.12110403,-0.5719226,0.0006766186,-0.0016857095,-0.0003240822
UncalAccel,1676593389729,30446551232156,0.8673982,-0.3930211,9.57488,0.037048545,-0.031444572,0.0098014325
OrientationDeg,1676593389729,30446551232156,273.0,-4.0,5.0
UncalMag,1676593389732,30446554591471,-155.367,776.7984,389.0458,-174.57417,771.0116,430.86337
UncalGyro,1676593389733,30446555473672,-0.33124167,-0.17027868,-0.6589709,0.0006766186,-0.0016857095,-0.0003240822
UncalAccel,1676593389737,30446559712858,0.8787641,-0.63230336,9.485149,0.037048545,-0.031444572,0.0098014325
OrientationDeg,1676593389737,30446559712858,274.0,-4.0,5.0
UncalGyro,1676593389741,30446563954803,-0.31795537,-0.24327709,-0.7246389,0.0006766186,-0.0016857095,-0.0003240822
UncalMag,1676593389742,30446564588745,-155.9648,777.15216,389.7534,-174.57417,771.0116,430.86337
UncalAccel,1676593389746,30446568192351,0.951147,-0.9385847,9.635299,0.037048545,-0.031444572,0.0098014325
OrientationDeg,1676593389746,30446568192351,274.0,-5.0,5.0
UncalGyro,1676593389750,30446572426849,-0.2848159,-0.31902438,-0.7651087,0.0006766186,-0.0016857095,-0.0003240822
UncalMag,1676593389752,30446574591349,-156.2576,777.56696,389.1312,-174.57417,771.0116,430.86337
UncalAccel,1676593389754,30446576670258,1.1060823,-1.3256238,9.628718,0.037048545,-0.031444572,0.0098014325
OrientationDeg,1676593389754,30446576670258,275.0,-5.0,5.0
UncalGyro,1676593389758,30446580917907,-0.2284636,-0.3857614,-0.7698429,0.0006766186,-0.0016857095,-0.0003240822
UncalMag,1676593389762,30446584591309,-156.4406,777.9818,388.509,-174.57417,771.0116,430.86337
UncalAccel,1676593389763,30446585158579,1.2777673,-1.6121643,9.888938,0.037048545,-0.031444572,0.0098014325
OrientationDeg,1676593389763,30446585158579,275.0,-5.0,5.0
UncalGyro,1676593389767,30446589399362,-0.16600263,-0.4118759,-0.7463246,0.0006766186,-0.0016857095,-0.0003240822
UncalAccel,1676593389771,30446593633728,1.387239,-1.8610178,10.191629,0.037048545,-0.031444572,0.0098014325
OrientationDeg,1676593389771,30446593633728,275.0,-5.0,5.0
UncalMag,1676593389772,30446594581014,-156.221,778.055,387.78918,-174.57417,771.0116,430.86337
UncalGyro,1676593389775,30446597878905,-0.09666943,-0.41126502,-0.6954701,0.0006766186,-0.0016857095,-0.0003240822
UncalAccel,1676593389780,30446602118245,1.4344971,-2.009971,10.340583,0.037048545,-0.031444572,0.0098014325
OrientationDeg,1676593389780,30446602118245,276.0,-6.0,5.0
UncalMag,1676593389782,30446604591513,-156.6602,777.811,388.5944,-174.57417,771.0116,430.86337
UncalGyro,1676593389784,30446606360809,-0.020616703,-0.3950771,-0.6189592,0.0006766186,-0.0016857095,-0.0003240822
UncalAccel,1676593389788,30446610599660,1.5816557,-1.9704895,10.503295,0.037048545,-0.031444572,0.0098014325
OrientationDeg,1676593389788,30446610599660,276.0,-6.0,5.0
UncalMag,1676593389792,30446614591431,-156.9774,777.628,388.67978,-174.57417,771.0116,430.86337
UncalGyro,1676593389792,30446614840139,0.04184427,-0.33490688,-0.5308419,0.0006766186,-0.0016857095,-0.0003240822
UncalAccel,1676593389797,30446619072419,1.655235,-1.7934206,10.750952,0.037048545,-0.031444572,0.0098014325
OrientationDeg,1676593389797,30446619072419,276.0,-6.0,5.0
UncalGyro,1676593389801,30446623323345,0.08231409,-0.23579398,-0.45081854,0.0006766186,-0.0016857095,-0.0003240822
UncalMag,1676593389802,30446624580608,-157.2458,778.3966,388.26498,-174.57417,771.0116,430.86337
UncalAccel,1676593389805,30446627567058,1.5858432,-1.6743777,10.993824,0.037048545,-0.031444572,0.0098014325
OrientationDeg,1676593389805,30446627567058,276.0,-6.0,5.0
UncalGyro,1676593389809,30446631804973,0.094225965,-0.12797627,-0.38774672,0.0006766186,-0.0016857095,-0.0003240822
UncalMag,1676593389812,30446634583579,-157.35559,778.3966,388.26498,-174.57417,771.0116,430.86337
UncalAccel,1676593389814,30446636042736,1.4650056,-1.5990037,11.121242,0.037048545,-0.031444572,0.0098014325
OrientationDeg,1676593389814,30446636042736,277.0,-6.0,5.0
UncalGyro,1676593389818,30446640282705,0.071776666,-0.03863723,-0.34300083,0.0006766186,-0.0016857095,-0.0003240822
UncalAccel,1676593389822,30446644523978,1.3483555,-1.5182459,11.258829,0.037048545,-0.031444572,0.0098014325
UncalMag,1676593389822,30446644588218,-157.2458,778.4088,388.753,-174.57417,771.0116,430.86337
OrientationDeg,1676593389822,30446644523978,277.0,-6.0,5.0
UncalGyro,1676593389826,30446648765168,0.013133603,0.039095376,-0.31535918,0.0006766186,-0.0016857095,-0.0003240822
UncalAccel,1676593389831,30446653000703,1.2765709,-1.480559,11.286346,0.037048545,-0.031444572,0.0098014325
OrientationDeg,1676593389831,30446653000703,277.0,-6.0,5.0
UncalMag,1676593389832,30446654580772,-157.2458,778.4088,388.753,-174.57417,771.0116,430.86337
UncalGyro,1676593389835,30446657243786,-0.0729984,0.09437868,-0.30207285,0.0006766186,-0.0016857095,-0.0003240822
UncalAccel,1676593389839,30446661485414,1.2436695,-1.5092729,11.2343025,0.037048545,-0.031444572,0.0098014325
OrientationDeg,1676593389839,30446661485414,277.0,-6.0,5.0
UncalMag,1676593389842,30446664591514,-157.4532,778.5064,389.1434,-174.57417,771.0116,430.86337
UncalGyro,1676593389843,30446665727887,-0.16829337,0.12064589,-0.29336804,0.0006766186,-0.0016857095,-0.0003240822
UncalAccel,1676593389847,30446669967307,1.2352947,-1.5954145,11.139188,0.037048545,-0.031444572,0.0098014325
OrientationDeg,1676593389847,30446669967307,277.0,-6.0,5.0
UncalGyro,1676593389852,30446674208243,-0.25579983,0.123242065,-0.2750421,0.0006766186,-0.0016857095,-0.0003240822
UncalMag,1676593389852,30446674575767,-157.51419,779.26276,388.10638,-174.57417,771.0116,430.86337
UncalAccel,1676593389856,30446678447928,1.2699906,-1.7150556,11.0016,0.037048545,-0.031444572,0.0098014325
UncalGyro,1676593389860,30446682689923,-0.31658092,0.11377365,-0.23808473,0.0006766186,-0.0016857095,-0.0003240822
OrientationDeg,1676593389856,30446678447928,277.0,-6.0,5.0
UncalMag,1676593389862,30446684591352,-157.51419,779.26276,388.10638,-174.57417,771.0116,430.86337
UncalAccel,1676593389864,30446686928539,1.3298112,-1.8484555,10.825727,0.037048545,-0.031444572,0.0098014325
OrientationDeg,1676593389864,30446686928539,277.0,-6.0,5.0
UncalGyro,1676593389869,30446691170270,-0.33429602,0.09789115,-0.17806722,0.0006766186,-0.0016857095,-0.0003240822
UncalMag,1676593389872,30446694591311,-157.4166,779.0798,388.0698,-174.57417,771.0116,430.86337
UncalAccel,1676593389873,30446695409538,1.43689,-1.9238294,10.631311,0.037048545,-0.031444572,0.0098014325
OrientationDeg,1676593389873,30446695409538,277.0,-6.0,6.0
UncalGyro,1676593389877,30446699651430,-0.31031954,0.08827003,-0.098043874,0.0006766186,-0.0016857095,-0.0003240822
UncalAccel,1676593389881,30446703890871,1.5529419,-1.9375881,10.455439,0.037048545,-0.031444572,0.0098014325
OrientationDeg,1676593389881,30446703890871,278.0,-6.0,6.0
UncalMag,1676593389882,30446704595584,-156.8554,779.6044,387.8136,-174.57417,771.0116,430.86337
UncalGyro,1676593389886,30446708132377,-0.24953845,0.08750644,-0.0125227375,0.0006766186,-0.0016857095,-0.0003240822
UncalAccel,1676593389890,30446712370384,1.6211374,-1.8981066,10.278968,0.037048545,-0.031444572,0.0098014325
OrientationDeg,1676593389890,30446712370384,278.0,-6.0,6.0
UncalMag,1676593389892,30446714591434,-157.2092,779.1286,389.2776,-174.57417,771.0116,430.86337
UncalGyro,1676593389894,30446716607639,-0.16279559,0.08857546,0.06918049,0.0006766186,-0.0016857095,-0.0003240822
UncalAccel,1676593389898,30446720853081,1.6360924,-1.7826529,10.063614,0.037048545,-0.031444572,0.0098014325
OrientationDeg,1676593389898,30446720853081,277.0,-6.0,6.0
UncalMag,1676593389902,30446724580000,-157.0872,779.4702,389.119,-174.57417,771.0116,430.86337
UncalGyro,1676593389903,30446725093296,-0.06490443,0.09285152,0.14828753,0.0006766186,-0.0016857095,-0.0003240822
UncalAccel,1676593389907,30446729324323,1.6133606,-1.6199409,9.838689,0.037048545,-0.031444572,0.0098014325
OrientationDeg,1676593389907,30446729324323,277.0,-6.0,6.0
UncalGyro,1676593389911,30446733566023,0.025961773,0.09819659,0.2209805,0.0006766186,-0.0016857095,-0.0003240822
UncalMag,1676593389912,30446734578373,-156.87979,779.2872,388.58218,-174.57417,771.0116,430.86337
UncalAccel,1676593389915,30446737814344,1.6037893,-1.3704891,9.655638,0.037048545,-0.031444572,0.0098014325
OrientationDeg,1676593389915,30446737814344,277.0,-6.0,6.0
UncalGyro,1676593389920,30446742058414,0.09621128,0.09132435,0.2680171,0.0006766186,-0.0016857095,-0.0003240822
UncalMag,1676593389922,30446744579716,-156.7944,779.031,388.7652,-174.57417,771.0116,430.86337
UncalAccel,1676593389924,30446746296034,1.5738791,-1.006182,9.548559,0.037048545,-0.031444572,0.0098014325
OrientationDeg,1676593389924,30446746296034,277.0,-6.0,6.0
UncalGyro,1676593389928,30446750528903,0.14935656,0.07162395,0.27275133,0.0006766186,-0.0016857095,-0.0003240822
UncalMag,1676593389932,30446754591313,-156.709,778.6772,388.4358,-174.57417,771.0116,430.86337
UncalAccel,1676593389932,30446754779931,1.4685949,-0.7286145,9.403194,0.037048545,-0.031444572,0.0098014325
OrientationDeg,1676593389932,30446754779931,277.0,-6.0,6.0
UncalGyro,1676593389937,30446759030317,0.19394971,0.034972034,0.24785857,0.0006766186,-0.0016857095,-0.0003240822
UncalAccel,1676593389941,30446763260054,1.3489537,-0.5665008,9.244072,0.037048545,-0.031444572,0.0098014325
OrientationDeg,1676593389941,30446763260054,277.0,-6.0,6.0
UncalMag,1676593389942,30446764580693,-156.6968,778.9334,388.3748,-174.57417,771.0116,430.86337
UncalGyro,1676593389945,30446767501469,0.22785273,-0.017256944,0.21013765,0.0006766186,-0.0016857095,-0.0003240822
UncalAccel,1676593389949,30446771744389,1.3160524,-0.47078785,9.153145,0.037048545,-0.031444572,0.0098014325
OrientationDeg,1676593389949,30446771744389,277.0,-6.0,6.0
UncalMag,1676593389952,30446774591395,-157.01399,778.73816,387.8502,-174.57417,771.0116,430.86337
UncalGyro,1676593389953,30446775980666,0.2490803,-0.08933904,0.16401732,0.0006766186,-0.0016857095,-0.0003240822
UncalAccel,1676593389958,30446780219477,1.3447664,-0.4755735,9.110074,0.037048545,-0.031444572,0.0098014325
OrientationDeg,1676593389958,30446780219477,277.0,-6.0,5.0
UncalGyro,1676593389962,30446784457372,0.2574797,-0.17012598,0.120493166,0.0006766186,-0.0016857095,-0.0003240822
