# 
# Header Description:
# 
# Version: v3.0.5.6 Platform: 13 Manufacturer: Google Model: Pixel 7
# 
# Raw,utcTimeMillis,TimeNanos,LeapSecond,TimeUncertaintyNanos,FullBiasNanos,BiasNanos,BiasUncertaintyNanos,DriftNanosPerSecond,DriftUncertaintyNanosPerSecond,HardwareClockDiscontinuityCount,Svid,TimeOffsetNanos,State,ReceivedSvTimeNanos,ReceivedSvTimeUncertaintyNanos,Cn0DbHz,PseudorangeRateMetersPerSecond,PseudorangeRateUncertaintyMetersPerSecond,AccumulatedDeltaRangeState,AccumulatedDeltaRangeMeters,AccumulatedDeltaRangeUncertaintyMeters,CarrierFrequencyHz,CarrierCycles,CarrierPhase,CarrierPhaseUncertainty,MultipathIndicator,SnrInDb,ConstellationType,AgcDb,BasebandCn0DbHz,FullInterSignalBiasNanos,FullInterSignalBiasUncertaintyNanos,SatelliteInterSignalBiasNanos,SatelliteInterSignalBiasUncertaintyNanos,CodeType,ChipsetElapsedRealtimeNanos
# 
# UncalAccel,utcTimeMillis,elapsedRealtimeNanos,UncalAccelXMps2,UncalAccelYMps2,UncalAccelZMps2,BiasXMps2,BiasYMps2,BiasZMps2
# 
# Accel,utcTimeMillis,elapsedRealtimeNanos,AccelXMps2,AccelYMps2,AccelZMps2
# 
# UncalGyro,utcTimeMillis,elapsedRealtimeNanos,UncalGyroXRadPerSec,UncalGyroYRadPerSec,UncalGyroZRadPerSec,DriftXRadPerSec,DriftYRadPerSec,DriftZRadPerSec
# 
# Gyro,utcTimeMillis,elapsedRealtimeNanos,GyroXRadPerSec,GyroYRadPerSec,GyroZRadPerSec
# 
# UncalMag,utcTimeMillis,elapsedRealtimeNanos,UncalMagXMicroT,UncalMagYMicroT,UncalMagZMicroT,BiasXMicroT,BiasYMicroT,BiasZMicroT
# 
# Mag,utcTimeMillis,elapsedRealtimeNanos,MagXMicroT,MagYMicroT,MagZMicroT
# 
# OrientationDeg,utcTimeMillis,elapsedRealtimeNanos,yawDeg,rollDeg,pitchDeg
# 
# Fix,Provider,LatitudeDegrees,LongitudeDegrees,AltitudeMeters,SpeedMps,AccuracyMeters,BearingDegrees,UnixTimeMillis,SpeedAccuracyMps,BearingAccuracyDegrees,elapsedRealtimeNanos,VerticalAccuracyMeters
# 
# Nav,Svid,Type,Status,MessageId,Sub-messageId,Data(Bytes)
# 
# Status,UnixTimeMillis,SignalCount,SignalIndex,ConstellationType,Svid,CarrierFrequencyHz,Cn0DbHz,AzimuthDegrees,ElevationDegrees,UsedInFix,HasAlmanacData,HasEphemerisData,BasebandCn0DbHz
# 
UncalGyro,1676594983717,32040539202884,-0.23533584,-0.47861293,-0.10445796,-0.00035909755,-0.0017173546,-0.00032498047
UncalAccel,1676594983717,32040539202884,-3.7208393,1.995614,10.510473,0.037048545,-0.031444572,0.0098014325
UncalGyro,1676594983725,32040547673963,-0.07544186,-0.45249844,-0.105068825,-0.00035909755,-0.0017173546,-0.00032498047
UncalGyro,1676594983734,32040556153721,0.07360926,-0.44990227,-0.10522154,-0.00035909755,-0.0017173546,-0.00032498047
UncalAccel,1676594983725,32040547673963,-3.673581,1.8909281,9.986445,0.037048545,-0.031444572,0.0098014325
UncalAccel,1676594983734,32040556153721,-3.7387853,1.8861425,9.756734,0.037048545,-0.031444572,0.0098014325
UncalMag,1676594983719,32040541409753,-170.9952,745.0906,394.0722,-177.00775,769.7961,430.15182
UncalMag,1676594983729,32040551409753,-171.7394,744.84656,394.87738,-177.00775,769.7961,430.15182
UncalGyro,1676594983742,32040564634322,0.19868392,-0.44318274,-0.10293079,-0.00035909755,-0.0017173546,-0.00032498047
UncalAccel,1676594983742,32040564634322,-3.7758741,1.9872392,9.54138,0.037048545,-0.031444572,0.0098014325
Fix,FLP,37.4311332000,-122.1551485000,-16.100000381469727,0.49607947,8.833,180.87749,1676594983011,0.115820356,55.543747,32039833604000,2.6086578
UncalMag,1676594983739,32040561404667,-171.5076,745.2614,394.3772,-177.00775,769.7961,430.15182
UncalMag,1676594983750,32040571409917,-171.9346,745.16376,394.121,-177.00775,769.7961,430.15182
UncalGyro,1676594983751,32040573114638,0.28680122,-0.43860126,-0.10842858,-0.00035909755,-0.0017173546,-0.00032498047
UncalAccel,1676594983751,32040573114638,-3.7453656,2.0787647,9.192626,0.037048545,-0.031444572,0.0098014325
OrientationDeg,1676594983751,32040573114638,150.0,21.0,-9.0
UncalGyro,1676594983759,32040581598413,0.33765575,-0.44700065,-0.12797627,-0.00035909755,-0.0017173546,-0.00032498047
UncalAccel,1676594983759,32040581598413,-3.6951163,2.0889342,8.873184,0.037048545,-0.031444572,0.0098014325
UncalMag,1676594983759,32040581410486,-172.0688,744.65137,394.60898,-177.00775,769.7961,430.15182
OrientationDeg,1676594983759,32040581598413,150.0,21.0,-9.0
UncalGyro,1676594983768,32040590076044,0.3539964,-0.46471575,-0.15500705,-0.00035909755,-0.0017173546,-0.00032498047
UncalAccel,1676594983768,32040590076044,-3.6693935,2.094318,8.610572,0.037048545,-0.031444572,0.0098014325
OrientationDeg,1676594983768,32040590076044,150.0,21.0,-9.0
UncalMag,1676594983769,32040591414189,-172.7032,744.566,394.9628,-177.00775,769.7961,430.15182
UncalGyro,1676594983776,32040598555099,0.34590244,-0.49312097,-0.18387043,-0.00035909755,-0.0017173546,-0.00032498047
UncalAccel,1676594983776,32040598555099,-3.6340995,2.0805593,8.396415,0.037048545,-0.031444572,0.0098014325
OrientationDeg,1676594983776,32040598555099,150.0,21.0,-9.0
UncalMag,1676594983779,32040601409958,-172.60559,744.4806,395.1824,-177.00775,769.7961,430.15182
UncalGyro,1676594983785,32040607038070,0.32421672,-0.5204572,-0.21227567,-0.00035909755,-0.0017173546,-0.00032498047
UncalAccel,1676594983785,32040607038070,-3.5706897,2.047658,8.2965145,0.037048545,-0.031444572,0.0098014325
OrientationDeg,1676594983785,32040607038070,151.0,20.0,-9.0
UncalMag,1676594983789,32040611412522,-172.60559,744.4806,395.1824,-177.00775,769.7961,430.15182
UncalGyro,1676594983793,32040615518560,0.29428434,-0.54504454,-0.23884831,-0.00035909755,-0.0017173546,-0.00032498047
UncalAccel,1676594983793,32040615518560,-3.5084763,2.07697,8.2348995,0.037048545,-0.031444572,0.0098014325
OrientationDeg,1676594983793,32040615518560,151.0,20.0,-9.0
UncalMag,1676594983799,32040621411505,-172.2762,744.5782,395.0726,-177.00775,769.7961,430.15182
UncalGyro,1676594983801,32040623998886,0.26160303,-0.5708536,-0.26648995,-0.00035909755,-0.0017173546,-0.00032498047
UncalAccel,1676594983801,32040623998886,-3.4654055,2.1014965,8.196614,0.037048545,-0.031444572,0.0098014325
OrientationDeg,1676594983801,32040623998886,151.0,20.0,-10.0
UncalMag,1676594983809,32040631411301,-172.8008,744.5538,394.8408,-177.00775,769.7961,430.15182
UncalGyro,1676594983810,32040632480840,0.22815818,-0.591623,-0.2939789,-0.00035909755,-0.0017173546,-0.00032498047
UncalAccel,1676594983810,32040632480840,-3.4504502,2.0775683,8.197212,0.037048545,-0.031444572,0.0098014325
OrientationDeg,1676594983810,32040632480840,151.0,20.0,-10.0
UncalGyro,1676594983818,32040640961422,0.19165897,-0.6072,-0.31948254,-0.00035909755,-0.0017173546,-0.00032498047
UncalAccel,1676594983818,32040640961422,-3.3786657,2.0111675,8.19781,0.037048545,-0.031444572,0.0098014325
UncalMag,1676594983819,32040641412360,-173.23999,744.3952,395.41418,-177.00775,769.7961,430.15182
OrientationDeg,1676594983818,32040640961422,151.0,19.0,-10.0
UncalGyro,1676594983827,32040649444861,0.15103643,-0.61682117,-0.34101552,-0.00035909755,-0.0017173546,-0.00032498047
UncalAccel,1676594983827,32040649444861,-3.2973096,1.9680966,8.251051,0.037048545,-0.031444572,0.0098014325
UncalMag,1676594983829,32040651409552,-173.53279,744.54156,394.853,-177.00775,769.7961,430.15182
OrientationDeg,1676594983827,32040649444861,151.0,19.0,-10.0
UncalGyro,1676594983835,32040657921535,0.10705414,-0.6186538,-0.35506544,-0.00035909755,-0.0017173546,-0.00032498047
UncalAccel,1676594983835,32040657921535,-3.2213376,1.9495523,8.328219,0.037048545,-0.031444572,0.0098014325
UncalMag,1676594983839,32040661402188,-172.813,744.3708,394.56018,-177.00775,769.7961,430.15182
OrientationDeg,1676594983835,32040657921535,152.0,19.0,-10.0
UncalGyro,1676594983844,32040666401110,0.0627664,-0.6082691,-0.35964692,-0.00035909755,-0.0017173546,-0.00032498047
UncalAccel,1676594983844,32040666401110,-3.1166515,1.9166509,8.414959,0.037048545,-0.031444572,0.0098014325
OrientationDeg,1676594983844,32040666401110,152.0,19.0,-10.0
UncalMag,1676594983849,32040671409919,-173.4596,744.11456,394.87738,-177.00775,769.7961,430.15182
UncalGyro,1676594983852,32040674883826,0.023060163,-0.5850562,-0.35537085,-0.00035909755,-0.0017173546,-0.00032498047
UncalAccel,1676594983852,32040674883826,-3.068795,1.8496519,8.486744,0.037048545,-0.031444572,0.0098014325
OrientationDeg,1676594983852,32040674883826,152.0,18.0,-10.0
UncalMag,1676594983859,32040681411872,-173.66699,744.2,395.2678,-177.00775,769.7961,430.15182
UncalGyro,1676594983861,32040683365517,-0.00076358154,-0.54993147,-0.34009922,-0.00035909755,-0.0017173546,-0.00032498047
UncalAccel,1676594983861,32040683365517,-3.0161529,1.753939,8.502297,0.037048545,-0.031444572,0.0098014325
OrientationDeg,1676594983861,32040683365517,152.0,18.0,-10.0
UncalMag,1676594983869,32040691413785,-173.8622,744.2854,395.1702,-177.00775,769.7961,430.15182
UncalGyro,1676594983869,32040691846016,-0.005497787,-0.5145013,-0.31627548,-0.00035909755,-0.0017173546,-0.00032498047
UncalAccel,1676594983869,32040691846016,-3.0442686,1.6630118,8.507083,0.037048545,-0.031444572,0.0098014325
OrientationDeg,1676594983869,32040691846016,152.0,18.0,-10.0
UncalGyro,1676594983878,32040700322995,0.0047342055,-0.48609602,-0.28970283,-0.00035909755,-0.0017173546,-0.00032498047
UncalAccel,1676594983878,32040700322995,-3.1399815,1.614557,8.52144,0.037048545,-0.031444572,0.0098014325
OrientationDeg,1676594983878,32040700322995,152.0,18.0,-9.0
UncalMag,1676594983879,32040701410083,-174.30139,743.9926,394.4992,-177.00775,769.7961,430.15182
UncalGyro,1676594983886,32040708806648,0.029626964,-0.46563202,-0.26816985,-0.00035909755,-0.0017173546,-0.00032498047
UncalAccel,1676594983886,32040708806648,-3.2685957,1.5798612,8.525029,0.037048545,-0.031444572,0.0098014325
OrientationDeg,1676594983886,32040708806648,153.0,17.0,-9.0
UncalMag,1676594983889,32040711410368,-174.19159,744.10236,395.25558,-177.00775,769.7961,430.15182
UncalGyro,1676594983895,32040717285102,0.054061573,-0.45814893,-0.25350907,-0.00035909755,-0.0017173546,-0.00032498047
UncalAccel,1676594983896,32040717285102,-3.4169507,1.564906,8.548359,0.037048545,-0.031444572,0.0098014325
OrientationDeg,1676594983895,32040717285102,153.0,17.0,-9.0
UncalMag,1676594983899,32040721412240,-174.0574,744.63916,395.4996,-177.00775,769.7961,430.15182
UncalGyro,1676594983903,32040725764687,0.07192938,-0.45555276,-0.2452624,-0.00035909755,-0.0017173546,-0.00032498047
UncalAccel,1676594983903,32040725764687,-3.5563326,1.544567,8.642876,0.037048545,-0.031444572,0.0098014325
OrientationDeg,1676594983903,32040725764687,153.0,17.0,-9.0
UncalMag,1676594983909,32040731410002,-173.789,743.9438,395.3288,-177.00775,769.7961,430.15182
UncalGyro,1676594983912,32040734248981,0.08353582,-0.45341474,-0.24449882,-0.00035909755,-0.0017173546,-0.00032498047
UncalAccel,1676594983912,32040734248981,-3.690929,1.524228,8.703893,0.037048545,-0.031444572,0.0098014325
OrientationDeg,1676594983912,32040734248981,153.0,17.0,-9.0
UncalMag,1676594983919,32040741411345,-174.48439,744.3586,394.9506,-177.00775,769.7961,430.15182
UncalGyro,1676594983920,32040742730314,0.094225965,-0.45769078,-0.24938573,-0.00035909755,-0.0017173546,-0.00032498047
UncalAccel,1676594983920,32040742730314,-3.824927,1.4997016,8.732008,0.037048545,-0.031444572,0.0098014325
OrientationDeg,1676594983920,32040742730314,153.0,17.0,-9.0
UncalGyro,1676594983929,32040751207019,0.10445796,-0.4654793,-0.25381452,-0.00035909755,-0.0017173546,-0.00032498047
UncalAccel,1676594983929,32040751207019,-3.9110687,1.4703895,8.803194,0.037048545,-0.031444572,0.0098014325
UncalMag,1676594983929,32040751407154,-174.4966,744.1878,395.158,-177.00775,769.7961,430.15182
OrientationDeg,1676594983929,32040751207019,153.0,17.0,-9.0
UncalGyro,1676594983937,32040759683104,0.11804971,-0.48059824,-0.25992316,-0.00035909755,-0.0017173546,-0.00032498047
UncalAccel,1676594983937,32040759683104,-3.9541395,1.4267205,8.827123,0.037048545,-0.031444572,0.0098014325
UncalMag,1676594983939,32040761409555,-174.7162,744.10236,395.3898,-177.00775,769.7961,430.15182
OrientationDeg,1676594983937,32040759683104,153.0,16.0,-9.0
UncalGyro,1676594983946,32040768170225,0.13332134,-0.5035057,-0.26160303,-0.00035909755,-0.0017173546,-0.00032498047
UncalAccel,1676594983947,32040768170225,-3.982255,1.3884354,8.803194,0.037048545,-0.031444572,0.0098014325
OrientationDeg,1676594983946,32040768170225,154.0,16.0,-9.0
UncalMag,1676594983949,32040771410084,-174.1062,743.7608,395.41418,-177.00775,769.7961,430.15182
UncalGyro,1676594983954,32040776639840,0.14630222,-0.5325218,-0.25961772,-0.00035909755,-0.0017173546,-0.00032498047
UncalAccel,1676594983954,32040776639840,-3.9870408,1.3597214,8.822337,0.037048545,-0.031444572,0.0098014325
OrientationDeg,1676594983954,32040776639840,154.0,16.0,-10.0
UncalMag,1676594983959,32040781409637,-174.7406,743.651,394.792,-177.00775,769.7961,430.15182
UncalGyro,1676594983963,32040785134368,0.15470162,-0.5529858,-0.25717425,-0.00035909755,-0.0017173546,-0.00032498047
UncalAccel,1676594983963,32040785134368,-3.9451663,1.3836497,8.908479,0.037048545,-0.031444572,0.0098014325
OrientationDeg,1676594983963,32040785134368,154.0,16.0,-10.0
UncalMag,1676594983969,32040791411834,-174.9236,743.9926,394.87738,-177.00775,769.7961,430.15182
UncalGyro,1676594983971,32040793611399,0.15683965,-0.5665775,-0.25778514,-0.00035909755,-0.0017173546,-0.00032498047
UncalAccel,1676594983971,32040793611399,-3.9361932,1.4219348,9.003593,0.037048545,-0.031444572,0.0098014325
OrientationDeg,1676594983971,32040793611399,154.0,15.0,-10.0
UncalMag,1676594983979,32040801409963,-175.0212,744.1756,395.0482,-177.00775,769.7961,430.15182
UncalGyro,1676594983980,32040802090982,0.1553125,-0.5874997,-0.26282477,-0.00035909755,-0.0017173546,-0.00032498047
UncalAccel,1676594983980,32040802090982,-3.9463627,1.430908,9.041879,0.037048545,-0.031444572,0.0098014325
OrientationDeg,1676594983980,32040802090982,154.0,15.0,-10.0
UncalGyro,1676594983988,32040810570577,0.15714508,-0.6178902,-0.26908615,-0.00035909755,-0.0017173546,-0.00032498047
UncalAccel,1676594983988,32040810570577,-3.9756749,1.4691931,9.084352,0.037048545,-0.031444572,0.0098014325
UncalMag,1676594983989,32040811409678,-175.4482,744.01697,395.8656,-177.00775,769.7961,430.15182
OrientationDeg,1676594983988,32040810570577,154.0,15.0,-10.0
UncalGyro,1676594983997,32040819059865,0.16340645,-0.6601926,-0.27580565,-0.00035909755,-0.0017173546,-0.00032498047
UncalAccel,1676594983997,32040819059865,-3.9810586,1.5361922,9.113065,0.037048545,-0.031444572,0.0098014325
OrientationDeg,1676594983997,32040819059865,154.0,15.0,-10.0
UncalMag,1676594983999,32040821411713,-175.7654,744.0658,395.03598,-177.00775,769.7961,430.15182
UncalGyro,1676594984005,32040827531941,0.17684549,-0.7144069,-0.29642236,-0.00035909755,-0.0017173546,-0.00032498047
UncalAccel,1676594984005,32040827531941,-4.115655,1.6504494,9.178269,0.037048545,-0.031444572,0.0098014325
OrientationDeg,1676594984005,32040827531941,155.0,14.0,-10.0
UncalMag,1676594984009,32040831412853,-175.1676,743.58997,395.9998,-177.00775,769.7961,430.15182
UncalGyro,1676594984014,32040836011771,0.19486602,-0.7609854,-0.34437528,-0.00035909755,-0.0017173546,-0.00032498047
UncalAccel,1676594984015,32040836011771,-4.284349,1.8550358,9.190233,0.037048545,-0.031444572,0.0098014325
OrientationDeg,1676594984014,32040836011771,155.0,14.0,-10.0
UncalMag,1676594984019,32040841409842,-175.375,743.6632,395.5362,-177.00775,769.7961,430.15182
UncalGyro,1676594984022,32040844494701,0.21685717,-0.83108217,-0.3848451,-0.00035909755,-0.0017173546,-0.00032498047
UncalAccel,1676594984022,32040844494701,-4.174279,1.9232312,9.085547,0.037048545,-0.031444572,0.0098014325
OrientationDeg,1676594984022,32040844494701,155.0,14.0,-10.0
UncalMag,1676594984029,32040851411104,-175.9118,743.38257,395.3654,-177.00775,769.7961,430.15182
UncalGyro,1676594984030,32040852977347,0.22739458,-0.92927873,-0.41126502,-0.00035909755,-0.0017173546,-0.00032498047
UncalAccel,1676594984030,32040852977347,-4.0354953,2.0201404,9.028718,0.037048545,-0.031444572,0.0098014325
OrientationDeg,1676594984030,32040852977347,155.0,13.0,-10.0
UncalMag,1676594984039,32040861410534,-175.802,743.407,396.09738,-177.00775,769.7961,430.15182
UncalGyro,1676594984039,32040861454581,0.22220223,-1.0531317,-0.42088616,-0.00035909755,-0.0017173546,-0.00032498047
UncalAccel,1676594984039,32040861454581,-3.7908292,2.1367905,8.85823,0.037048545,-0.031444572,0.0098014325
OrientationDeg,1676594984039,32040861454581,155.0,13.0,-10.0
UncalGyro,1676594984047,32040869935630,0.19608775,-1.17897,-0.4184427,-0.00035909755,-0.0017173546,-0.00032498047
UncalAccel,1676594984047,32040869935630,-3.5324044,2.1140587,8.859426,0.037048545,-0.031444572,0.0098014325
UncalMag,1676594984049,32040871413545,-176.6438,743.3094,396.20718,-177.00775,769.7961,430.15182
OrientationDeg,1676594984047,32040869935630,156.0,12.0,-10.0
UncalGyro,1676594984056,32040878415905,0.1469131,-1.25319,-0.39828414,-0.00035909755,-0.0017173546,-0.00032498047
UncalAccel,1676594984056,32040878415905,-3.2703903,2.009971,9.062218,0.037048545,-0.031444572,0.0098014325
OrientationDeg,1676594984056,32040878415905,156.0,12.0,-10.0
UncalMag,1676594984059,32040881412447,-176.4608,742.95557,396.2438,-177.00775,769.7961,430.15182
UncalGyro,1676594984064,32040886896740,0.07452556,-1.2576188,-0.34590244,-0.00035909755,-0.0017173546,-0.00032498047
UncalAccel,1676594984064,32040886896740,-3.237489,1.942972,9.172886,0.037048545,-0.031444572,0.0098014325
OrientationDeg,1676594984064,32040886896740,156.0,11.0,-10.0
UncalMag,1676594984069,32040891416923,-176.97319,743.041,396.52438,-177.00775,769.7961,430.15182
UncalGyro,1676594984073,32040895377444,0.0053450707,-1.2938126,-0.2938262,-0.00035909755,-0.0017173546,-0.00032498047
UncalAccel,1676594984074,32040895377444,-3.0867412,2.030908,8.772088,0.037048545,-0.031444572,0.0098014325
OrientationDeg,1676594984073,32040895377444,156.0,11.0,-10.0
UncalMag,1676594984079,32040901410088,-177.29039,743.0288,396.1584,-177.00775,769.7961,430.15182
UncalGyro,1676594984081,32040903861900,-0.05497787,-1.3116804,-0.2761111,-0.00035909755,-0.0017173546,-0.00032498047
UncalAccel,1676594984081,32040903861900,-2.9437702,2.065006,8.8492565,0.037048545,-0.031444572,0.0098014325
OrientationDeg,1676594984081,32040903861900,156.0,10.0,-10.0
UncalMag,1676594984089,32040911420423,-177.7784,743.6266,395.951,-177.00775,769.7961,430.15182
UncalGyro,1676594984090,32040912335625,-0.12873985,-1.2724323,-0.3013093,-0.00035909755,-0.0017173546,-0.00032498047
UncalAccel,1676594984090,32040912335625,-2.7056842,2.1864417,8.921639,0.037048545,-0.031444572,0.0098014325
OrientationDeg,1676594984090,32040912335625,156.0,9.0,-10.0
UncalGyro,1676594984098,32040920824486,-0.22143865,-1.2092078,-0.35430184,-0.00035909755,-0.0017173546,-0.00032498047
UncalAccel,1676594984098,32040920824486,-2.4670002,2.3557339,8.88455,0.037048545,-0.031444572,0.0098014325
UncalMag,1676594984099,32040921417982,-178.12,743.1996,396.5854,-177.00775,769.7961,430.15182
OrientationDeg,1676594984098,32040920824486,157.0,9.0,-10.0
Status,0,33,0,3,15,1602000000,38.61,306.0,79.0,1,1,1,35.00612
Status,0,33,1,1,11,1176450050,42.39,110.0,77.0,1,1,1,38.7882
Status,0,33,2,1,11,1575420030,42.75,110.0,77.0,1,1,1,39.1521
Status,0,33,3,6,2,1575420030,39.87,114.0,74.0,1,1,1,36.26544
Status,0,33,4,6,2,1176450050,38.18,114.0,74.0,1,1,1,34.58011
Status,0,33,5,3,17,1604249980,37.84,330.0,71.0,1,1,1,34.238018
Status,0,33,6,1,12,1575420030,39.65,329.0,68.0,1,1,1,36.053143
Status,0,33,7,6,34,1575420030,43.17,209.0,62.0,1,1,1,39.570316
Status,0,33,8,6,34,1176450050,36.69,209.0,62.0,1,1,1,33.08636
Status,0,33,9,6,36,1575420030,40.35,49.0,61.0,1,1,1,36.752987
Status,0,33,10,6,36,1176450050,39.81,49.0,61.0,1,1,1,36.208977
Status,0,33,11,6,30,1176450050,35.59,316.0,48.0,1,1,1,31.989151
Status,0,33,12,6,30,1575420030,38.71,316.0,48.0,1,1,1,35.10896
Status,0,33,13,3,14,1598062460,45.60,155.0,42.0,1,1,1,41.99581
Status,0,33,14,1,6,1176450050,43.45,46.0,42.0,1,1,1,39.85235
Status,0,33,15,1,6,1575420030,43.24,46.0,42.0,1,1,1,39.637905
Status,0,33,16,1,25,1575420030,40.42,313.0,38.0,1,1,1,36.82288
Status,0,33,17,1,25,1176450050,39.39,313.0,38.0,1,1,1,35.793015
Status,0,33,18,3,18,1600312450,42.58,243.0,38.0,1,1,1,38.97905
Status,0,33,19,1,24,1575420030,43.33,216.0,36.0,1,1,1,39.72992
Status,0,33,20,1,24,1176450050,37.13,216.0,36.0,1,1,1,33.52559
Status,0,33,21,1,20,1575420030,45.22,140.0,29.0,1,1,1,41.62319
Status,0,33,22,3,24,1603124990,39.07,35.0,27.0,1,1,1,35.469013
Status,0,33,23,3,16,1601437440,38.60,328.0,25.0,1,1,1,35.00428
Status,0,33,24,6,25,1575420030,42.03,128.0,24.0,1,1,1,38.42909
Status,0,33,25,6,25,1176450050,34.29,128.0,24.0,1,1,1,30.691614
Status,0,33,26,1,19,1575420030,38.48,63.0,23.0,1,1,1,34.87605
Status,0,33,27,1,29,1575420030,39.72,267.0,17.0,1,1,1,36.12019
Status,0,33,28,1,2,1575420030,47.92,218.0,14.0,1,1,1,44.318092
Status,0,33,29,6,11,1176450050,27.21,41.0,12.0,1,1,1,23.60582
Status,0,33,30,6,11,1575420030,40.23,41.0,12.0,1,1,1,36.629917
Status,0,33,31,6,15,1575420030,45.56,217.0,11.0,1,1,1,41.958054
Status,0,33,32,6,15,1176450050,29.70,217.0,11.0,1,1,1,26.096867
Fix,GPS,37.4311318494,-122.1551446647,-6.56539418799118,0.2534153,3.3383608,181.1212,1676594983999,0.10510259,30.736607,32040833605000,3.0
Raw,1676594983999,221066000000,,,-1360629980933650210,0.0,7.278897156758389,194.0,1.0,60,2,0.0,16431,435001919075510,15,43.59371566772461,-574.3466509363134,0.15,16,-127659.87480171875,340282346638528860000000000000000000000,1575420030,,,,0,,1,,39.993717193603516,0.0,1.0,0.0,1.0,C,32040833605000
Raw,1676594983999,221066000000,,,-1360629980933650210,0.0,7.278897156758389,194.0,1.0,60,6,0.0,16431,435001927015847,12,43.2379035949707,546.7545166091418,0.15,16,119104.05139692387,340282346638528860000000000000000000000,1575420030,,,,0,,1,,39.63790512084961,0.320142130558394,1.0,0.320142130558394,1.0,C,32040833605000
Raw,1676594983999,221066000000,,,-1360629980933650210,0.0,7.278897156758389,194.0,1.0,60,11,0.0,16431,435001931706040,13,42.752098083496094,40.192997905415496,0.15,16,6170.481701856211,340282346638528860000000000000000000000,1575420030,,,,0,,1,,39.152099609375,-0.20372681261465636,1.0,-0.20372681261465636,1.0,C,32040833605000
Raw,1676594983999,221066000000,,,-1360629980933650210,0.0,7.278897156758389,194.0,1.0,60,12,0.0,16431,435001931415439,20,37.10112380981445,-177.22284357117906,0.15,16,-40869.087868204835,340282346638528860000000000000000000000,1575420030,,,,0,,1,,33.50112533569336,-0.6984919076624261,1.0,-0.6984919076624261,1.0,C,32040833605000
Raw,1676594983999,221066000000,,,-1360629980933650210,0.0,7.278897156758389,194.0,1.0,60,19,0.0,16431,435001922579432,23,35.70671844482422,571.2462721138029,0.5053120587765612,16,125999.94260665962,340282346638528860000000000000000000000,1575420030,,,,0,,1,,32.106719970703125,0.0,1.0,0.0,1.0,C,32040833605000
Raw,1676594983999,221066000000,,,-1360629980933650210,0.0,7.278897156758389,194.0,1.0,60,20,0.0,16431,435001923371031,10,45.22319030761719,-462.7788542299588,0.15,16,-103095.28655746808,340282346638528860000000000000000000000,1575420030,,,,0,,1,,41.623191833496094,0.0,1.0,0.0,1.0,C,32040833605000
Raw,1676594983999,221066000000,,,-1360629980933650210,0.0,7.278897156758389,194.0,1.0,60,24,0.0,16431,435001924329968,17,39.02568054199219,593.8126414845774,0.15,16,129993.70710704944,340282346638528860000000000000000000000,1575420030,,,,0,,1,,35.425682067871094,-0.20372681261465636,1.0,-0.20372681261465636,1.0,C,32040833605000
Raw,1676594983999,221066000000,,,-1360629980933650210,0.0,7.278897156758389,194.0,1.0,60,25,0.0,16431,435001926923630,36,30.199960708618164,-456.3821565423882,0.7537262701664811,16,-101488.65195806023,340282346638528860000000000000000000000,1575420030,,,,0,,1,,26.599960327148438,-2.0372682255564105,1.0,-2.0372682255564105,1.0,C,32040833605000
Raw,1676594983999,221066000000,,,-1360629980933650210,0.0,7.278897156758389,194.0,1.0,60,29,0.0,16431,435001918813750,32,31.65248680114746,-429.07236128505156,0.6905465154930024,16,-95161.87277412697,340282346638528860000000000000000000000,1575420030,,,,0,,1,,28.052486419677734,-0.6984919076624261,1.0,-0.6984919076624261,1.0,C,32040833605000
Raw,1676594983999,221066000000,,,-1360629980933650210,0.0,7.278897156758389,194.0,1.0,60,6,0.0,81921,435001927016376,10,42.20603561401367,546.6319901779423,0.15,16,120768.93432121766,340282346638528860000000000000000000000,1176450050,,,,0,,1,,38.60603713989258,1.9208527336454408,1.6630433503133673,1.9208527336454408,1.0,Q,32040833605000
Raw,1676594983999,221066000000,,,-1360629980933650210,0.0,7.278897156758389,194.0,1.0,60,11,0.0,81921,435001931706543,9,42.38819885253906,40.07914545940105,0.15,16,6205.62102786544,340282346638528860000000000000000000000,1176450050,,,,0,,1,,38.78820037841797,0.0,1.6630433503133673,0.0,1.0,Q,32040833605000
Raw,1676594983999,221066000000,,,-1360629980933650210,0.0,7.278897156758389,194.0,1.0,60,24,0.0,81921,435001924330451,20,28.76314353942871,594.3368296658982,0.8178718497651345,16,131774.72393682343,340282346638528860000000000000000000000,1176450050,,,,0,,1,,25.163143157958984,3.5215636101095664,1.6630433503133673,3.5215636101095664,1.0,Q,32040833605000
Raw,1676594983999,221066000000,,,-1360629980933650210,0.0,7.278897156758389,194.0,1.0,60,25,0.0,81921,435001926924159,42,27.459339141845703,-455.7928708691088,0.8769689654913466,16,-101510.7207776797,340282346638528860000000000000000000000,1176450050,,,,0,,1,,23.859338760375977,1.0186341127782053,1.6630433503133673,1.0186341127782053,1.0,Q,32040833605000
Raw,1676594983999,221066000000,,,-1360629980933650210,0.0,7.278897156758389,194.0,1.0,60,14,0.0,32995,13783930346748,33,44.647178649902344,668.0501621386934,0.15,16,145784.27735670333,340282346638528860000000000000000000000,1598062460,,,,0,,3,,41.04718017578125,52.1540641784668,2.0000000474974513,52.1540641784668,2.0000000474974513,C,32040833605000
Raw,1676594983999,221066000000,,,-1360629980933650210,0.0,7.278897156758389,194.0,1.0,60,18,0.0,32995,13783929566481,38,38.19507598876953,-400.64561576254937,0.15,16,-90260.55230110064,340282346638528860000000000000000000000,1600312450,,,,0,,3,,34.59507751464844,52.1540641784668,2.0000000474974513,52.1540641784668,2.0000000474974513,C,32040833605000
Raw,1676594983999,221066000000,,,-1360629980933650210,0.0,7.278897156758389,194.0,1.0,60,16,0.0,32995,13783925585121,61,32.32624435424805,-661.5659747852287,0.6578688286576937,16,-146644.65728776975,340282346638528860000000000000000000000,1601437440,,,,0,,3,,28.726245880126953,52.1540641784668,2.0000000474974513,52.1540641784668,2.0000000474974513,C,32040833605000
Raw,1676594983999,221066000000,,,-1360629980933650210,0.0,7.278897156758389,194.0,1.0,60,15,0.0,32995,13783935601564,37,38.409915924072266,-55.05697919984465,0.15,16,-15670.943736363008,340282346638528860000000000000000000000,1602000000,,,,0,,3,,34.80991744995117,52.1540641784668,2.0000000474974513,52.1540641784668,2.0000000474974513,C,32040833605000
Raw,1676594983999,221066000000,,,-1360629980933650210,0.0,7.278897156758389,194.0,1.0,60,24,0.0,32867,13783926511878,36,38.63471984863281,704.9514423106793,0.15,16,155791.46762315548,340282346638528860000000000000000000000,1603124990,,,,0,,3,,35.03472137451172,52.1540641784668,2.0000000474974513,52.1540641784668,2.0000000474974513,C,32040833605000
Raw,1676594983999,221066000000,,,-1360629980933650210,0.0,7.278897156758389,194.0,1.0,60,17,0.0,32995,13783935484528,44,36.16267013549805,193.19877353027903,0.15,16,40206.014099866916,340282346638528860000000000000000000000,1604249980,,,,0,,3,,32.56267166137695,52.1540641784668,2.0000000474974513,52.1540641784668,2.0000000474974513,C,32040833605000
Raw,1676594983999,221066000000,,,-1360629980933650210,0.0,7.278897156758389,194.0,1.0,60,2,0.0,85026,435001921536608,16,39.84247589111328,172.95004528551215,0.15,16,36982.24046946383,340282346638528860000000000000000000000,1575420030,,,,0,,6,,36.24247741699219,-5.878973752260207,1.5000000237487257,-5.878973752260207,1.5000000237487257,C,32040833605000
Raw,1676594983999,221066000000,,,-1360629980933650210,0.0,7.278897156758389,194.0,1.0,60,11,0.0,85026,435001908397438,16,40.229915618896484,593.7247769116616,0.15,16,129582.66768162166,340282346638528860000000000000000000000,1575420030,,,,0,,6,,36.62991714477539,-5.878973752260207,1.5000000237487257,-5.878973752260207,1.5000000237487257,C,32040833605000
Raw,1676594983999,221066000000,,,-1360629980933650210,0.0,7.278897156758389,194.0,1.0,60,15,0.0,85026,435001907268020,12,43.4307746887207,-495.05521321671245,0.15,16,-109529.55706112663,340282346638528860000000000000000000000,1575420030,,,,0,,6,,39.83077621459961,-5.878973752260207,1.5000000237487257,-5.878973752260207,1.5000000237487257,C,32040833605000
Raw,1676594983999,221066000000,,,-1360629980933650210,0.0,7.278897156758389,194.0,1.0,60,25,0.0,85026,435001910764883,16,40.24702453613281,513.0181674323205,0.15,16,111923.0978349219,340282346638528860000000000000000000000,1575420030,,,,0,,6,,36.64702606201172,-5.878973752260207,1.5000000237487257,-5.878973752260207,1.5000000237487257,C,32040833605000
Raw,1676594983999,221066000000,,,-1360629980933650210,0.0,7.278897156758389,194.0,1.0,60,30,0.0,85026,435001916487052,48,26.575366973876953,-293.9307177931082,0.9162818143117484,16,-65505.096591340596,340282346638528860000000000000000000000,1575420030,,,,0,,6,,22.975366592407227,-5.878973752260207,1.5000000237487257,-5.878973752260207,1.5000000237487257,C,32040833605000
Raw,1676594983999,221066000000,,,-1360629980933650210,0.0,7.278897156758389,194.0,1.0,60,34,0.0,85026,435001920120892,16,40.203285217285156,-223.66051436684518,0.15,16,-51165.464867294584,340282346638528860000000000000000000000,1575420030,,,,0,,6,,36.60328674316406,-5.878973752260207,1.5000000237487257,-5.878973752260207,1.5000000237487257,C,32040833605000
Raw,1676594983999,221066000000,,,-1360629980933650210,0.0,7.278897156758389,194.0,1.0,60,36,0.0,85026,435001919937738,15,40.35298538208008,306.28240453171384,0.15,16,66353.63244289439,340282346638528860000000000000000000000,1575420030,,,,0,,6,,36.752986907958984,-5.878973752260207,1.5000000237487257,-5.878973752260207,1.5000000237487257,C,32040833605000
Raw,1676594983999,221066000000,,,-1360629980933650210,0.0,7.278897156758389,194.0,1.0,60,2,0.0,84003,435001921537133,9,38.18010711669922,172.74689680340794,0.15,16,37053.82003693777,340282346638528860000000000000000000000,1176450050,,,,0,,6,,34.580108642578125,-4.216632805764675,2.163043374062093,-4.216632805764675,1.5000000237487257,Q,32040833605000
Raw,1676594983999,221066000000,,,-1360629980933650210,0.0,7.278897156758389,194.0,1.0,60,11,0.0,84003,435001908397957,37,27.205820083618164,593.6992150692695,0.8886345516111511,16,130138.52285728419,340282346638528860000000000000000000000,1176450050,,,,0,,6,,23.605819702148438,5.203299224376676,2.163043374062093,5.203299224376676,1.5000000237487257,Q,32040833605000
Raw,1676594983999,221066000000,,,-1360629980933650210,0.0,7.278897156758389,194.0,1.0,60,15,0.0,84003,435001907268486,82,22.803876876831055,-495.42487154015885,1.0863818297313697,16,-109110.03176640268,340282346638528860000000000000000000000,1176450050,,,,0,,6,,19.203876495361328,-11.050701141357418,2.163043374062093,-11.050701141357418,1.5000000237487257,Q,32040833605000
Raw,1676594983999,221066000000,,,-1360629980933650210,0.0,7.278897156758389,194.0,1.0,60,25,0.0,84003,435001910765387,11,32.7568244934082,512.8980608555341,0.6394379414854092,16,112377.77178544046,340282346638528860000000000000000000000,1176450050,,,,0,,6,,29.15682601928711,-8.649541996419428,2.163043374062093,-8.649541996419428,1.5000000237487257,Q,32040833605000
Raw,1676594983999,221066000000,,,-1360629980933650210,0.0,7.278897156758389,194.0,1.0,60,30,0.0,84003,435001916487578,40,26.386489868164062,-294.1056630424398,0.9269339798883824,16,-66547.39336801712,340282346638528860000000000000000000000,1176450050,,,,0,,6,,22.786489486694336,-8.2801328971982,2.163043374062093,-8.2801328971982,1.5000000237487257,Q,32040833605000
Raw,1676594983999,221066000000,,,-1360629980933650210,0.0,7.278897156758389,194.0,1.0,60,34,0.0,84003,435001920121370,12,32.863548278808594,-223.7792406041424,0.6363215934344026,16,-51497.15656630039,340282346638528860000000000000000000000,1176450050,,,,0,,6,,29.263547897338867,-9.942473843693731,2.163043374062093,-9.942473843693731,1.5000000237487257,Q,32040833605000
Raw,1676594983999,221066000000,,,-1360629980933650210,0.0,7.278897156758389,194.0,1.0,60,36,0.0,84003,435001919938259,7,39.80897521972656,306.11863832812173,0.15,16,66820.64295730137,340282346638528860000000000000000000000,1176450050,,,,0,,6,,36.20897674560547,-10.865996591746804,2.163043374062093,-10.865996591746804,1.5000000237487257,Q,32040833605000
UncalGyro,1676594984107,32040929306318,-0.33200526,-1.1449142,-0.43386704,-0.00035909755,-0.0017173546,-0.00032498047
UncalAccel,1676594984107,32040929306318,-2.2809582,2.4430718,8.856435,0.037048545,-0.031444572,0.0098014325
UncalMag,1676594984109,32040931420342,-178.51039,743.5168,395.82898,-177.00775,769.7961,430.15182
UncalGyro,1676594984115,32040937788892,-0.45173484,-1.0688615,-0.529162,-0.00035909755,-0.0017173546,-0.00032498047
UncalAccel,1676594984115,32040937788892,-2.1708884,2.4340987,8.813962,0.037048545,-0.031444572,0.0098014325
OrientationDeg,1676594984107,32040929306318,157.0,8.0,-10.0
OrientationDeg,1676594984115,32040937788892,157.0,8.0,-9.0
Fix,FLP,37.4311306000,-122.1551467000,-16.100000381469727,0.3314982,3.642,180.76755,1676594984011,0.10510259,30.736607,32040833605000,2.66972
UncalMag,1676594984119,32040941420342,-178.8398,743.27277,396.5,-177.00775,769.7961,430.15182
UncalGyro,1676594984124,32040946269586,-0.55863625,-1.0013609,-0.6275113,-0.00035909755,-0.0017173546,-0.00032498047
UncalAccel,1676594984125,32040946269586,-2.0249262,2.2821546,8.620144,0.037048545,-0.031444572,0.0098014325
OrientationDeg,1676594984124,32040946269586,157.0,7.0,-9.0
UncalMag,1676594984129,32040951409885,-179.2424,743.6022,396.1096,-177.00775,769.7961,430.15182
UncalGyro,1676594984133,32040954745833,-0.63514715,-1.0065532,-0.72265357,-0.00035909755,-0.0017173546,-0.00032498047
UncalAccel,1676594984132,32040954745833,-1.9651057,2.0045872,8.526823,0.037048545,-0.031444572,0.0098014325
OrientationDeg,1676594984132,32040954745833,158.0,7.0,-9.0
UncalMag,1676594984139,32040961417210,-178.69339,743.956,396.1828,-177.00775,769.7961,430.15182
UncalGyro,1676594984141,32040963229933,-0.66767573,-1.0302242,-0.8240572,-0.00035909755,-0.0017173546,-0.00032498047
UncalAccel,1676594984141,32040963229933,-1.80359,1.6217356,8.887542,0.037048545,-0.031444572,0.0098014325
OrientationDeg,1676594984141,32040963229933,158.0,7.0,-8.0
UncalMag,1676594984149,32040971414687,-178.913,743.8706,396.1584,-177.00775,769.7961,430.15182
UncalGyro,1676594984149,32040971708327,-0.6580546,-1.0285443,-0.95432425,-0.00035909755,-0.0017173546,-0.00032498047
UncalAccel,1676594984149,32040971708327,-1.5744773,1.2394822,9.277572,0.037048545,-0.031444572,0.0098014325
OrientationDeg,1676594984149,32040971708327,158.0,6.0,-8.0
UncalGyro,1676594984158,32040980192418,-0.6337727,-1.0264063,-1.1522446,-0.00035909755,-0.0017173546,-0.00032498047
UncalAccel,1676594984158,32040980192418,-1.4081762,0.9625129,9.580862,0.037048545,-0.031444572,0.0098014325
OrientationDeg,1676594984158,32040980192418,159.0,6.0,-8.0
UncalMag,1676594984159,32040981409683,-179.3888,744.54156,395.6094,-177.00775,769.7961,430.15182
UncalGyro,1676594984166,32040988676680,-0.5910121,-1.0454959,-1.387275,-0.00035909755,-0.0017173546,-0.00032498047
UncalAccel,1676594984166,32040988676680,-1.6097715,1.1802598,10.14138,0.037048545,-0.031444572,0.0098014325
OrientationDeg,1676594984166,32040988676680,160.0,5.0,-7.0
UncalMag,1676594984169,32040991420344,-179.157,744.8832,395.4386,-177.00775,769.7961,430.15182
UncalGyro,1676594984175,32040997142267,-0.46563202,-1.0364856,-1.636508,-0.00035909755,-0.0017173546,-0.00032498047
UncalAccel,1676594984175,32040997142267,-1.5966109,1.3674982,10.174282,0.037048545,-0.031444572,0.0098014325
OrientationDeg,1676594984175,32040997142267,160.0,5.0,-7.0
UncalMag,1676594984179,32041001424332,-179.62059,744.1878,395.524,-177.00775,769.7961,430.15182
UncalGyro,1676594984183,32041005632268,-0.26160303,-1.1175779,-1.8909334,-0.00035909755,-0.0017173546,-0.00032498047
UncalAccel,1676594984183,32041005632268,-1.4303098,1.1353943,9.217153,0.037048545,-0.031444572,0.0098014325
OrientationDeg,1676594984183,32041005632268,161.0,5.0,-7.0
UncalMag,1676594984189,32041011420344,-179.1936,744.3464,395.0726,-177.00775,769.7961,430.15182
UncalGyro,1676594984192,32041014114192,-0.02977968,-1.2776246,-2.1200078,-0.00035909755,-0.0017173546,-0.00032498047
UncalAccel,1676594984192,32041014114192,-1.3429717,0.7052845,8.751749,0.037048545,-0.031444572,0.0098014325
OrientationDeg,1676594984192,32041014114192,162.0,4.0,-7.0
UncalMag,1676594984199,32041021420467,-179.8158,744.3464,395.08478,-177.00775,769.7961,430.15182
UncalGyro,1676594984200,32041022596644,0.17501289,-1.3994923,-2.2974641,-0.00035909755,-0.0017173546,-0.00032498047
UncalAccel,1676594984200,32041022596644,-1.372882,0.4121637,9.077771,0.037048545,-0.031444572,0.0098014325
OrientationDeg,1676594984200,32041022596644,164.0,4.0,-7.0
UncalGyro,1676594984209,32041031060400,0.32528573,-1.4537066,-2.4416285,-0.00035909755,-0.0017173546,-0.00032498047
UncalAccel,1676594984209,32041031060400,-1.4273187,0.47377887,9.296714,0.037048545,-0.031444572,0.0098014325
UncalMag,1676594984209,32041031409521,-179.3156,744.1878,395.646,-177.00775,769.7961,430.15182
OrientationDeg,1676594984209,32041031060400,165.0,3.0,-7.0
UncalGyro,1676594984217,32041039555904,0.42012256,-1.4946345,-2.5763242,-0.00035909755,-0.0017173546,-0.00032498047
UncalAccel,1676594984217,32041039555904,-1.4087744,0.7423732,9.152547,0.037048545,-0.031444572,0.0098014325
OrientationDeg,1676594984217,32041039555904,166.0,2.0,-7.0
UncalMag,1676594984219,32041041409643,-178.5714,744.21216,395.8778,-177.00775,769.7961,430.15182
UncalGyro,1676594984226,32041048036799,0.46120325,-1.543351,-2.7036896,-0.00035909755,-0.0017173546,-0.00032498047
UncalAccel,1676594984226,32041048036799,-1.2789637,0.88235337,8.9521475,0.037048545,-0.031444572,0.0098014325
OrientationDeg,1676594984226,32041048036799,167.0,2.0,-7.0
UncalMag,1676594984229,32041051409847,-179.035,743.58997,395.8534,-177.00775,769.7961,430.15182
UncalGyro,1676594984234,32041056517951,0.45158213,-1.5816828,-2.8183796,-0.00035909755,-0.0017173546,-0.00032498047
UncalAccel,1676594984234,32041056517951,-1.1730813,0.8500503,8.94796,0.037048545,-0.031444572,0.0098014325
OrientationDeg,1676594984234,32041056517951,169.0,1.0,-7.0
UncalMag,1676594984239,32041061409563,-178.8398,743.3338,395.9144,-177.00775,769.7961,430.15182
UncalGyro,1676594984243,32041065004818,0.38973203,-1.6044376,-2.9022207,-0.00035909755,-0.0017173546,-0.00032498047
UncalAccel,1676594984243,32041065004818,-1.125823,0.7926225,9.0347,0.037048545,-0.031444572,0.0098014325
OrientationDeg,1676594984243,32041065004818,170.0,1.0,-7.0
UncalMag,1676594984249,32041071413266,-178.64459,743.16296,395.8656,-177.00775,769.7961,430.15182
UncalGyro,1676594984251,32041073475236,0.2941316,-1.6490307,-2.9579623,-0.00035909755,-0.0017173546,-0.00032498047
UncalAccel,1676594984251,32041073475236,-1.0049855,0.78843504,8.911469,0.037048545,-0.031444572,0.0098014325
OrientationDeg,1676594984251,32041073475236,172.0,0.0,-7.0
UncalMag,1676594984259,32041081420549,-178.3274,743.285,396.73178,-177.00775,769.7961,430.15182
UncalGyro,1676594984259,32041081958777,0.18432859,-1.7496707,-2.9972103,-0.00035909755,-0.0017173546,-0.00032498047
UncalAccel,1676594984259,32041081958777,-0.8458628,0.785444,8.692527,0.037048545,-0.031444572,0.0098014325
OrientationDeg,1676594984259,32041081958777,173.0,0.0,-7.0
UncalGyro,1676594984268,32041090441901,0.069485925,-1.9045252,-3.028059,-0.00035909755,-0.0017173546,-0.00032498047
UncalAccel,1676594984268,32041090441901,-0.657428,0.7292127,8.503493,0.037048545,-0.031444572,0.0098014325
UncalMag,1676594984269,32041091409889,-178.5226,743.3582,396.3902,-177.00775,769.7961,430.15182
OrientationDeg,1676594984268,32041090441901,175.0,0.0,-8.0
UncalGyro,1676594984276,32041098916134,-0.05024367,-2.0890064,-3.0621147,-0.00035909755,-0.0017173546,-0.00032498047
UncalAccel,1676594984276,32041098916134,-0.3792624,0.64008003,8.414959,0.037048545,-0.031444572,0.0098014325
OrientationDeg,1676594984276,32041098916134,176.0,-1.0,-8.0
UncalMag,1676594984279,32041101420143,-178.2298,743.102,396.4512,-177.00775,769.7961,430.15182
UncalGyro,1676594984285,32041107400997,-0.18707748,-2.271197,-3.1064024,-0.00035909755,-0.0017173546,-0.00032498047
UncalAccel,1676594984285,32041107400997,-0.16271193,0.44985065,8.440681,0.037048545,-0.031444572,0.0098014325
OrientationDeg,1676594984285,32041107400997,178.0,-2.0,-7.0
UncalMag,1676594984289,32041111420387,-178.64459,743.102,396.4512,-177.00775,769.7961,430.15182
UncalGyro,1676594984293,32041115884539,-0.32925636,-2.4278839,-3.158937,-0.00035909755,-0.0017173546,-0.00032498047
UncalAccel,1676594984293,32041115884539,-0.008973085,0.18723837,8.471788,0.037048545,-0.031444572,0.0098014325
OrientationDeg,1676594984293,32041115884539,179.0,-3.0,-7.0
UncalMag,1676594984299,32041121420266,-178.5592,742.7604,396.6098,-177.00775,769.7961,430.15182
UncalGyro,1676594984302,32041124362638,-0.45723262,-2.5621216,-3.212693,-0.00035909755,-0.0017173546,-0.00032498047
UncalAccel,1676594984302,32041124362638,0.17407785,0.035294134,8.402397,0.037048545,-0.031444572,0.0098014325
OrientationDeg,1676594984302,32041124362638,181.0,-4.0,-7.0
UncalMag,1676594984309,32041131420266,-178.4494,742.83356,396.3902,-177.00775,769.7961,430.15182
UncalGyro,1676594984310,32041132842080,-0.55833083,-2.676048,-3.2716415,-0.00035909755,-0.0017173546,-0.00032498047
UncalAccel,1676594984310,32041132842080,0.45224348,-0.058624156,8.380263,0.037048545,-0.031444572,0.0098014325
OrientationDeg,1676594984310,32041132842080,182.0,-5.0,-7.0
UncalGyro,1676594984319,32041141322243,-0.63438356,-2.692694,-3.3308954,-0.00035909755,-0.0017173546,-0.00032498047
UncalAccel,1676594984319,32041141322243,0.6753742,-0.31226337,8.827123,0.037048545,-0.031444572,0.0098014325
UncalMag,1676594984319,32041141413918,-178.3274,743.1996,396.8294,-177.00775,769.7961,430.15182
OrientationDeg,1676594984319,32041141322243,184.0,-6.0,-7.0
UncalGyro,1676594984327,32041149802987,-0.6785186,-2.5725062,-3.3762522,-0.00035909755,-0.0017173546,-0.00032498047
UncalAccel,1676594984327,32041149802987,0.78843504,-0.50368917,9.1770735,0.037048545,-0.031444572,0.0098014325
UncalMag,1676594984329,32041151409687,-178.24199,742.919,395.9144,-177.00775,769.7961,430.15182
OrientationDeg,1676594984327,32041149802987,186.0,-7.0,-7.0
UncalGyro,1676594984336,32041158284565,-0.6889033,-2.3515258,-3.411377,-0.00035909755,-0.0017173546,-0.00032498047
UncalAccel,1676594984336,32041158284565,0.79740816,-0.4941179,9.229715,0.037048545,-0.031444572,0.0098014325
OrientationDeg,1676594984336,32041158284565,187.0,-8.0,-7.0
UncalMag,1676594984339,32041161417256,-177.8882,743.5412,396.1828,-177.00775,769.7961,430.15182
UncalGyro,1676594984344,32041166760771,-0.66675943,-2.0648773,-3.421151,-0.00035909755,-0.0017173546,-0.00032498047
UncalAccel,1676594984344,32041166760771,0.7639086,-0.4319045,9.18126,0.037048545,-0.031444572,0.0098014325
OrientationDeg,1676594984344,32041166760771,189.0,-9.0,-7.0
UncalMag,1676594984349,32041171409809,-178.0224,743.0898,395.82898,-177.00775,769.7961,430.15182
UncalGyro,1676594984353,32041175237354,-0.63194007,-1.744173,-3.3976326,-0.00035909755,-0.0017173546,-0.00032498047
UncalAccel,1676594984353,32041175237354,0.7680961,-0.27876383,9.151948,0.037048545,-0.031444572,0.0098014325
OrientationDeg,1676594984353,32041175237354,191.0,-9.0,-7.0
UncalMag,1676594984359,32041181420186,-177.90039,743.3948,396.988,-177.00775,769.7961,430.15182
UncalGyro,1676594984361,32041183725291,-0.61758476,-1.3800973,-3.333797,-0.00035909755,-0.0017173546,-0.00032498047
UncalAccel,1676594984361,32041183725291,0.7800602,-0.21655045,9.480962,0.037048545,-0.031444572,0.0098014325
OrientationDeg,1676594984361,32041183725291,192.0,-10.0,-7.0
UncalMag,1676594984369,32041191420186,-177.3636,743.529,395.4386,-177.00775,769.7961,430.15182
UncalGyro,1676594984370,32041192204436,-0.6560693,-0.95294976,-3.2123876,-0.00035909755,-0.0017173546,-0.00032498047
UncalAccel,1676594984370,32041192204436,0.78424764,-0.22253251,10.158729,0.037048545,-0.031444572,0.0098014325
OrientationDeg,1676594984370,32041192204436,194.0,-10.0,-6.0
UncalGyro,1676594984378,32041200686421,-0.7672467,-0.46960264,-3.029739,-0.00035909755,-0.0017173546,-0.00032498047
UncalAccel,1676594984378,32041200686421,0.70169526,-0.23868406,10.993824,0.037048545,-0.031444572,0.0098014325
UncalMag,1676594984379,32041201401876,-176.7414,743.46796,395.88998,-177.00775,769.7961,430.15182
OrientationDeg,1676594984378,32041200686421,196.0,-10.0,-6.0
UncalGyro,1676594984387,32041209161133,-0.7425067,0.41355577,-2.7537806,-0.00035909755,-0.0017173546,-0.00032498047
UncalAccel,1676594984387,32041209161133,0.7818548,-0.5808577,15.20579,0.037048545,-0.031444572,0.0098014325
OrientationDeg,1676594984387,32041209161133,197.0,-10.0,-6.0
UncalMag,1676594984389,32041211420309,-175.7776,743.9194,395.9754,-177.00775,769.7961,430.15182
UncalGyro,1676594984395,32041217647593,-0.52595496,1.210735,-2.4291058,-0.00035909755,-0.0017173546,-0.00032498047
UncalAccel,1676594984395,32041217647593,0.95653087,0.3487539,12.930216,0.037048545,-0.031444572,0.0098014325
OrientationDeg,1676594984395,32041217647593,198.0,-9.0,-6.0
UncalMag,1676594984399,32041221417094,-175.6434,744.33417,395.097,-177.00775,769.7961,430.15182
UncalGyro,1676594984404,32041226125692,-0.4457789,1.5018122,-2.1088595,-0.00035909755,-0.0017173546,-0.00032498047
UncalAccel,1676594984404,32041226125692,0.29910284,0.68195444,11.678769,0.037048545,-0.031444572,0.0098014325
OrientationDeg,1676594984404,32041226125692,199.0,-8.0,-6.0
UncalMag,1676594984409,32041231418803,-173.9354,744.96857,394.60898,-177.00775,769.7961,430.15182
UncalGyro,1676594984412,32041234608450,-0.49113566,1.4758505,-1.7539468,-0.00035909755,-0.0017173546,-0.00032498047
UncalAccel,1676594984412,32041234608450,-1.041476,-0.96490574,11.759527,0.037048545,-0.031444572,0.0098014325
OrientationDeg,1676594984412,32041234608450,200.0,-7.0,-6.0
UncalMag,1676594984419,32041241420269,-172.60559,744.4074,395.646,-177.00775,769.7961,430.15182
UncalGyro,1676594984421,32041243089051,0.7151705,1.5273159,-0.19822577,-0.00035909755,-0.0017173546,-0.00032498047
UncalAccel,1676594984421,32041243089051,-3.6340995,-9.568898,19.781466,0.037048545,-0.031444572,0.0098014325
OrientationDeg,1676594984421,32041243089051,200.0,-6.0,-6.0
UncalMag,1676594984429,32041251420391,-171.67839,744.261,395.951,-177.00775,769.7961,430.15182
UncalGyro,1676594984429,32041251569743,1.1203269,1.5685493,0.7163922,-0.00035909755,-0.0017173546,-0.00032498047
UncalAccel,1676594984429,32041251569743,0.19800608,1.041476,14.124832,0.037048545,-0.031444572,0.0098014325
OrientationDeg,1676594984429,32041251569743,200.0,-6.0,-7.0
UncalGyro,1676594984438,32041260051260,0.5316055,1.5137241,0.7284568,-0.00035909755,-0.0017173546,-0.00032498047
UncalAccel,1676594984438,32041260051260,-0.36370903,3.6957145,14.456238,0.037048545,-0.031444572,0.0098014325
UncalMag,1676594984439,32041261409812,-171.593,743.9194,395.8656,-177.00775,769.7961,430.15182
OrientationDeg,1676594984438,32041260051260,199.0,-5.0,-7.0
UncalGyro,1676594984446,32041268530814,-0.21395555,1.4173601,0.5027421,-0.00035909755,-0.0017173546,-0.00032498047
UncalAccel,1676594984446,32041268530814,-1.3022938,2.8193433,13.891532,0.037048545,-0.031444572,0.0098014325
OrientationDeg,1676594984446,32041268530814,199.0,-4.0,-7.0
UncalMag,1676594984449,32041271411195,-171.5808,744.0902,395.7924,-177.00775,769.7961,430.15182
UncalGyro,1676594984455,32041277002473,-0.84207773,1.031446,0.20570888,-0.00035909755,-0.0017173546,-0.00032498047
UncalAccel,1676594984455,32041277002473,-0.9906286,1.3914263,12.301501,0.037048545,-0.031444572,0.0098014325
OrientationDeg,1676594984455,32041277002473,199.0,-4.0,-6.0
UncalMag,1676594984459,32041281417381,-170.3486,743.773,396.04858,-177.00775,769.7961,430.15182
UncalGyro,1676594984463,32041285488945,-1.2858714,0.5151121,-0.0852157,-0.00035909755,-0.0017173546,-0.00032498047
UncalAccel,1676594984463,32041285488945,-0.9062816,1.3112668,11.95873,0.037048545,-0.031444572,0.0098014325
OrientationDeg,1676594984463,32041285488945,199.0,-4.0,-6.0
UncalMag,1676594984469,32041291420229,-170.2266,743.90717,394.8652,-177.00775,769.7961,430.15182
UncalGyro,1676594984471,32041293973605,-1.6041322,0.07666359,-0.28206703,-0.00035909755,-0.0017173546,-0.00032498047
UncalAccel,1676594984471,32041293973605,-0.46181476,1.4817554,11.874981,0.037048545,-0.031444572,0.0098014325
OrientationDeg,1676594984471,32041293973605,199.0,-4.0,-5.0
UncalMag,1676594984479,32041301420189,-170.8366,744.3464,395.35318,-177.00775,769.7961,430.15182
UncalGyro,1676594984480,32041302453168,-1.8018998,-0.24785857,-0.38789943,-0.00035909755,-0.0017173546,-0.00032498047
UncalAccel,1676594984480,32041302453168,0.12502499,1.3375878,11.473584,0.037048545,-0.031444572,0.0098014325
OrientationDeg,1676594984480,32041302453168,200.0,-4.0,-4.0
UncalGyro,1676594984488,32041310933636,-1.8217529,-0.4700608,-0.46196684,-0.00035909755,-0.0017173546,-0.00032498047
UncalAccel,1676594984488,32041310933636,0.7926225,1.0019945,11.341381,0.037048545,-0.031444572,0.0098014325
OrientationDeg,1676594984488,32041310933636,200.0,-4.0,-3.0
UncalMag,1676594984489,32041311410261,-170.8244,746.12756,393.71838,-177.00775,769.7961,430.15182
UncalGyro,1676594984497,32041319403404,-1.6922494,-0.4915938,-0.52290064,-0.00035909755,-0.0017173546,-0.00032498047
UncalAccel,1676594984497,32041319403404,1.5373886,0.9098708,11.6135645,0.037048545,-0.031444572,0.0098014325
UncalMag,1676594984499,32041321420433,-170.8244,746.12756,393.71838,-177.00775,769.7961,430.15182
OrientationDeg,1676594984497,32041319403404,200.0,-4.0,-3.0
UncalGyro,1676594984505,32041327895988,-1.491122,-0.36743546,-0.60048056,-0.00035909755,-0.0017173546,-0.00032498047
UncalAccel,1676594984505,32041327895988,2.3635106,1.1641082,11.622538,0.037048545,-0.031444572,0.0098014325
OrientationDeg,1676594984505,32041327895988,201.0,-4.0,-2.0
UncalMag,1676594984509,32041331420067,-170.678,746.8352,393.999,-177.00775,769.7961,430.15182
UncalGyro,1676594984514,32041336375411,-1.270447,-0.17104226,-0.6719518,-0.00035909755,-0.0017173546,-0.00032498047
UncalAccel,1676594984514,32041336375411,3.109473,1.2023934,11.593824,0.037048545,-0.031444572,0.0098014325
OrientationDeg,1676594984514,32041336375411,201.0,-4.0,-1.0
UncalMag,1676594984520,32041341409895,-170.9464,747.4818,392.474,-177.00775,769.7961,430.15182
UncalGyro,1676594984522,32041344855472,-1.0629056,0.017256944,-0.71868294,-0.00035909755,-0.0017173546,-0.00032498047
UncalAccel,1676594984522,32041344855472,3.595216,1.18684,11.215159,0.037048545,-0.031444572,0.0098014325
OrientationDeg,1676594984522,32041344855472,201.0,-4.0,-1.0
UncalMag,1676594984529,32041351417220,-170.9464,747.4818,392.474,-177.00775,769.7961,430.15182
UncalGyro,1676594984531,32041353348605,-0.9286679,0.20219639,-0.6629415,-0.00035909755,-0.0017173546,-0.00032498047
UncalAccel,1676594984531,32041353348605,3.3661032,0.7645068,10.862817,0.037048545,-0.031444572,0.0098014325
OrientationDeg,1676594984531,32041353348605,202.0,-4.0,0.0
UncalMag,1676594984539,32041361420312,-170.4462,748.8116,392.65698,-177.00775,769.7961,430.15182
UncalGyro,1676594984539,32041361815758,-0.84528476,0.3753767,-0.55741453,-0.00035909755,-0.0017173546,-0.00032498047
UncalAccel,1676594984539,32041361815758,3.301497,0.93738824,10.450653,0.037048545,-0.031444572,0.0098014325
OrientationDeg,1676594984539,32041361815758,202.0,-4.0,0.0
UncalGyro,1676594984548,32041370295220,-0.71761394,0.44226643,-0.5510005,-0.00035909755,-0.0017173546,-0.00032498047
UncalAccel,1676594984548,32041370295220,3.4199417,1.5613167,10.124033,0.037048545,-0.031444572,0.0098014325
OrientationDeg,1676594984548,32041370295220,202.0,-4.0,0.0
UncalMag,1676594984549,32041371415837,-169.50679,748.9092,392.291,-177.00775,769.7961,430.15182
UncalGyro,1676594984556,32041378780236,-0.54305923,0.48258355,-0.6151413,-0.00035909755,-0.0017173546,-0.00032498047
UncalAccel,1676594984556,32041378780236,3.17049,1.5643078,10.250853,0.037048545,-0.031444572,0.0098014325
UncalMag,1676594984559,32041381409652,-169.6898,749.263,392.6204,-177.00775,769.7961,430.15182
OrientationDeg,1676594984556,32041378780236,203.0,-4.0,0.0
Fix,NLP,37.4316603000,-122.1557066000,-16.200000762939453,,136.122,,1676594984352,,,32041174000000,2.0729272
UncalGyro,1676594984565,32041387251550,-0.33001995,0.5340489,-0.68615437,-0.00035909755,-0.0017173546,-0.00032498047
UncalAccel,1676594984565,32041387251550,2.597409,1.5320047,10.161719,0.037048545,-0.031444572,0.0098014325
OrientationDeg,1676594984565,32041387251550,203.0,-3.0,0.0
UncalMag,1676594984569,32041391420232,-169.0432,749.50696,391.9372,-177.00775,769.7961,430.15182
Fix,FLP,37.4311304000,-122.1551460000,-16.200000762939453,0.33142972,3.676,180.74252,1676594984352,0.10510259,30.736607,32041174000000,1.7898785
UncalGyro,1676594984573,32041395751703,-0.04550946,0.5710063,-0.782213,-0.00035909755,-0.0017173546,-0.00032498047
UncalAccel,1676594984573,32041395751703,2.0584257,1.783251,9.713065,0.037048545,-0.031444572,0.0098014325
OrientationDeg,1676594984574,32041395751703,203.0,-3.0,0.0
UncalMag,1676594984579,32041401420273,-168.2258,749.3484,391.6322,-177.00775,769.7961,430.15182
UncalGyro,1676594984582,32041404218470,0.31031954,0.7079928,-0.9246973,-0.00035909755,-0.0017173546,-0.00032498047
UncalAccel,1676594984582,32041404218470,1.7174485,1.8329022,10.536795,0.037048545,-0.031444572,0.0098014325
OrientationDeg,1676594984582,32041404218470,204.0,-3.0,0.0
UncalMag,1676594984589,32041411416977,-167.3718,749.62897,391.80298,-177.00775,769.7961,430.15182
UncalGyro,1676594984590,32041412699447,0.6774496,1.0137309,-1.0722213,-0.00035909755,-0.0017173546,-0.00032498047
UncalAccel,1676594984590,32041412699447,1.4931214,1.4931214,9.434301,0.037048545,-0.031444572,0.0098014325
OrientationDeg,1676594984590,32041412699447,204.0,-2.0,0.0
UncalGyro,1676594984599,32041421182307,1.0477866,1.0215194,-1.2148583,-0.00035909755,-0.0017173546,-0.00032498047
UncalAccel,1676594984599,32041421182307,1.7036897,1.7180467,7.3489566,0.037048545,-0.031444572,0.0098014325
UncalMag,1676594984599,32041421403346,-167.4206,748.66516,391.8152,-177.00775,769.7961,430.15182
OrientationDeg,1676594984599,32041421182307,205.0,-2.0,-1.0
UncalGyro,1676594984607,32041429662826,1.3162619,1.0189233,-1.2307408,-0.00035909755,-0.0017173546,-0.00032498047
UncalAccel,1676594984607,32041429662826,3.1076784,1.7790636,7.605587,0.037048545,-0.031444572,0.0098014325
OrientationDeg,1676594984607,32041429662826,205.0,-1.0,-1.0
UncalMag,1676594984609,32041431420273,-166.9204,748.3724,393.3036,-177.00775,769.7961,430.15182
UncalGyro,1676594984616,32041438141403,1.4844025,0.9805914,-1.0920744,-0.00035909755,-0.0017173546,-0.00032498047
UncalAccel,1676594984616,32041438141403,4.2759743,1.9495523,7.3256264,0.037048545,-0.031444572,0.0098014325
OrientationDeg,1676594984616,32041438141403,206.0,-1.0,-2.0
UncalMag,1676594984619,32041441420274,-166.4202,748.0186,392.8522,-177.00775,769.7961,430.15182
UncalGyro,1676594984624,32041446622940,1.5621351,0.8894198,-0.88438016,-0.00035909755,-0.0017173546,-0.00032498047
UncalAccel,1676594984624,32041446622940,4.442275,2.1517458,7.335198,0.037048545,-0.031444572,0.0098014325
OrientationDeg,1676594984624,32041446622940,206.0,-1.0,-3.0
UncalMag,1676594984629,32041451409694,-165.4198,747.4696,394.0234,-177.00775,769.7961,430.15182
UncalGyro,1676594984633,32041455103806,1.5193746,0.7405214,-0.7275405,-0.00035909755,-0.0017173546,-0.00032498047
UncalAccel,1676594984633,32041455103806,3.8386858,2.5543382,7.8352976,0.037048545,-0.031444572,0.0098014325
OrientationDeg,1676594984633,32041455103806,207.0,0.0,-4.0
UncalMag,1676594984639,32041461420600,-165.1514,746.6156,394.5358,-177.00775,769.7961,430.15182
UncalGyro,1676594984641,32041463596879,1.374905,0.63285637,-0.6377433,-0.00035909755,-0.0017173546,-0.00032498047
UncalAccel,1676594984641,32041463596879,2.9395826,3.103491,8.71466,0.037048545,-0.031444572,0.0098014325
OrientationDeg,1676594984641,32041463596879,207.0,0.0,-4.0
UncalMag,1676594984649,32041471423733,-165.1514,746.7254,395.0482,-177.00775,769.7961,430.15182
UncalGyro,1676594984650,32041472065639,1.1551461,0.50625455,-0.63407815,-0.00035909755,-0.0017173546,-0.00032498047
UncalAccel,1676594984650,32041472065639,2.2420747,3.5682967,8.874381,0.037048545,-0.031444572,0.0098014325
OrientationDeg,1676594984650,32041472065639,207.0,0.0,-5.0
UncalGyro,1676594984658,32041480543789,0.8914051,0.313832,-0.6977608,-0.00035909755,-0.0017173546,-0.00032498047
UncalAccel,1676594984658,32041480543789,1.6253247,3.8087754,8.730812,0.037048545,-0.031444572,0.0098014325
UncalMag,1676594984659,32041481409858,-163.8094,746.2984,394.66998,-177.00775,769.7961,430.15182
OrientationDeg,1676594984658,32041480543789,208.0,0.0,-5.0
UncalGyro,1676594984667,32041489024217,0.643852,0.10125092,-0.80771655,-0.00035909755,-0.0017173546,-0.00032498047
UncalAccel,1676594984667,32041489024217,1.0157533,3.8285162,8.99462,0.037048545,-0.031444572,0.0098014325
OrientationDeg,1676594984667,32041489024217,208.0,0.0,-6.0
UncalMag,1676594984669,32041491420234,-164.5414,746.2862,394.56018,-177.00775,769.7961,430.15182
UncalGyro,1676594984675,32041497503984,0.44226643,-0.059406646,-0.9460775,-0.00035909755,-0.0017173546,-0.00032498047
UncalAccel,1676594984675,32041497503984,0.5694918,3.609573,9.3409815,0.037048545,-0.031444572,0.0098014325
OrientationDeg,1676594984675,32041497503984,208.0,0.0,-6.0
UncalMag,1676594984679,32041501420234,-164.761,746.2984,395.0482,-177.00775,769.7961,430.15182
UncalGyro,1676594984683,32041505975837,0.28725937,-0.14920384,-1.10139,-0.00035909755,-0.0017173546,-0.00032498047
UncalAccel,1676594984683,32041505975837,0.40737805,3.2823544,9.470792,0.037048545,-0.031444572,0.0098014325
OrientationDeg,1676594984683,32041505975837,209.0,0.0,-6.0
UncalMag,1676594984689,32041511420275,-164.2486,746.11536,394.6334,-177.00775,769.7961,430.15182
UncalGyro,1676594984692,32041514464435,0.18127427,-0.1919644,-1.2554808,-0.00035909755,-0.0017173546,-0.00032498047
UncalAccel,1676594984692,32041514464435,0.5341976,2.8570302,9.445069,0.037048545,-0.031444572,0.0098014325
OrientationDeg,1676594984692,32041514464435,210.0,0.0,-6.0
UncalMag,1676594984699,32041521420560,-164.334,746.3838,394.9384,-177.00775,769.7961,430.15182
UncalGyro,1676594984700,32041522947954,0.13057245,-0.1956296,-1.3808609,-0.00035909755,-0.0017173546,-0.00032498047
UncalAccel,1676594984700,32041522947954,0.933799,2.5148566,9.348758,0.037048545,-0.031444572,0.0098014325
OrientationDeg,1676594984700,32041522947954,210.0,0.0,-6.0
UncalGyro,1676594984709,32041531428810,0.13225232,-0.15714508,-1.4625641,-0.00035909755,-0.0017173546,-0.00032498047
UncalAccel,1676594984709,32041531428810,1.4189439,2.091327,9.325428,0.037048545,-0.031444572,0.0098014325
OrientationDeg,1676594984709,32041531428810,211.0,0.0,-6.0
UncalMag,1676594984709,32041531429838,-163.48,746.66437,394.98718,-177.00775,769.7961,430.15182
UncalGyro,1676594984718,32041539908139,0.18509217,-0.11636983,-1.4923438,-0.00035909755,-0.0017173546,-0.00032498047
UncalAccel,1676594984717,32041539908139,1.8490537,1.5391831,9.135199,0.037048545,-0.031444572,0.0098014325
UncalMag,1676594984719,32041541410104,-163.2726,746.579,394.8408,-177.00775,769.7961,430.15182
OrientationDeg,1676594984717,32041539908139,212.0,0.0,-6.0
UncalGyro,1676594984726,32041548391996,0.269697,-0.09483683,-1.4752395,-0.00035909755,-0.0017173546,-0.00032498047
UncalAccel,1676594984726,32041548391996,2.1445673,1.0283155,8.9826565,0.037048545,-0.031444572,0.0098014325
OrientationDeg,1676594984726,32041548391996,212.0,0.0,-7.0
UncalMag,1676594984729,32041551420520,-162.49179,745.81036,394.87738,-177.00775,769.7961,430.15182
