# 
# Header Description:
# 
# Version: v3.0.5.6 Platform: 13 Manufacturer: Google Model: Pixel 7
# 
# Raw,utcTimeMillis,TimeNanos,LeapSecond,TimeUncertaintyNanos,FullBiasNanos,BiasNanos,BiasUncertaintyNanos,DriftNanosPerSecond,DriftUncertaintyNanosPerSecond,HardwareClockDiscontinuityCount,Svid,TimeOffsetNanos,State,ReceivedSvTimeNanos,ReceivedSvTimeUncertaintyNanos,Cn0DbHz,PseudorangeRateMetersPerSecond,PseudorangeRateUncertaintyMetersPerSecond,AccumulatedDeltaRangeState,AccumulatedDeltaRangeMeters,AccumulatedDeltaRangeUncertaintyMeters,CarrierFrequencyHz,CarrierCycles,CarrierPhase,CarrierPhaseUncertainty,MultipathIndicator,SnrInDb,ConstellationType,AgcDb,BasebandCn0DbHz,FullInterSignalBiasNanos,FullInterSignalBiasUncertaintyNanos,SatelliteInterSignalBiasNanos,SatelliteInterSignalBiasUncertaintyNanos,CodeType,ChipsetElapsedRealtimeNanos
# 
# UncalAccel,utcTimeMillis,elapsedRealtimeNanos,UncalAccelXMps2,UncalAccelYMps2,UncalAccelZMps2,BiasXMps2,BiasYMps2,BiasZMps2
# 
# Accel,utcTimeMillis,elapsedRealtimeNanos,AccelXMps2,AccelYMps2,AccelZMps2
# 
# UncalGyro,utcTimeMillis,elapsedRealtimeNanos,UncalGyroXRadPerSec,UncalGyroYRadPerSec,UncalGyroZRadPerSec,DriftXRadPerSec,DriftYRadPerSec,DriftZRadPerSec
# 
# Gyro,utcTimeMillis,elapsedRealtimeNanos,GyroXRadPerSec,GyroYRadPerSec,GyroZRadPerSec
# 
# UncalMag,utcTimeMillis,elapsedRealtimeNanos,UncalMagXMicroT,UncalMagYMicroT,UncalMagZMicroT,BiasXMicroT,BiasYMicroT,BiasZMicroT
# 
# Mag,utcTimeMillis,elapsedRealtimeNanos,MagXMicroT,MagYMicroT,MagZMicroT
# 
# OrientationDeg,utcTimeMillis,elapsedRealtimeNanos,yawDeg,rollDeg,pitchDeg
# 
# Fix,Provider,LatitudeDegrees,LongitudeDegrees,AltitudeMeters,SpeedMps,AccuracyMeters,BearingDegrees,UnixTimeMillis,SpeedAccuracyMps,BearingAccuracyDegrees,elapsedRealtimeNanos,VerticalAccuracyMeters
# 
# Nav,Svid,Type,Status,MessageId,Sub-messageId,Data(Bytes)
# 
# Status,UnixTimeMillis,SignalCount,SignalIndex,ConstellationType,Svid,CarrierFrequencyHz,Cn0DbHz,AzimuthDegrees,ElevationDegrees,UsedInFix,HasAlmanacData,HasEphemerisData,BasebandCn0DbHz
# 
UncalAccel,1676592604497,29661319609894,-1.5888343,2.3114667,9.759128,0.037048545,-0.031444572,0.0098014325
UncalAccel,1676592604505,29661327466991,-1.602593,2.268396,9.7399845,0.037048545,-0.031444572,0.0098014325
UncalMag,1676592604511,29661333681387,-145.81439,755.4728,398.2324,-174.57417,771.0116,430.86337
UncalAccel,1676592604514,29661336519095,-1.5918252,2.120041,9.650253,0.037048545,-0.031444572,0.0098014325
UncalMag,1676592604521,29661343691438,-146.1438,755.2044,398.1714,-174.57417,771.0116,430.86337
UncalGyro,1676592604522,29661344512025,-0.258396,-0.1731803,-0.099571034,0.001349248,-0.0016869385,-0.00032976703
UncalAccel,1676592604522,29661344512025,-1.4817554,1.9627128,9.728021,0.037048545,-0.031444572,0.0098014325
UncalGyro,1676592604530,29661352897370,-0.21685717,-0.17959438,-0.081855945,0.001349248,-0.0016869383,-0.00032976703
UncalAccel,1676592604530,29661352897370,-1.3914263,1.9004993,9.857831,0.037048545,-0.031444572,0.0098014325
UncalMag,1676592604531,29661353680859,-145.7168,755.3142,398.42758,-174.57417,771.0116,430.86337
UncalGyro,1676592604540,29661361379894,-0.13729197,-0.15897769,-0.053145275,0.001349248,-0.0016869383,-0.00032976703
UncalAccel,1676592604539,29661361379894,-1.3196417,1.8771694,9.887143,0.037048545,-0.031444572,0.0098014325
UncalMag,1676592604541,29661363682690,-145.241,754.5456,398.7204,-174.57417,771.0116,430.86337
UncalGyro,1676592604547,29661369860047,-0.04153884,-0.123547494,-0.022449298,0.001349248,-0.0016869383,-0.00032976703
UncalAccel,1676592604547,29661369860047,-1.2807583,1.8484555,9.849456,0.037048545,-0.031444572,0.0098014325
UncalMag,1676592604551,29661373682731,-145.20439,755.13116,398.0128,-174.57417,771.0116,430.86337
UncalGyro,1676592604556,29661378339622,0.04810564,-0.08903361,0.001985312,0.001349248,-0.0016869383,-0.00032976703
UncalAccel,1676592604556,29661378339622,-1.3334004,1.8532411,9.79143,0.037048545,-0.031444572,0.0098014325
UncalMag,1676592604561,29661383678174,-145.0946,755.22876,398.025,-174.57417,771.0116,430.86337
UncalGyro,1676592604564,29661386831524,0.116980694,-0.06536258,0.014049901,0.001349248,-0.0016869383,-0.00032976703
UncalAccel,1676592604564,29661386831524,-1.39023,1.9010975,9.700503,0.037048545,-0.031444572,0.0098014325
UncalMag,1676592604571,29661393681063,-145.6192,755.22876,398.4032,-174.57417,771.0116,430.86337
UncalGyro,1676592604573,29661395302634,0.15958855,-0.059864793,0.013439035,0.001349248,-0.0016869383,-0.00032976703
UncalAccel,1676592604573,29661395302634,-1.3854443,1.9345971,9.680762,0.037048545,-0.031444572,0.0098014325
OrientationDeg,1676592604573,29661395302634,250.0,8.0,-11.0
UncalMag,1676592604581,29661403682121,-145.22879,754.7164,398.757,-174.57417,771.0116,430.86337
UncalGyro,1676592604581,29661403783073,0.17592919,-0.07086037,0.00580322,0.001349248,-0.0016869383,-0.00032976703
UncalAccel,1676592604581,29661403783073,-1.3716856,1.9298115,9.73819,0.037048545,-0.031444572,0.0098014325
OrientationDeg,1676592604581,29661403783073,250.0,8.0,-11.0
UncalGyro,1676592604590,29661412262677,0.17928895,-0.10262536,-0.0053450707,0.001349248,-0.0016869383,-0.00032976703
UncalAccel,1676592604590,29661412262677,-1.2867404,1.9441684,9.868001,0.037048545,-0.031444572,0.0098014325
UncalMag,1676592604592,29661413680779,-145.22879,754.7896,398.1714,-174.57417,771.0116,430.86337
OrientationDeg,1676592604590,29661412262677,250.0,8.0,-11.0
UncalGyro,1676592604598,29661420743939,0.19532417,-0.15577064,-0.02443461,0.001349248,-0.0016869383,-0.00032976703
UncalAccel,1676592604598,29661420743939,-1.3058829,1.9872392,9.876974,0.037048545,-0.031444572,0.0098014325
OrientationDeg,1676592604598,29661420743939,250.0,8.0,-11.0
UncalMag,1676592604601,29661423691806,-145.3142,754.9726,398.33,-174.57417,771.0116,430.86337
UncalGyro,1676592604607,29661429219861,0.22861631,-0.21365012,-0.053450707,0.001349248,-0.0016869383,-0.00032976703
UncalAccel,1676592604607,29661429219861,-1.4153546,1.905285,9.881161,0.037048545,-0.031444572,0.0098014325
OrientationDeg,1676592604607,29661429219861,250.0,8.0,-11.0
UncalMag,1676592604611,29661433684035,-145.6436,754.8628,397.8298,-174.57417,771.0116,430.86337
UncalGyro,1676592604615,29661437710524,0.26450464,-0.2350304,-0.08124508,0.001349248,-0.0016869383,-0.00032976703
UncalAccel,1676592604615,29661437710524,-1.4297116,1.8765712,9.919446,0.037048545,-0.031444572,0.0098014325
OrientationDeg,1676592604615,29661437710524,250.0,8.0,-11.0
UncalMag,1676592604621,29661443691440,-145.3386,754.6188,398.5008,-174.57417,771.0116,430.86337
UncalGyro,1676592604624,29661446184818,0.2930626,-0.24144448,-0.11881329,0.001349248,-0.0016869383,-0.00032976703
UncalAccel,1676592604624,29661446184818,-1.416551,2.1062822,9.875777,0.037048545,-0.031444572,0.0098014325
OrientationDeg,1676592604624,29661446184818,250.0,8.0,-11.0
UncalMag,1676592604631,29661453691441,-146.0462,755.13116,398.26898,-174.57417,771.0116,430.86337
UncalGyro,1676592604632,29661454673293,0.31230485,-0.23518312,-0.16707164,0.001349248,-0.0016869383,-0.00032976703
UncalAccel,1676592604632,29661454673293,-1.3692927,2.2265215,9.875179,0.037048545,-0.031444572,0.0098014325
OrientationDeg,1676592604632,29661454673293,250.0,7.0,-11.0
UncalGyro,1676592604641,29661463143894,0.3231477,-0.21090123,-0.20341812,0.001349248,-0.0016869383,-0.00032976703
UncalAccel,1676592604641,29661463143894,-1.3686945,2.111666,9.894919,0.037048545,-0.031444572,0.0098014325
OrientationDeg,1676592604641,29661463143894,250.0,7.0,-12.0
UncalMag,1676592604641,29661463680862,-145.9608,754.7774,398.3056,-174.57417,771.0116,430.86337
UncalGyro,1676592604649,29661471635858,0.322995,-0.19120082,-0.21777347,0.001349248,-0.0016869383,-0.00032976703
UncalAccel,1676592604649,29661471635858,-1.3537394,2.0733807,9.857233,0.037048545,-0.031444572,0.0098014325
OrientationDeg,1676592604649,29661471635858,250.0,7.0,-12.0
UncalMag,1676592604651,29661473681269,-146.0706,754.6676,397.5614,-174.57417,771.0116,430.86337
UncalGyro,1676592604658,29661480115269,0.32513303,-0.18646662,-0.21151209,0.001349248,-0.0016869383,-0.00032976703
UncalAccel,1676592604658,29661480115269,-1.2340983,1.9830518,9.911072,0.037048545,-0.031444572,0.0098014325
OrientationDeg,1676592604658,29661480115269,251.0,7.0,-12.0
UncalMag,1676592604661,29661483691523,-146.1804,754.49677,397.8786,-174.57417,771.0116,430.86337
UncalGyro,1676592604666,29661488595829,0.34406984,-0.18203785,-0.19181168,0.001349248,-0.0016869383,-0.00032976703
UncalAccel,1676592604666,29661488595829,-1.1736795,1.9782661,10.082756,0.037048545,-0.031444572,0.0098014325
OrientationDeg,1676592604667,29661488595829,251.0,7.0,-12.0
UncalMag,1676592604671,29661493681473,-146.63179,754.0454,397.659,-174.57417,771.0116,430.86337
UncalGyro,1676592604675,29661497066299,0.38744128,-0.1740966,-0.17623462,0.001349248,-0.0016869383,-0.00032976703
UncalAccel,1676592604675,29661497066299,-1.2119647,1.9830518,10.121041,0.037048545,-0.031444572,0.0098014325
OrientationDeg,1676592604675,29661497066299,251.0,7.0,-12.0
Fix,FLP,37.4307914000,-122.1550555000,-16.100000381469727,0.96060234,9.849,162.40149,1676592604581,,,29661403954666,2.7322948
UncalMag,1676592604681,29661503688553,-145.38739,753.777,396.4756,-174.57417,771.0116,430.86337
UncalGyro,1676592604683,29661505555160,0.45265114,-0.16982053,-0.18051068,0.001349248,-0.0016869383,-0.00032976703
UncalAccel,1676592604683,29661505555160,-1.3369896,1.9914266,10.186844,0.037048545,-0.031444572,0.0098014325
OrientationDeg,1676592604683,29661505555160,251.0,7.0,-12.0
UncalMag,1676592604691,29661513674800,-146.1072,753.9966,398.2446,-174.57417,771.0116,430.86337
UncalGyro,1676592604692,29661514037430,0.5305365,-0.17241672,-0.21212296,0.001349248,-0.0016869383,-0.00032976703
UncalAccel,1676592604692,29661514037430,-1.4961123,2.0859432,10.342976,0.037048545,-0.031444572,0.0098014325
OrientationDeg,1676592604692,29661514037430,251.0,7.0,-13.0
UncalGyro,1676592604700,29661522517735,0.61529404,-0.22113322,-0.27779096,0.001349248,-0.0016869383,-0.00032976703
UncalAccel,1676592604700,29661522517735,-1.4721842,2.105684,10.30469,0.037048545,-0.031444572,0.0098014325
UncalMag,1676592604701,29661523681392,-146.5098,754.3138,397.72,-174.57417,771.0116,430.86337
OrientationDeg,1676592604700,29661522517735,251.0,7.0,-13.0
UncalGyro,1676592604708,29661530989182,0.68416905,-0.34132096,-0.3483459,0.001349248,-0.0016869383,-0.00032976703
UncalAccel,1676592604708,29661530989182,-1.4129617,1.9908284,10.152746,0.037048545,-0.031444572,0.0098014325
OrientationDeg,1676592604708,29661530989182,251.0,7.0,-13.0
UncalMag,1676592604711,29661533691524,-146.1072,753.9844,398.1226,-174.57417,771.0116,430.86337
UncalGyro,1676592604717,29661539480047,0.7118107,-0.50915617,-0.44257188,0.001349248,-0.0016869383,-0.00032976703
UncalAccel,1676592604717,29661539480047,-1.4871392,1.7898313,9.976874,0.037048545,-0.031444572,0.0098014325
OrientationDeg,1676592604717,29661539480047,252.0,7.0,-13.0
UncalMag,1676592604721,29661543691768,-146.6928,754.6798,398.3056,-174.57417,771.0116,430.86337
UncalGyro,1676592604725,29661547961910,0.68691796,-0.6934848,-0.5723807,0.001349248,-0.0016869383,-0.00032976703
UncalAccel,1676592604725,29661547961910,-1.5188441,1.4925231,9.930812,0.037048545,-0.031444572,0.0098014325
OrientationDeg,1676592604725,29661547961910,252.0,6.0,-14.0
UncalMag,1676592604731,29661553691443,-146.6806,754.8384,397.73218,-174.57417,771.0116,430.86337
UncalGyro,1676592604734,29661556440263,0.61651576,-0.8877399,-0.73746705,0.001349248,-0.0016869383,-0.00032976703
UncalAccel,1676592604734,29661556440263,-1.5326029,1.1617154,10.066007,0.037048545,-0.031444572,0.0098014325
OrientationDeg,1676592604734,29661556440263,252.0,6.0,-14.0
UncalMag,1676592604741,29661563691769,-147.0344,754.3016,397.36618,-174.57417,771.0116,430.86337
UncalGyro,1676592604742,29661564911994,0.50961435,-0.9932669,-0.97020674,0.001349248,-0.0016869383,-0.00032976703
UncalAccel,1676592604742,29661564911994,-1.7682959,1.0785648,10.322637,0.037048545,-0.031444572,0.0098014325
OrientationDeg,1676592604742,29661564911994,253.0,6.0,-14.0
UncalGyro,1676592604751,29661573415666,0.39370266,-1.2267702,-1.2873985,0.001349248,-0.0016869383,-0.00032976703
UncalAccel,1676592604751,29661573415666,-1.4153546,1.0863415,9.799805,0.037048545,-0.031444572,0.0098014325
OrientationDeg,1676592604751,29661573415666,254.0,5.0,-14.0
UncalMag,1676592604752,29661573703936,-147.53459,754.631,397.3418,-174.57417,771.0116,430.86337
UncalGyro,1676592604759,29661581882168,0.2770274,-1.5549575,-1.6830865,0.001349248,-0.0016869383,-0.00032976703
UncalAccel,1676592604759,29661581882168,-1.204188,0.9726824,9.792028,0.037048545,-0.031444572,0.0098014325
OrientationDeg,1676592604759,29661581882168,254.0,5.0,-14.0
UncalMag,1676592604761,29661583691525,-147.40039,755.058,396.9514,-174.57417,771.0116,430.86337
UncalGyro,1676592604768,29661590362332,0.15943582,-1.9010127,-2.1470387,0.001349248,-0.0016869383,-0.00032976703
UncalAccel,1676592604768,29661590362332,-1.012164,0.81595254,9.836894,0.037048545,-0.031444572,0.0098014325
OrientationDeg,1676592604768,29661590362332,256.0,4.0,-14.0
UncalMag,1676592604771,29661593681923,-148.32759,755.2044,396.78058,-174.57417,771.0116,430.86337
UncalGyro,1676592604776,29661598832852,0.04138612,-2.2292,-2.6455047,0.001349248,-0.0016869383,-0.00032976703
UncalAccel,1676592604776,29661598832852,-0.5192425,0.401396,10.033105,0.037048545,-0.031444572,0.0098014325
OrientationDeg,1676592604776,29661598832852,257.0,3.0,-14.0
UncalMag,1676592604781,29661603681679,-148.474,756.30237,395.707,-174.57417,771.0116,430.86337
UncalGyro,1676592604785,29661607324868,-0.07391469,-2.4964535,-3.1285462,0.001349248,-0.0016869383,-0.00032976703
UncalAccel,1676592604785,29661607324868,0.23688944,-0.025124637,10.307682,0.037048545,-0.031444572,0.0098014325
OrientationDeg,1676592604785,29661607324868,259.0,3.0,-14.0
UncalMag,1676592604791,29661613699054,-148.9742,756.7416,395.951,-174.57417,771.0116,430.86337
UncalGyro,1676592604793,29661615804064,-0.19486602,-2.6638305,-3.5659258,0.001349248,-0.0016869383,-0.00032976703
UncalAccel,1676592604793,29661615804064,1.125823,-0.51864433,10.721042,0.037048545,-0.031444572,0.0098014325
OrientationDeg,1676592604793,29661615804064,260.0,2.0,-14.0
UncalMag,1676592604801,29661623691526,-149.7184,758.1812,395.219,-174.57417,771.0116,430.86337
UncalGyro,1676592604802,29661624282305,-0.2948952,-2.722321,-3.883423,0.001349248,-0.0016869383,-0.00032976703
UncalAccel,1676592604802,29661624282305,2.1996021,-0.91884387,10.720444,0.037048545,-0.031444572,0.0098014325
OrientationDeg,1676592604802,29661624282305,262.0,1.0,-14.0
UncalGyro,1676592604810,29661632754454,-0.33505958,-2.7247643,-4.0598106,0.001349248,-0.0016869383,-0.00032976703
UncalAccel,1676592604810,29661632754454,2.7822545,-1.082154,10.281361,0.037048545,-0.031444572,0.0098014325
UncalMag,1676592604811,29661633681029,-150.1576,759.3402,393.206,-174.57417,771.0116,430.86337
OrientationDeg,1676592604810,29661632754454,264.0,0.0,-14.0
UncalGyro,1676592604819,29661641249957,-0.31871894,-2.7209466,-4.1225767,0.001349248,-0.0016869383,-0.00032976703
UncalAccel,1676592604819,29661641249957,3.074179,-1.1754742,9.681958,0.037048545,-0.031444572,0.0098014325
OrientationDeg,1676592604819,29661641249957,266.0,0.0,-13.0
UncalMag,1676592604821,29661643681761,-150.81639,760.6212,392.6814,-174.57417,771.0116,430.86337
UncalGyro,1676592604827,29661649727507,-0.27565295,-2.731484,-4.0888267,0.001349248,-0.0016869383,-0.00032976703
UncalAccel,1676592604827,29661649727507,3.269792,-1.3124632,9.1974125,0.037048545,-0.031444572,0.0098014325
OrientationDeg,1676592604827,29661649727507,268.0,-1.0,-13.0
UncalMag,1676592604831,29661653691690,-151.8168,761.2556,391.5346,-174.57417,771.0116,430.86337
UncalGyro,1676592604836,29661658200489,-0.22937989,-2.7826438,-3.9866593,0.001349248,-0.0016869383,-0.00032976703
UncalAccel,1676592604836,29661658200489,3.5754752,-1.4291133,8.698508,0.037048545,-0.031444572,0.0098014325
OrientationDeg,1676592604836,29661658200489,270.0,-2.0,-13.0
UncalMag,1676592604841,29661663680907,-152.2804,762.2926,391.4248,-174.57417,771.0116,430.86337
UncalGyro,1676592604844,29661666677479,-0.17104226,-2.9153545,-3.793015,0.001349248,-0.0016869383,-0.00032976703
UncalAccel,1676592604844,29661666677479,4.0157547,-1.6073786,8.177471,0.037048545,-0.031444572,0.0098014325
OrientationDeg,1676592604844,29661666677479,272.0,-2.0,-13.0
UncalMag,1676592604851,29661673691446,-153.28079,763.049,391.1442,-174.57417,771.0116,430.86337
UncalGyro,1676592604853,29661675168598,-0.14782938,-2.993087,-3.5604281,0.001349248,-0.0016869383,-0.00032976703
UncalAccel,1676592604853,29661675168598,3.9601214,-1.2017952,8.924032,0.037048545,-0.031444572,0.0098014325
OrientationDeg,1676592604853,29661675168598,274.0,-4.0,-13.0
UncalGyro,1676592604861,29661683638223,-0.19822577,-2.9625437,-3.37106,0.001349248,-0.0016869383,-0.00032976703
UncalAccel,1676592604861,29661683638223,3.772285,-0.6047859,9.27817,0.037048545,-0.031444572,0.0098014325
UncalMag,1676592604861,29661683681070,-154.1592,763.9518,390.05838,-174.57417,771.0116,430.86337
OrientationDeg,1676592604861,29661683638223,276.0,-5.0,-13.0
UncalGyro,1676592604870,29661692125488,-0.29520062,-2.9390254,-3.215289,0.001349248,-0.0016869383,-0.00032976703
UncalAccel,1676592604870,29661692125488,3.7651064,-0.42711884,8.876176,0.037048545,-0.031444572,0.0098014325
UncalMag,1676592604871,29661693687703,-155.9038,764.5374,390.2414,-174.57417,771.0116,430.86337
OrientationDeg,1676592604870,29661692125488,277.0,-6.0,-13.0
UncalGyro,1676592604878,29661700610086,-0.41431937,-2.9361238,-3.065169,0.001349248,-0.0016869383,-0.00032976703
UncalAccel,1676592604878,29661700610086,3.8135612,-0.13878371,8.617152,0.037048545,-0.031444572,0.0098014325
OrientationDeg,1676592604878,29661700610086,279.0,-7.0,-13.0
UncalMag,1676592604881,29661703691610,-156.4772,765.3548,388.753,-174.57417,771.0116,430.86337
UncalGyro,1676592604887,29661709095967,-0.51175237,-2.8932104,-2.9330695,0.001349248,-0.0016869383,-0.00032976703
UncalAccel,1676592604887,29661709095967,3.7818563,0.4881358,8.547162,0.037048545,-0.031444572,0.0098014325
OrientationDeg,1676592604887,29661709095967,280.0,-8.0,-13.0
UncalMag,1676592604891,29661713681275,-157.5508,766.5504,388.58218,-174.57417,771.0116,430.86337
UncalGyro,1676592604895,29661717560801,-0.56596667,-2.7705793,-2.8185322,0.001349248,-0.0016869383,-0.00032976703
UncalAccel,1676592604895,29661717560801,3.7938204,0.7088737,8.703294,0.037048545,-0.031444572,0.0098014325
OrientationDeg,1676592604895,29661717560801,282.0,-9.0,-13.0
UncalMag,1676592604901,29661723691447,-158.6732,766.9408,388.0942,-174.57417,771.0116,430.86337
UncalGyro,1676592604904,29661726051331,-0.6062838,-2.5729644,-2.708271,0.001349248,-0.0016869383,-0.00032976703
UncalAccel,1676592604904,29661726051331,3.6137605,0.80757767,9.040682,0.037048545,-0.031444572,0.0098014325
OrientationDeg,1676592604904,29661726051331,283.0,-10.0,-13.0
UncalMag,1676592604911,29661733691366,-159.4906,767.3434,387.36218,-174.57417,771.0116,430.86337
UncalGyro,1676592604912,29661734532145,-0.6542367,-2.3373232,-2.6056457,0.001349248,-0.0016869383,-0.00032976703
UncalAccel,1676592604912,29661734532145,3.2482567,0.8386843,9.262616,0.037048545,-0.031444572,0.0098014325
OrientationDeg,1676592604912,29661734532145,285.0,-10.0,-13.0
UncalGyro,1676592604921,29661743013724,-0.6925685,-2.165212,-2.5190556,0.001349248,-0.0016869383,-0.00032976703
UncalAccel,1676592604921,29661743013724,2.7056842,0.7830512,8.968299,0.037048545,-0.031444572,0.0098014325
UncalMag,1676592604921,29661743680787,-160.3446,768.6976,386.7522,-174.57417,771.0116,430.86337
OrientationDeg,1676592604921,29661743013724,286.0,-11.0,-13.0
UncalGyro,1676592604929,29661751481863,-0.7328856,-2.1019874,-2.4443772,0.001349248,-0.0016869383,-0.00032976703
UncalAccel,1676592604929,29661751481863,2.321038,0.67058855,8.713464,0.037048545,-0.031444572,0.0098014325
UncalMag,1676592604931,29661753691733,-161.5524,769.454,386.5936,-174.57417,771.0116,430.86337
OrientationDeg,1676592604929,29661751481863,287.0,-12.0,-13.0
UncalGyro,1676592604937,29661759973837,-0.8028296,-2.1082487,-2.3657284,0.001349248,-0.0016869383,-0.00032976703
UncalAccel,1676592604937,29661759973837,2.2348964,0.6364908,8.722437,0.037048545,-0.031444572,0.0098014325
OrientationDeg,1676592604937,29661759973837,288.0,-13.0,-13.0
UncalMag,1676592604941,29661763691774,-162.67479,769.8688,386.4838,-174.57417,771.0116,430.86337
UncalGyro,1676592604946,29661768444103,-0.9120218,-2.1568124,-2.2779164,0.001349248,-0.0016869383,-0.00032976703
UncalAccel,1676592604946,29661768444103,2.2348964,0.7082755,8.688937,0.037048545,-0.031444572,0.0098014325
OrientationDeg,1676592604946,29661768444103,290.0,-13.0,-12.0
UncalMag,1676592604951,29661773681113,-162.748,770.308,386.5814,-174.57417,771.0116,430.86337
UncalGyro,1676592604955,29661776936220,-1.0555751,-2.2511911,-2.1826215,0.001349248,-0.0016869383,-0.00032976703
UncalAccel,1676592604954,29661776936220,2.2779672,0.95353985,8.530413,0.037048545,-0.031444572,0.0098014325
OrientationDeg,1676592604954,29661776936220,291.0,-14.0,-12.0
UncalMag,1676592604961,29661783691449,-164.273,771.1376,386.45938,-174.57417,771.0116,430.86337
UncalGyro,1676592604963,29661785413840,-1.219287,-2.3440428,-2.0711386,0.001349248,-0.0016869383,-0.00032976703
UncalAccel,1676592604963,29661785413840,2.3383858,1.0875379,8.639884,0.037048545,-0.031444572,0.0098014325
OrientationDeg,1676592604963,29661785413840,292.0,-15.0,-12.0
UncalMag,1676592604971,29661793691490,-165.16359,771.8086,386.03238,-174.57417,771.0116,430.86337
UncalGyro,1676592604971,29661793893659,-1.3880385,-2.364354,-1.9184223,0.001349248,-0.0016869383,-0.00032976703
UncalAccel,1676592604971,29661793893659,2.5226333,1.0881361,8.932407,0.037048545,-0.031444572,0.0098014325
OrientationDeg,1676592604971,29661793893659,293.0,-16.0,-12.0
UncalGyro,1676592604980,29661802381503,-1.539075,-2.2757785,-1.7343992,0.001349248,-0.0016869383,-0.00032976703
UncalAccel,1676592604980,29661802381503,2.5968108,1.0689936,9.233304,0.037048545,-0.031444572,0.0098014325
UncalMag,1676592604981,29661803681114,-166.2616,772.60156,384.3244,-174.57417,771.0116,430.86337
OrientationDeg,1676592604980,29661802381503,294.0,-17.0,-11.0
UncalGyro,1676592604988,29661810861046,-1.6595682,-2.075262,-1.5589281,0.001349248,-0.0016869383,-0.00032976703
UncalAccel,1676592604988,29661810861046,2.556731,1.0636097,9.495916,0.037048545,-0.031444572,0.0098014325
OrientationDeg,1676592604988,29661810861046,295.0,-18.0,-10.0
UncalMag,1676592604991,29661813681114,-167.5548,773.7484,385.5932,-174.57417,771.0116,430.86337
UncalGyro,1676592604997,29661819324882,-1.7415768,-1.7875444,-1.4194981,0.001349248,-0.0016869383,-0.00032976703
UncalAccel,1676592604997,29661819324882,2.5357938,1.0869397,9.734002,0.037048545,-0.031444572,0.0098014325
OrientationDeg,1676592604997,29661819324882,296.0,-18.0,-10.0
UncalMag,1676592605001,29661823680708,-168.0428,774.3462,385.3858,-174.57417,771.0116,430.86337
UncalGyro,1676592605005,29661827818078,-1.7765489,-1.4248432,-1.3306172,0.001349248,-0.0016869383,-0.00032976703
UncalAccel,1676592605005,29661827818078,2.4245276,1.076172,9.924232,0.037048545,-0.031444572,0.0098014325
OrientationDeg,1676592605005,29661827818078,297.0,-19.0,-9.0
UncalMag,1676592605011,29661833691572,-169.0432,775.2002,385.61758,-174.57417,771.0116,430.86337
UncalGyro,1676592605014,29661836300134,-1.779145,-1.0143417,-1.2895365,0.001349248,-0.0016869383,-0.00032976703
UncalAccel,1676592605014,29661836300134,2.3174486,1.0564312,10.195817,0.037048545,-0.031444572,0.0098014325
OrientationDeg,1676592605014,29661836300134,298.0,-19.0,-9.0
UncalMag,1676592605021,29661843691450,-169.48239,776.4812,384.8368,-174.57417,771.0116,430.86337
UncalGyro,1676592605022,29661844781060,-1.7705929,-0.5934556,-1.2922854,0.001349248,-0.0016869383,-0.00032976703
UncalAccel,1676592605022,29661844781060,2.0961127,0.9589237,10.390832,0.037048545,-0.031444572,0.0098014325
OrientationDeg,1676592605022,29661844781060,299.0,-19.0,-8.0
UncalGyro,1676592605031,29661853260298,-1.7429513,-0.21868975,-1.3150401,0.001349248,-0.0016869383,-0.00032976703
UncalAccel,1676592605031,29661853260298,1.8095721,0.86081797,10.412966,0.037048545,-0.031444572,0.0098014325
OrientationDeg,1676592605031,29661853260298,300.0,-19.0,-8.0
UncalMag,1676592605031,29661853681319,-169.93379,777.628,385.4956,-174.57417,771.0116,430.86337
UncalGyro,1676592605039,29661861722446,-1.687668,0.13561209,-1.3469579,0.001349248,-0.0016869383,-0.00032976703
UncalAccel,1676592605039,29661861722446,1.3824533,0.910469,10.596615,0.037048545,-0.031444572,0.0098014325
OrientationDeg,1676592605039,29661861722446,300.0,-19.0,-7.0
UncalMag,1676592605041,29661863681116,-170.007,778.2502,386.13,-174.57417,771.0116,430.86337
UncalGyro,1676592605048,29661870221623,-1.5968018,0.46746463,-1.3610078,0.001349248,-0.0016869383,-0.00032976703
UncalAccel,1676592605048,29661870221623,0.8805587,1.0133604,10.492527,0.037048545,-0.031444572,0.0098014325
OrientationDeg,1676592605048,29661870221623,301.0,-19.0,-6.0
UncalMag,1676592605051,29661873680790,-170.1656,778.95776,386.5448,-174.57417,771.0116,430.86337
UncalGyro,1676592605056,29661878702142,-1.491122,0.75151694,-1.3477215,0.001349248,-0.0016869383,-0.00032976703
UncalAccel,1676592605056,29661878702142,0.3260221,1.1826526,10.335199,0.037048545,-0.031444572,0.0098014325
OrientationDeg,1676592605056,29661878702142,302.0,-18.0,-6.0
UncalMag,1676592605061,29661883681116,-169.8118,779.7264,385.87378,-174.57417,771.0116,430.86337
UncalGyro,1676592605065,29661887179509,-1.4052955,0.93508196,-1.2938126,0.001349248,-0.0016869383,-0.00032976703
UncalAccel,1676592605065,29661887179509,-0.14536397,1.3956138,9.906285,0.037048545,-0.031444572,0.0098014325
OrientationDeg,1676592605065,29661887179509,303.0,-18.0,-6.0
UncalMag,1676592605071,29661893691452,-169.4702,780.0802,385.581,-174.57417,771.0116,430.86337
UncalGyro,1676592605073,29661895659611,-1.3715452,0.9837985,-1.19134,0.001349248,-0.0016869383,-0.00032976703
UncalAccel,1676592605073,29661895659611,-0.6305088,1.4895321,9.416355,0.037048545,-0.031444572,0.0098014325
OrientationDeg,1676592605073,29661895659611,304.0,-17.0,-5.0
UncalMag,1676592605081,29661903691615,-169.2994,781.3368,386.9718,-174.57417,771.0116,430.86337
UncalGyro,1676592605082,29661904141138,-1.4196508,0.88178396,-1.0467176,0.001349248,-0.0016869383,-0.00032976703
UncalAccel,1676592605082,29661904141138,-1.0516455,1.4446666,8.874381,0.037048545,-0.031444572,0.0098014325
OrientationDeg,1676592605082,29661904141138,304.0,-17.0,-5.0
UncalGyro,1676592605090,29661912622858,-1.5543466,0.64721173,-0.8587238,0.001349248,-0.0016869383,-0.00032976703
UncalAccel,1676592605090,29661912622858,-1.2813566,1.1706885,8.449655,0.037048545,-0.031444572,0.0098014325
UncalMag,1676592605091,29661913678106,-168.7992,780.9952,386.6302,-174.57417,771.0116,430.86337
OrientationDeg,1676592605090,29661912622858,305.0,-16.0,-4.0
UncalGyro,1676592605099,29661921107529,-1.7411187,0.3631594,-0.6238461,0.001349248,-0.0016869383,-0.00032976703
UncalAccel,1676592605099,29661921107529,-1.4697913,0.90149593,8.27797,0.037048545,-0.031444572,0.0098014325
UncalMag,1676592605101,29661923680873,-168.299,782.22736,386.7888,-174.57417,771.0116,430.86337
OrientationDeg,1676592605099,29661921107529,306.0,-16.0,-3.0
UncalGyro,1676592605107,29661929587671,-1.1362094,-0.28069258,0.33658674,0.001349248,-0.0016869383,-0.00032976703
UncalAccel,1676592605107,29661929587671,-8.096714,-2.8103702,15.05564,0.037048545,-0.031444572,0.0098014325
OrientationDeg,1676592605107,29661929587671,306.0,-16.0,-3.0
UncalMag,1676592605111,29661933684739,-168.9578,783.50836,386.50818,-174.57417,771.0116,430.86337
UncalGyro,1676592605116,29661938055751,1.1849259,-0.7583892,2.509129,0.001349248,-0.0016869383,-0.00032976703
UncalAccel,1676592605116,29661938055751,-9.635897,2.3288147,24.098116,0.037048545,-0.031444572,0.0098014325
OrientationDeg,1676592605117,29661938055751,304.0,-17.0,-3.0
UncalMag,1676592605121,29661943691453,-168.2258,783.52057,386.25198,-174.57417,771.0116,430.86337
UncalGyro,1676592605124,29661946548763,1.2261592,-0.40240747,2.547308,0.001349248,-0.0016869383,-0.00032976703
UncalAccel,1676592605124,29661946548763,-1.3034902,5.171488,13.669598,0.037048545,-0.031444572,0.0098014325
OrientationDeg,1676592605124,29661946548763,303.0,-17.0,-3.0
UncalMag,1676592605131,29661953691575,-169.1408,782.1054,386.0568,-174.57417,771.0116,430.86337
UncalGyro,1676592605133,29661955023962,0.5187773,0.047800206,2.042428,0.001349248,-0.0016869383,-0.00032976703
UncalAccel,1676592605133,29661955023962,1.5451652,1.6719848,11.313864,0.037048545,-0.031444572,0.0098014325
OrientationDeg,1676592605133,29661955023962,302.0,-17.0,-3.0
UncalGyro,1676592605141,29661963506263,-0.30573806,-0.09208794,1.7214183,0.001349248,-0.0016869383,-0.00032976703
UncalAccel,1676592605141,29661963506263,4.5948176,-0.41754755,6.0460644,0.037048545,-0.031444572,0.0098014325
UncalMag,1676592605141,29661963680955,-168.6162,782.1176,386.2886,-174.57417,771.0116,430.86337
OrientationDeg,1676592605141,29661963506263,301.0,-17.0,-3.0
UncalGyro,1676592605149,29661971986538,-1.016938,-0.5907067,1.5257887,0.001349248,-0.0016869383,-0.00032976703
UncalAccel,1676592605149,29661971986538,4.2717867,-0.77347994,5.931209,0.037048545,-0.031444572,0.0098014325
UncalMag,1676592605151,29661973691616,-168.6162,782.1176,386.2886,-174.57417,771.0116,430.86337
OrientationDeg,1676592605149,29661971986538,301.0,-17.0,-2.0
UncalGyro,1676592605158,29661980470089,-1.616044,-0.5511532,1.3868169,0.001349248,-0.0016869383,-0.00032976703
UncalAccel,1676592605158,29661980470089,3.463611,-0.65084773,9.6580305,0.037048545,-0.031444572,0.0098014325
OrientationDeg,1676592605158,29661980470089,300.0,-18.0,-1.0
UncalMag,1676592605161,29661983691739,-168.8846,782.7886,385.6054,-174.57417,771.0116,430.86337
UncalGyro,1676592605166,29661988949337,-2.130698,-0.064446285,1.31672,0.001349248,-0.0016869383,-0.00032976703
UncalAccel,1676592605166,29661988949337,2.9150562,-0.17647067,10.454242,0.037048545,-0.031444572,0.0098014325
OrientationDeg,1676592605166,29661988949337,300.0,-18.0,0.0
UncalMag,1676592605171,29661993692919,-168.2014,783.8988,387.0694,-174.57417,771.0116,430.86337
UncalGyro,1676592605175,29661997429532,-2.406809,0.1928807,1.2991576,0.001349248,-0.0016869383,-0.00032976703
UncalAccel,1676592605175,29661997429532,3.0233314,1.9770697,9.140582,0.037048545,-0.031444572,0.0098014325
OrientationDeg,1676592605175,29661997429532,300.0,-18.0,1.0
UncalMag,1676592605181,29662003691699,-168.7016,784.3014,386.4472,-174.57417,771.0116,430.86337
UncalGyro,1676592605183,29662005900713,-2.1557434,0.56428677,0.90026265,0.001349248,-0.0016869383,-0.00032976703
UncalAccel,1676592605183,29662005900713,4.2221355,3.016751,13.706088,0.037048545,-0.031444572,0.0098014325
OrientationDeg,1676592605183,29662005900713,300.0,-17.0,2.0
UncalMag,1676592605191,29662013690397,-168.543,785.20416,387.2646,-174.57417,771.0116,430.86337
UncalGyro,1676592605192,29662014382037,-1.9117028,0.6939429,0.46792278,0.001349248,-0.0016869383,-0.00032976703
UncalAccel,1676592605192,29662014382037,3.5880375,3.6311083,10.44826,0.037048545,-0.031444572,0.0098014325
OrientationDeg,1676592605192,29662014382037,300.0,-17.0,3.0
UncalGyro,1676592605200,29662022871691,-1.6820174,0.65087694,0.078343466,0.001349248,-0.0016869383,-0.00032976703
UncalAccel,1676592605200,29662022871691,4.938786,3.301497,9.193823,0.037048545,-0.031444572,0.0098014325
UncalMag,1676592605201,29662023680143,-167.7012,787.0586,387.6916,-174.57417,771.0116,430.86337
OrientationDeg,1676592605200,29662022871691,300.0,-17.0,3.0
UncalGyro,1676592605209,29662031352384,-1.365742,0.680962,-0.21991149,0.001349248,-0.0016869383,-0.00032976703
UncalAccel,1676592605209,29662031352384,6.355337,2.079961,8.684152,0.037048545,-0.031444572,0.0098014325
OrientationDeg,1676592605209,29662031352384,300.0,-16.0,4.0
UncalMag,1676592605211,29662033691740,-167.7012,787.0586,387.6916,-174.57417,771.0116,430.86337
UncalGyro,1676592605217,29662039821999,-1.0803152,0.7811439,-0.17837265,0.001349248,-0.0016869383,-0.00032976703
UncalAccel,1676592605217,29662039821999,8.278568,0.7220342,8.903693,0.037048545,-0.031444572,0.0098014325
OrientationDeg,1676592605217,29662039821999,300.0,-16.0,4.0
UncalMag,1676592605221,29662043691659,-167.2376,787.8028,388.8262,-174.57417,771.0116,430.86337
UncalGyro,1676592605226,29662048304177,-0.85047716,0.7545713,-0.014049901,0.001349248,-0.0016869383,-0.00032976703
UncalAccel,1676592605226,29662048304177,7.8556366,-0.19142582,9.172886,0.037048545,-0.031444572,0.0098014325
OrientationDeg,1676592605226,29662048304177,301.0,-16.0,5.0
UncalMag,1676592605231,29662053680795,-167.0302,787.7784,388.0942,-174.57417,771.0116,430.86337
UncalGyro,1676592605234,29662056783008,-0.6623306,0.5699373,0.10354166,0.001349248,-0.0016869383,-0.00032976703
UncalAccel,1676592605234,29662056783008,7.1784678,-0.2213361,10.208978,0.037048545,-0.031444572,0.0098014325
OrientationDeg,1676592605234,29662056783008,301.0,-15.0,5.0
UncalMag,1676592605241,29662063691456,-166.2616,788.2176,387.4476,-174.57417,771.0116,430.86337
UncalGyro,1676592605243,29662065274413,-0.5320636,0.46944994,0.1731803,0.001349248,-0.0016869383,-0.00032976703
UncalAccel,1676592605243,29662065274413,6.1184473,0.053240303,11.06501,0.037048545,-0.031444572,0.0098014325
OrientationDeg,1676592605243,29662065274413,301.0,-15.0,5.0
UncalMag,1676592605251,29662073680795,-166.591,788.15656,388.5334,-174.57417,771.0116,430.86337
UncalGyro,1676592605251,29662073745116,-0.33185256,0.24785857,0.12018774,0.001349248,-0.0016869383,-0.00032976703
UncalAccel,1676592605251,29662073745116,4.5912285,0.7926225,10.121041,0.037048545,-0.031444572,0.0098014325
OrientationDeg,1676592605251,29662073745116,301.0,-15.0,6.0
UncalGyro,1676592605260,29662082236815,-0.056505036,0.06658431,-0.05100725,0.001349248,-0.0016869383,-0.00032976703
UncalAccel,1676592605260,29662082236815,4.56072,1.1856437,10.0468645,0.037048545,-0.031444572,0.0098014325
UncalMag,1676592605261,29662083683156,-166.4324,788.9374,388.47238,-174.57417,771.0116,430.86337
OrientationDeg,1676592605260,29662082236815,301.0,-15.0,6.0
UncalGyro,1676592605268,29662090721648,0.21578814,0.05665775,-0.25442538,0.001349248,-0.0016869383,-0.00032976703
UncalAccel,1676592605268,29662090721648,4.9316072,0.9236295,10.551749,0.037048545,-0.031444572,0.0098014325
OrientationDeg,1676592605268,29662090721648,301.0,-15.0,5.0
UncalMag,1676592605271,29662093691742,-166.0298,788.69336,388.8872,-174.57417,771.0116,430.86337
UncalGyro,1676592605277,29662099196634,0.43233988,0.09468412,-0.39858958,0.001349248,-0.0016869383,-0.00032976703
UncalAccel,1676592605277,29662099196634,5.8971114,0.25902304,10.423136,0.037048545,-0.031444572,0.0098014325
OrientationDeg,1676592605277,29662099196634,301.0,-15.0,5.0
UncalMag,1676592605281,29662103681081,-165.8712,787.8272,388.9238,-174.57417,771.0116,430.86337
UncalGyro,1676592605285,29662107665182,0.5864306,0.11728613,-0.4801401,0.001349248,-0.0016869383,-0.00032976703
UncalAccel,1676592605285,29662107665182,6.4977098,0.028115666,10.217951,0.037048545,-0.031444572,0.0098014325
OrientationDeg,1676592605285,29662107665182,301.0,-15.0,5.0
UncalMag,1676592605291,29662113691661,-165.9566,788.15656,388.3992,-174.57417,771.0116,430.86337
UncalGyro,1676592605294,29662116158946,0.67057735,0.16554448,-0.49128836,0.001349248,-0.0016869383,-0.00032976703
UncalAccel,1676592605294,29662116158946,6.4719872,-0.39840496,10.158131,0.037048545,-0.031444572,0.0098014325
OrientationDeg,1676592605294,29662116158946,301.0,-15.0,4.0
UncalMag,1676592605301,29662123678518,-166.4934,787.9004,388.8262,-174.57417,771.0116,430.86337
UncalGyro,1676592605302,29662124635509,0.6881397,0.27656925,-0.45982882,0.001349248,-0.0016869383,-0.00032976703
UncalAccel,1676592605302,29662124635509,6.0191455,-0.8033902,10.233504,0.037048545,-0.031444572,0.0098014325
OrientationDeg,1676592605302,29662124635509,301.0,-15.0,4.0
UncalGyro,1676592605311,29662133118530,0.6577492,0.41080686,-0.42317688,0.001349248,-0.0016869383,-0.00032976703
UncalAccel,1676592605312,29662133118530,5.5429735,-1.0504491,10.14138,0.037048545,-0.031444572,0.0098014325
UncalMag,1676592605311,29662133682424,-166.51779,787.5466,388.387,-174.57417,771.0116,430.86337
OrientationDeg,1676592605311,29662133118530,301.0,-15.0,4.0
UncalGyro,1676592605319,29662141607930,0.6056729,0.5004513,-0.37140608,0.001349248,-0.0016869383,-0.00032976703
UncalAccel,1676592605319,29662141607930,5.0542397,-1.4650056,9.911072,0.037048545,-0.031444572,0.0098014325
UncalMag,1676592605321,29662143688488,-166.6398,787.1806,388.0576,-174.57417,771.0116,430.86337
OrientationDeg,1676592605319,29662141607930,301.0,-14.0,3.0
UncalGyro,1676592605328,29662150080811,0.5580254,0.5160284,-0.29871312,0.001349248,-0.0016869383,-0.00032976703
UncalAccel,1676592605328,29662150080811,4.418347,-1.9477576,9.541979,0.037048545,-0.031444572,0.0098014325
OrientationDeg,1676592605328,29662150080811,301.0,-14.0,3.0
UncalMag,1676592605331,29662153684093,-165.8102,787.10736,388.021,-174.57417,771.0116,430.86337
UncalGyro,1676592605336,29662158551433,0.55848354,0.47036624,-0.20906863,0.001349248,-0.0016869383,-0.00032976703
UncalAccel,1676592605336,29662158551433,3.738187,-2.3587248,9.315259,0.037048545,-0.031444572,0.0098014325
OrientationDeg,1676592605336,29662158551433,302.0,-14.0,3.0
UncalMag,1676592605341,29662163680838,-165.7248,786.7414,387.3256,-174.57417,771.0116,430.86337
UncalGyro,1676592605345,29662167041047,0.6586655,0.41783184,-0.101556346,0.001349248,-0.0016869383,-0.00032976703
UncalAccel,1676592605345,29662167041047,3.0903304,-2.6063821,9.135797,0.037048545,-0.031444572,0.0098014325
OrientationDeg,1676592605345,29662167041047,301.0,-14.0,2.0
UncalMag,1676592605351,29662173680879,-165.859,786.3876,387.2402,-174.57417,771.0116,430.86337
UncalGyro,1676592605353,29662175509004,0.86666507,0.36865717,0.022907447,0.001349248,-0.0016869383,-0.00032976703
UncalAccel,1676592605353,29662175509004,2.5722845,-2.7242286,8.827721,0.037048545,-0.031444572,0.0098014325
OrientationDeg,1676592605353,29662175509004,301.0,-14.0,2.0
UncalMag,1676592605361,29662183691459,-165.90779,785.5458,388.2528,-174.57417,771.0116,430.86337
UncalGyro,1676592605362,29662184000957,1.1371256,0.33948836,0.13607024,0.001349248,-0.0016869383,-0.00032976703
UncalAccel,1676592605362,29662184000957,2.2510478,-2.4915266,8.743374,0.037048545,-0.031444572,0.0098014325
OrientationDeg,1676592605362,29662184000957,301.0,-13.0,2.0
UncalGyro,1676592605370,29662192485567,1.4117095,0.35720345,0.2228131,0.001349248,-0.0016869383,-0.00032976703
UncalAccel,1676592605370,29662192485567,1.9902302,-2.1098714,8.840283,0.037048545,-0.031444572,0.0098014325
UncalMag,1676592605371,29662193681165,-165.2856,785.52136,387.2646,-174.57417,771.0116,430.86337
OrientationDeg,1676592605370,29662192485567,301.0,-13.0,1.0
UncalGyro,1676592605378,29662200963381,1.662317,0.39752057,0.2779437,0.001349248,-0.0016869383,-0.00032976703
UncalAccel,1676592605378,29662200963381,1.7240287,-1.6618153,8.955139,0.037048545,-0.031444572,0.0098014325
OrientationDeg,1676592605378,29662200963381,301.0,-13.0,0.0
UncalMag,1676592605381,29662203682101,-165.2124,785.009,387.3744,-174.57417,771.0116,430.86337
UncalGyro,1676592605387,29662209434490,1.8912388,0.44028112,0.29733866,0.001349248,-0.0016869383,-0.00032976703
UncalAccel,1676592605387,29662209434490,1.466202,-1.1796615,9.171091,0.037048545,-0.031444572,0.0098014325
OrientationDeg,1676592605387,29662209434490,300.0,-13.0,0.0
UncalMag,1676592605391,29662213697929,-164.95619,783.8744,387.35,-174.57417,771.0116,430.86337
UncalGyro,1676592605395,29662217928429,2.0906863,0.48502702,0.27840182,0.001349248,-0.0016869383,-0.00032976703
UncalAccel,1676592605395,29662217928429,1.0600204,-0.8141579,9.529416,0.037048545,-0.031444572,0.0098014325
OrientationDeg,1676592605395,29662217928429,300.0,-13.0,-1.0
UncalMag,1676592605401,29662223691379,-165.0416,782.65436,387.1792,-174.57417,771.0116,430.86337
UncalGyro,1676592605404,29662226405399,2.2537873,0.5331327,0.2228131,0.001349248,-0.0016869383,-0.00032976703
UncalAccel,1676592605404,29662226405399,0.5491528,-0.60717875,9.854242,0.037048545,-0.031444572,0.0098014325
OrientationDeg,1676592605404,29662226405399,299.0,-12.0,-2.0
UncalMag,1676592605411,29662233691419,-164.2364,781.9712,387.36218,-174.57417,771.0116,430.86337
UncalGyro,1676592605413,29662234885582,2.378862,0.5720753,0.12767084,0.001349248,-0.0016869383,-0.00032976703
UncalAccel,1676592605412,29662234885582,0.13339986,-0.41874397,10.318449,0.037048545,-0.031444572,0.0098014325
OrientationDeg,1676592605412,29662234885582,299.0,-12.0,-3.0
UncalGyro,1676592605421,29662243356825,2.462245,0.5682574,0.015271631,0.001349248,-0.0016869383,-0.00032976703
UncalAccel,1676592605421,29662243356825,-0.16570297,-0.3493521,10.597812,0.037048545,-0.031444572,0.0098014325
UncalMag,1676592605421,29662243682305,-164.09,781.0928,386.77658,-174.57417,771.0116,430.86337
OrientationDeg,1676592605421,29662243356825,299.0,-12.0,-4.0
UncalGyro,1676592605429,29662251848168,2.503631,0.51007247,-0.08323039,0.001349248,-0.0016869383,-0.00032976703
UncalAccel,1676592605429,29662251848168,-0.3924229,-0.37507495,10.9017,0.037048545,-0.031444572,0.0098014325
UncalMag,1676592605431,29662253677301,-163.8582,779.6776,386.069,-174.57417,771.0116,430.86337
OrientationDeg,1676592605429,29662251848168,299.0,-12.0,-5.0
UncalGyro,1676592605438,29662260327406,2.5105035,0.43478334,-0.15821409,0.001349248,-0.0016869383,-0.00032976703
UncalAccel,1676592605438,29662260327406,-0.49950173,-0.41934216,11.225927,0.037048545,-0.031444572,0.0098014325
OrientationDeg,1676592605438,29662260327406,299.0,-11.0,-6.0
UncalMag,1676592605441,29662263691624,-163.71179,778.5552,386.1666,-174.57417,771.0116,430.86337
UncalGyro,1676592605446,29662268807966,2.4857633,0.41279218,-0.19211712,0.001349248,-0.0016869383,-0.00032976703
UncalAccel,1676592605446,29662268807966,-0.46660042,-0.60598236,11.432308,0.037048545,-0.031444572,0.0098014325
OrientationDeg,1676592605446,29662268807966,298.0,-11.0,-8.0
UncalMag,1676592605451,29662273686212,-163.4556,777.6036,386.1666,-174.57417,771.0116,430.86337
UncalGyro,1676592605455,29662277285811,2.44285,0.4392121,-0.15683965,0.001349248,-0.0016869383,-0.00032976703
UncalAccel,1676592605455,29662277285811,-0.25064817,-0.89730847,11.516057,0.037048545,-0.031444572,0.0098014325
OrientationDeg,1676592605455,29662277285811,298.0,-11.0,-9.0
UncalMag,1676592605461,29662283691624,-163.3214,776.40796,386.8498,-174.57417,771.0116,430.86337
UncalGyro,1676592605463,29662285771102,2.4107797,0.4972443,-0.050549097,0.001349248,-0.0016869383,-0.00032976703
UncalAccel,1676592605463,29662285771102,0.026919255,-1.0486546,11.59502,0.037048545,-0.031444572,0.0098014325
OrientationDeg,1676592605463,29662285771102,298.0,-11.0,-10.0
UncalMag,1676592605471,29662293691502,-162.96759,775.34656,386.4716,-174.57417,771.0116,430.86337
UncalGyro,1676592605472,29662294236820,2.4081836,0.5821546,0.09712757,0.001349248,-0.0016869383,-0.00032976703
UncalAccel,1676592605472,29662294236820,0.3182454,-1.0666007,11.682957,0.037048545,-0.031444572,0.0098014325
OrientationDeg,1676592605472,29662294236820,298.0,-11.0,-11.0
UncalGyro,1676592605480,29662302730259,2.4397957,0.6947065,0.2753475,0.001349248,-0.0016869383,-0.00032976703
UncalAccel,1676592605480,29662302730259,0.5509474,-0.9068798,11.8079815,0.037048545,-0.031444572,0.0098014325
UncalMag,1676592605481,29662303681656,-162.9188,774.456,385.52,-174.57417,771.0116,430.86337
OrientationDeg,1676592605480,29662302730259,297.0,-10.0,-12.0
UncalGyro,1676592605489,29662311204309,2.4938574,0.8216137,0.44990227,0.001349248,-0.0016869383,-0.00032976703
UncalAccel,1676592605489,29662311204309,0.64845496,-0.5521438,11.925828,0.037048545,-0.031444572,0.0098014325
UncalMag,1676592605491,29662313691625,-162.3698,773.1994,387.0206,-174.57417,771.0116,430.86337
OrientationDeg,1676592605489,29662311204309,297.0,-10.0,-13.0
UncalGyro,1676592605497,29662319692693,2.552195,0.9431759,0.5804747,0.001349248,-0.0016869383,-0.00032976703
UncalAccel,1676592605497,29662319692693,0.5587241,0.0023928226,12.0227375,0.037048545,-0.031444572,0.0098014325
OrientationDeg,1676592605497,29662319692693,296.0,-10.0,-14.0
UncalMag,1676592605501,29662323688167,-161.711,771.96716,386.2276,-174.57417,771.0116,430.86337
UncalGyro,1676592605506,29662328160782,2.5798366,1.012051,0.6426302,0.001349248,-0.0016869383,-0.00032976703
UncalAccel,1676592605506,29662328160782,0.20997019,0.72382885,12.083755,0.037048545,-0.031444572,0.0098014325
OrientationDeg,1676592605506,29662328160782,296.0,-9.0,-16.0
UncalMag,1676592605511,29662333681168,-161.27179,770.674,386.3984,-174.57417,771.0116,430.86337
UncalGyro,1676592605514,29662336649246,2.5555549,1.010982,0.601855,0.001349248,-0.0016869383,-0.00032976703
UncalAccel,1676592605514,29662336649246,-0.19202402,1.6265212,12.095718,0.037048545,-0.031444572,0.0098014325
OrientationDeg,1676592605514,29662336649246,295.0,-9.0,-17.0
UncalMag,1676592605521,29662343691463,-160.6008,769.6736,387.35,-174.57417,771.0116,430.86337
UncalGyro,1676592605523,29662345133296,2.4947736,0.9839512,0.43967026,0.001349248,-0.0016869383,-0.00032976703
UncalAccel,1676592605523,29662345133296,-0.5449654,2.55374,11.993425,0.037048545,-0.031444572,0.0098014325
OrientationDeg,1676592605523,29662345133296,295.0,-9.0,-18.0
UncalGyro,1676592605531,29662353614732,2.447279,0.9468411,0.22540927,0.001349248,-0.0016869383,-0.00032976703
UncalAccel,1676592605531,29662353614732,-0.5922236,2.9659038,11.637493,0.037048545,-0.031444572,0.0098014325
UncalMag,1676592605531,29662353697445,-160.3568,768.4414,386.923,-174.57417,771.0116,430.86337
OrientationDeg,1676592605531,29662353614732,295.0,-8.0,-19.0
UncalGyro,1676592605540,29662362094407,2.4394903,0.923781,0.047036625,0.001349248,-0.0016869383,-0.00032976703
UncalAccel,1676592605540,29662362094407,-0.30209386,2.8773692,11.267802,0.037048545,-0.031444572,0.0098014325
UncalMag,1676592605541,29662363681128,-160.6496,767.1482,387.35,-174.57417,771.0116,430.86337
OrientationDeg,1676592605540,29662362094407,294.0,-8.0,-20.0
UncalGyro,1676592605548,29662370575099,2.4662156,0.9512699,-0.059406646,0.001349248,-0.0016869383,-0.00032976703
UncalAccel,1676592605548,29662370575099,-0.10827523,2.4717858,11.161322,0.037048545,-0.031444572,0.0098014325
OrientationDeg,1676592605548,29662370575099,294.0,-7.0,-22.0
UncalMag,1676592605551,29662373681779,-160.2836,766.2942,387.61838,-174.57417,771.0116,430.86337
UncalGyro,1676592605557,29662379046229,2.5062275,1.022283,-0.07727446,0.001349248,-0.0016869383,-0.00032976703
UncalAccel,1676592605557,29662379046229,-0.02751746,2.027319,10.944173,0.037048545,-0.031444572,0.0098014325
OrientationDeg,1676592605557,29662379046229,294.0,-7.0,-23.0
UncalMag,1676592605561,29662383681373,-159.71019,765.4402,388.1308,-174.57417,771.0116,430.86337
UncalGyro,1676592605565,29662387536984,2.531731,1.1328496,-0.0106901415,0.001349248,-0.0016869383,-0.00032976703
UncalAccel,1676592605565,29662387536984,-0.13100705,1.43689,11.156535,0.037048545,-0.031444572,0.0098014325
OrientationDeg,1676592605566,29662387536984,294.0,-6.0,-24.0
UncalMag,1676592605571,29662393691505,-158.966,763.7932,387.716,-174.57417,771.0116,430.86337
UncalGyro,1676592605574,29662396015774,2.5298984,1.261284,0.11835514,0.001349248,-0.0016869383,-0.00032976703
UncalAccel,1676592605574,29662396015774,0.12562318,1.1946167,10.892129,0.037048545,-0.031444572,0.0098014325
OrientationDeg,1676592605574,29662396015774,294.0,-6.0,-25.0
UncalMag,1676592605581,29662403691464,-158.6122,762.86597,388.57,-174.57417,771.0116,430.86337
UncalGyro,1676592605582,29662404486275,2.4788911,1.3353515,0.2576324,0.001349248,-0.0016869383,-0.00032976703
UncalAccel,1676592605582,29662404486275,0.33439696,1.5613167,10.214361,0.037048545,-0.031444572,0.0098014325
OrientationDeg,1676592605582,29662404486275,293.0,-5.0,-26.0
UncalGyro,1676592605590,29662412971962,2.4252877,1.3298537,0.35506544,0.001349248,-0.0016869383,-0.00032976703
UncalAccel,1676592605590,29662412971962,0.048454657,2.2121646,9.579067,0.037048545,-0.031444572,0.0098014325
OrientationDeg,1676592605590,29662412971962,293.0,-5.0,-27.0
UncalMag,1676592605591,29662413682431,-157.2092,760.20636,389.119,-174.57417,771.0116,430.86337
UncalGyro,1676592605599,29662421459206,2.4191792,1.2620476,0.4092797,0.001349248,-0.0016869383,-0.00032976703
UncalAccel,1676592605599,29662421459206,-0.48035914,2.42034,9.159127,0.037048545,-0.031444572,0.0098014325
OrientationDeg,1676592605599,29662421459206,293.0,-4.0,-29.0
UncalMag,1676592605601,29662423680804,-157.2092,760.20636,389.119,-174.57417,771.0116,430.86337
UncalGyro,1676592605607,29662429933774,2.462245,1.1982121,0.42332962,0.001349248,-0.0016869383,-0.00032976703
UncalAccel,1676592605607,29662429933774,-0.80997044,2.461018,9.109476,0.037048545,-0.031444572,0.0098014325
UncalMag,1676592605611,29662433681089,-156.831,759.45,389.8876,-174.57417,771.0116,430.86337
OrientationDeg,1676592605607,29662429933774,292.0,-4.0,-30.0
UncalGyro,1676592605616,29662438408903,2.543032,1.1879802,0.3932445,0.001349248,-0.0016869383,-0.00032976703
UncalAccel,1676592605616,29662438408903,-0.82013994,2.629114,9.046066,0.037048545,-0.031444572,0.0098014325
UncalMag,1676592605621,29662443680927,-156.4894,758.352,390.58298,-174.57417,771.0116,430.86337
UncalGyro,1676592605624,29662446884874,2.651766,1.1733195,0.35643986,0.001349248,-0.0016869383,-0.00032976703
UncalAccel,1676592605624,29662446884874,-0.8171489,2.7349963,8.592627,0.037048545,-0.031444572,0.0098014325
OrientationDeg,1676592605616,29662438408903,292.0,-4.0,-31.0
OrientationDeg,1676592605624,29662446884874,292.0,-3.0,-32.0
UncalMag,1676592605631,29662453683206,-155.7208,757.24176,390.91238,-174.57417,771.0116,430.86337
UncalGyro,1676592605633,29662455374948,2.767067,1.0940597,0.34238997,0.001349248,-0.0016869383,-0.00032976703
UncalAccel,1676592605633,29662455374948,-1.0803595,2.7343981,8.012965,0.037048545,-0.031444572,0.0098014325
OrientationDeg,1676592605633,29662455374948,291.0,-3.0,-34.0
UncalMag,1676592605641,29662463688902,-155.3548,754.753,392.12018,-174.57417,771.0116,430.86337
UncalGyro,1676592605641,29662463849811,2.8617508,0.95737857,0.35124752,0.001349248,-0.0016869383,-0.00032976703
UncalAccel,1676592605641,29662463849811,-1.4380864,2.7996025,7.771888,0.037048545,-0.031444572,0.0098014325
OrientationDeg,1676592605641,29662463849811,291.0,-3.0,-35.0
UncalGyro,1676592605650,29662472326882,2.9142854,0.84223044,0.35995236,0.001349248,-0.0016869383,-0.00032976703
UncalAccel,1676592605650,29662472326882,-1.774278,2.8642087,7.9507513,0.037048545,-0.031444572,0.0098014325
OrientationDeg,1676592605650,29662472326882,291.0,-2.0,-36.0
UncalMag,1676592605651,29662473681090,-155.3548,754.753,392.12018,-174.57417,771.0116,430.86337
UncalGyro,1676592605658,29662480805042,2.931237,0.78542,0.37568212,0.001349248,-0.0016869383,-0.00032976703
UncalAccel,1676592605658,29662480805042,-1.899303,2.6620152,8.208578,0.037048545,-0.031444572,0.0098014325
UncalMag,1676592605661,29662483687845,-154.57399,752.1178,393.6452,-174.57417,771.0116,430.86337
OrientationDeg,1676592605658,29662480805042,291.0,-2.0,-38.0
UncalGyro,1676592605667,29662489296181,2.9437597,0.7860308,0.4335616,0.001349248,-0.0016869383,-0.00032976703
UncalAccel,1676592605667,29662489296181,-1.7114664,2.2031915,8.355139,0.037048545,-0.031444572,0.0098014325
UncalMag,1676592605671,29662493683695,-154.57399,752.1178,393.6452,-174.57417,771.0116,430.86337
OrientationDeg,1676592605667,29662489296181,290.0,-2.0,-39.0
UncalGyro,1676592605675,29662497776214,2.979037,0.84039783,0.5510005,0.001349248,-0.0016869383,-0.00032976703
UncalAccel,1676592605675,29662497776214,-1.4273187,1.7449659,8.364112,0.037048545,-0.031444572,0.0098014325
OrientationDeg,1676592605675,29662497776214,290.0,-2.0,-41.0
UncalMag,1676592605681,29662503691467,-154.54959,750.8612,395.524,-174.57417,771.0116,430.86337
UncalGyro,1676592605684,29662506263844,3.055548,0.977079,0.70539665,0.001349248,-0.0016869383,-0.00032976703
UncalAccel,1676592605684,29662506263844,-0.9302098,1.2586247,8.79482,0.037048545,-0.031444572,0.0098014325
OrientationDeg,1676592605684,29662506263844,289.0,-2.0,-42.0
UncalMag,1676592605691,29662513691386,-153.9884,749.72656,394.9994,-174.57417,771.0116,430.86337
UncalGyro,1676592605692,29662514744731,3.1526756,1.2136365,0.89919364,0.001349248,-0.0016869383,-0.00032976703
UncalAccel,1676592605692,29662514744731,-0.61435723,0.81954175,9.042477,0.037048545,-0.031444572,0.0098014325
OrientationDeg,1676592605692,29662514744731,289.0,-2.0,-44.0
UncalGyro,1676592605701,29662523221578,3.1940618,1.485777,1.1343768,0.001349248,-0.0016869383,-0.00032976703
UncalAccel,1676592605701,29662523221578,-0.6095716,0.48035914,8.648259,0.037048545,-0.031444572,0.0098014325
UncalMag,1676592605701,29662523685812,-153.8786,746.5668,397.1466,-174.57417,771.0116,430.86337
OrientationDeg,1676592605701,29662523221578,288.0,-1.0,-45.0
UncalGyro,1676592605709,29662531705678,3.193909,1.788308,1.3686435,0.001349248,-0.0016869383,-0.00032976703
UncalAccel,1676592605709,29662531705678,-0.401396,0.43968117,7.752147,0.037048545,-0.031444572,0.0098014325
OrientationDeg,1676592605709,29662531705678,287.0,-1.0,-47.0
UncalMag,1676592605711,29662533691386,-153.8786,746.5668,397.1466,-174.57417,771.0116,430.86337
UncalGyro,1676592605718,29662540190267,3.2100968,2.0295997,1.5517504,0.001349248,-0.0016869383,-0.00032976703
UncalAccel,1676592605718,29662540190267,-0.20518455,0.78364944,6.157331,0.037048545,-0.031444572,0.0098014325
OrientationDeg,1676592605718,29662540190267,285.0,-1.0,-48.0
UncalMag,1676592605721,29662543681499,-153.5126,745.7494,398.513,-174.57417,771.0116,430.86337
UncalGyro,1676592605726,29662548656758,3.2750013,2.1082487,1.676825,0.001349248,-0.0016869383,-0.00032976703
UncalAccel,1676592605726,29662548656758,0.1052842,1.1437693,4.110271,0.037048545,-0.031444572,0.0098014325
OrientationDeg,1676592605726,29662548656758,284.0,-1.0,-50.0
UncalMag,1676592605731,29662553685283,-152.4512,742.73596,401.75818,-174.57417,771.0116,430.86337
UncalGyro,1676592605735,29662557148448,3.3982434,2.0040963,1.7870862,0.001349248,-0.0016869383,-0.00032976703
UncalAccel,1676592605735,29662557148448,0.5312066,1.3507484,2.00698,0.037048545,-0.031444572,0.0098014325
OrientationDeg,1676592605735,29662557148448,283.0,-1.0,-51.0
UncalMag,1676592605741,29662563691468,-152.9392,741.5404,403.18558,-174.57417,771.0116,430.86337
UncalGyro,1676592605743,29662565627382,3.5564575,1.7191275,1.920255,0.001349248,-0.0016869383,-0.00032976703
UncalAccel,1676592605743,29662565627382,0.7686943,1.6719848,0.09750752,0.037048545,-0.031444572,0.0098014325
OrientationDeg,1676592605743,29662565627382,281.0,-2.0,-53.0
UncalMag,1676592605751,29662573687969,-153.3662,739.7348,404.08838,-174.57417,771.0116,430.86337
UncalGyro,1676592605752,29662574105887,3.715435,1.2658654,2.0691533,0.001349248,-0.0016869383,-0.00032976703
UncalAccel,1676592605752,29662574105887,1.0743774,2.126621,-1.4679967,0.037048545,-0.031444572,0.0098014325
OrientationDeg,1676592605752,29662574105887,279.0,-3.0,-55.0
UncalGyro,1676592605760,29662582575644,3.8563924,0.68554354,2.2478313,0.001349248,-0.0016869383,-0.00032976703
UncalAccel,1676592605760,29662582575644,1.6600207,2.5345974,-2.6835506,0.037048545,-0.031444572,0.0098014325
UncalMag,1676592605761,29662583681134,-153.43939,738.5514,405.62558,-174.57417,771.0116,430.86337
OrientationDeg,1676592605760,29662582575644,277.0,-4.0,-57.0
UncalGyro,1676592605769,29662591072745,3.98895,0.055741455,2.4869852,0.001349248,-0.0016869383,-0.00032976703
UncalAccel,1676592605769,29662591072745,2.5136602,2.9623144,-3.2673993,0.037048545,-0.031444572,0.0098014325
OrientationDeg,1676592605769,29662591072745,274.0,-7.0,-58.0
UncalMag,1676592605771,29662593691754,-153.9884,736.47736,406.3576,-174.57417,771.0116,430.86337
UncalGyro,1676592605777,29662599552767,4.0941715,-0.5367978,2.7592783,0.001349248,-0.0016869383,-0.00032976703
UncalAccel,1676592605777,29662599552767,3.5611184,3.591627,-3.077768,0.037048545,-0.031444572,0.0098014325
OrientationDeg,1676592605777,29662599552767,271.0,-10.0,-60.0
UncalMag,1676592605781,29662603691510,-155.428,735.3062,408.8952,-174.57417,771.0116,430.86337
UncalGyro,1676592605786,29662608031079,4.1341834,-0.9640981,3.0163,0.001349248,-0.0016869383,-0.00032976703
UncalAccel,1676592605786,29662608031079,4.451248,4.5242295,-1.9411774,0.037048545,-0.031444572,0.0098014325
OrientationDeg,1676592605786,29662608031079,267.0,-14.0,-62.0
UncalMag,1676592605791,29662613682192,-156.3918,733.30536,409.7736,-174.57417,771.0116,430.86337
UncalGyro,1676592605794,29662616494763,4.0775256,-1.1420126,3.2177327,0.001349248,-0.0016869383,-0.00032976703
UncalAccel,1676592605794,29662616494763,5.4095736,5.6243296,-0.360718,0.037048545,-0.031444572,0.0098014325
OrientationDeg,1676592605794,29662616494763,262.0,-18.0,-63.0
UncalMag,1676592605801,29662623691633,-158.3804,731.4754,410.957,-174.57417,771.0116,430.86337
UncalGyro,1676592605802,29662624992658,3.8754818,-1.0735956,3.3341024,0.001349248,-0.0016869383,-0.00032976703
UncalAccel,1676592605802,29662624992658,6.2488565,6.7722864,1.0372887,0.037048545,-0.031444572,0.0098014325
OrientationDeg,1676592605802,29662624992658,257.0,-24.0,-64.0
UncalGyro,1676592605811,29662633469475,3.528205,-0.84803367,3.341891,0.001349248,-0.0016869383,-0.00032976703
UncalAccel,1676592605811,29662633469475,6.629315,8.009376,1.7970098,0.037048545,-0.031444572,0.0098014325
UncalMag,1676592605812,29662633679507,-160.0152,730.4994,411.61578,-174.57417,771.0116,430.86337
OrientationDeg,1676592605811,29662633469475,252.0,-29.0,-65.0
UncalGyro,1676592605819,29662641952751,3.1097622,-0.56673026,3.2093332,0.001349248,-0.0016869383,-0.00032976703
UncalAccel,1676592605819,29662641952751,6.8129644,9.246465,1.9304097,0.037048545,-0.031444572,0.0098014325
UncalMag,1676592605821,29662643680891,-160.6984,729.59656,413.5922,-174.57417,771.0116,430.86337
OrientationDeg,1676592605819,29662641952751,247.0,-34.0,-66.0
UncalGyro,1676592605828,29662650426353,2.722779,-0.29856038,2.9787316,0.001349248,-0.0016869383,-0.00032976703
UncalAccel,1676592605828,29662650426353,7.007381,10.186844,1.4973087,0.037048545,-0.031444572,0.0098014325
OrientationDeg,1676592605828,29662650426353,242.0,-38.0,-66.0
UncalMag,1676592605832,29662653689843,-162.5284,728.7304,415.1294,-174.57417,771.0116,430.86337
UncalGyro,1676592605836,29662658915398,2.4387267,-0.13118331,2.7320948,0.001349248,-0.0016869383,-0.00032976703
UncalAccel,1676592605836,29662658915398,7.0450683,10.758729,0.5162515,0.037048545,-0.031444572,0.0098014325
OrientationDeg,1676592605836,29662658915398,237.0,-43.0,-66.0
UncalMag,1676592605841,29662663680932,-163.0896,728.12036,415.4832,-174.57417,771.0116,430.86337
UncalGyro,1676592605845,29662667395196,2.2374468,-0.110872045,2.53112,0.001349248,-0.0016869383,-0.00032976703
UncalAccel,1676592605845,29662667395196,6.7926254,11.027323,-0.42711884,0.037048545,-0.031444572,0.0098014325
OrientationDeg,1676592605845,29662667395196,233.0,-46.0,-66.0
UncalMag,1676592605851,29662673691471,-164.18759,727.242,416.142,-174.57417,771.0116,430.86337
UncalGyro,1676592605853,29662675874841,2.044566,-0.19960022,2.3655756,0.001349248,-0.0016869383,-0.00032976703
UncalAccel,1676592605853,29662675874841,6.6275206,11.740384,-0.63230336,0.037048545,-0.031444572,0.0098014325
OrientationDeg,1676592605853,29662675874841,230.0,-50.0,-66.0
UncalMag,1676592605861,29662683681340,-165.3588,727.0956,417.59378,-174.57417,771.0116,430.86337
UncalGyro,1676592605862,29662684343510,1.7722728,-0.2603813,2.201253,0.001349248,-0.0016869383,-0.00032976703
UncalAccel,1676592605862,29662684343510,6.561718,12.457035,0.01794617,0.037048545,-0.031444572,0.0098014325
OrientationDeg,1676592605862,29662684343510,226.0,-53.0,-65.0
