# 
# Header Description:
# 
# Version: v3.0.5.6 Platform: 13 Manufacturer: Google Model: Pixel 7
# 
# Raw,utcTimeMillis,TimeNanos,LeapSecond,TimeUncertaintyNanos,FullBiasNanos,BiasNanos,BiasUncertaintyNanos,DriftNanosPerSecond,DriftUncertaintyNanosPerSecond,HardwareClockDiscontinuityCount,Svid,TimeOffsetNanos,State,ReceivedSvTimeNanos,ReceivedSvTimeUncertaintyNanos,Cn0DbHz,PseudorangeRateMetersPerSecond,PseudorangeRateUncertaintyMetersPerSecond,AccumulatedDeltaRangeState,AccumulatedDeltaRangeMeters,AccumulatedDeltaRangeUncertaintyMeters,CarrierFrequencyHz,CarrierCycles,CarrierPhase,CarrierPhaseUncertainty,MultipathIndicator,SnrInDb,ConstellationType,AgcDb,BasebandCn0DbHz,FullInterSignalBiasNanos,FullInterSignalBiasUncertaintyNanos,SatelliteInterSignalBiasNanos,SatelliteInterSignalBiasUncertaintyNanos,CodeType,ChipsetElapsedRealtimeNanos
# 
# UncalAccel,utcTimeMillis,elapsedRealtimeNanos,UncalAccelXMps2,UncalAccelYMps2,UncalAccelZMps2,BiasXMps2,BiasYMps2,BiasZMps2
# 
# Accel,utcTimeMillis,elapsedRealtimeNanos,AccelXMps2,AccelYMps2,AccelZMps2
# 
# UncalGyro,utcTimeMillis,elapsedRealtimeNanos,UncalGyroXRadPerSec,UncalGyroYRadPerSec,UncalGyroZRadPerSec,DriftXRadPerSec,DriftYRadPerSec,DriftZRadPerSec
# 
# Gyro,utcTimeMillis,elapsedRealtimeNanos,GyroXRadPerSec,GyroYRadPerSec,GyroZRadPerSec
# 
# UncalMag,utcTimeMillis,elapsedRealtimeNanos,UncalMagXMicroT,UncalMagYMicroT,UncalMagZMicroT,BiasXMicroT,BiasYMicroT,BiasZMicroT
# 
# Mag,utcTimeMillis,elapsedRealtimeNanos,MagXMicroT,MagYMicroT,MagZMicroT
# 
# OrientationDeg,utcTimeMillis,elapsedRealtimeNanos,yawDeg,rollDeg,pitchDeg
# 
# Fix,Provider,LatitudeDegrees,LongitudeDegrees,AltitudeMeters,SpeedMps,AccuracyMeters,BearingDegrees,UnixTimeMillis,SpeedAccuracyMps,BearingAccuracyDegrees,elapsedRealtimeNanos,VerticalAccuracyMeters
# 
# Nav,Svid,Type,Status,MessageId,Sub-messageId,Data(Bytes)
# 
# Status,UnixTimeMillis,SignalCount,SignalIndex,ConstellationType,Svid,CarrierFrequencyHz,Cn0DbHz,AzimuthDegrees,ElevationDegrees,UsedInFix,HasAlmanacData,HasEphemerisData,BasebandCn0DbHz
# 
UncalAccel,1676592781355,29838177988623,-0.6011967,1.1108679,10.492527,0.037048545,-0.031444572,0.0098014325
UncalAccel,1676592781364,29838186361690,-0.41934216,1.1503495,10.479366,0.037048545,-0.031444572,0.0098014325
UncalMag,1676592781364,29838186625912,-158.0144,747.2378,395.8412,-174.57417,771.0116,430.86337
UncalGyro,1676592781372,29838194760412,0.17516561,-0.3173445,-0.16875152,0.0015596993,-0.0016472944,-0.0003403791
UncalAccel,1676592781372,29838194760412,-0.26620153,1.1365907,10.503893,0.037048545,-0.031444572,0.0098014325
UncalMag,1676592781374,29838196636613,-157.929,746.8474,394.6578,-174.57417,771.0116,430.86337
UncalGyro,1676592781381,29838203080177,0.105068825,-0.32574388,-0.18005253,0.0015596993,-0.0016472944,-0.0003403791
UncalAccel,1676592781381,29838203080177,-0.2321038,1.1276177,10.3848505,0.037048545,-0.031444572,0.0098014325
UncalMag,1676592781384,29838206636450,-157.7216,746.884,395.7436,-174.57417,771.0116,430.86337
UncalGyro,1676592781389,29838211393388,0.02031127,-0.31978795,-0.20234911,0.0015596993,-0.0016472944,-0.0003403791
UncalAccel,1676592781389,29838211393388,-0.24586253,1.0941181,10.346565,0.037048545,-0.031444572,0.0098014325
UncalMag,1676592781394,29838216625788,-158.25839,746.6278,396.0608,-174.57417,771.0116,430.86337
UncalGyro,1676592781397,29838219833326,-0.04886922,-0.27091873,-0.23441954,0.0015596993,-0.0016472944,-0.0003403791
UncalAccel,1676592781397,29838219833326,-0.22731815,1.0749756,10.41835,0.037048545,-0.031444572,0.0098014325
UncalMag,1676592781404,29838226628758,-157.746,746.44476,395.646,-174.57417,771.0116,430.86337
UncalGyro,1676592781406,29838228309838,-0.08552113,-0.18952094,-0.2680171,0.0015596993,-0.0016472944,-0.0003403791
UncalAccel,1676592781406,29838228309838,-0.19860429,1.0366904,10.47159,0.037048545,-0.031444572,0.0098014325
UncalMag,1676592781415,29838236626193,-157.7338,746.6278,395.8046,-174.57417,771.0116,430.86337
UncalGyro,1676592781414,29838236777601,-0.07192938,-0.11010846,-0.29779682,0.0015596993,-0.0016472944,-0.0003403791
UncalAccel,1676592781414,29838236777601,-0.25004998,0.95473623,10.375877,0.037048545,-0.031444572,0.0098014325
UncalGyro,1676592781423,29838245264620,-0.005192355,-0.058643065,-0.32498032,0.0015596993,-0.0016472944,-0.0003403791
UncalAccel,1676592781423,29838245264620,-0.36311084,0.82971126,10.232906,0.037048545,-0.031444572,0.0098014325
UncalMag,1676592781424,29838246626030,-157.4166,746.7132,395.4508,-174.57417,771.0116,430.86337
UncalGyro,1676592781431,29838253745739,0.107665,-0.033750303,-0.34666604,0.0015596993,-0.0016472944,-0.0003403791
UncalAccel,1676592781431,29838253745739,-0.47736812,0.7477571,10.194621,0.037048545,-0.031444572,0.0098014325
OrientationDeg,1676592781423,29838245264620,217.0,1.0,-5.0
OrientationDeg,1676592781431,29838253745739,217.0,1.0,-6.0
UncalMag,1676592781434,29838256626273,-157.51419,746.8962,395.98758,-174.57417,771.0116,430.86337
UncalGyro,1676592781440,29838262227092,0.25366178,-0.036651913,-0.35338554,0.0015596993,-0.0016472944,-0.0003403791
UncalAccel,1676592781440,29838262227092,-0.6586244,0.6891329,10.1599245,0.037048545,-0.031444572,0.0098014325
OrientationDeg,1676592781440,29838262227092,217.0,1.0,-6.0
UncalMag,1676592781444,29838266625947,-157.6118,746.98157,395.88998,-174.57417,771.0116,430.86337
UncalGyro,1676592781448,29838270710022,0.41401392,-0.06795876,-0.3388775,0.0015596993,-0.0016472944,-0.0003403791
UncalAccel,1676592781448,29838270710022,-0.8105687,0.59282184,10.078569,0.037048545,-0.031444572,0.0098014325
Fix,NLP,37.4317054000,-122.1562223000,-15.700000762939453,,105.072,,1676592761148,,,29817970000000,2.3068001
OrientationDeg,1676592781449,29838270710022,218.0,1.0,-6.0
UncalMag,1676592781454,29838276626028,-157.6118,746.9938,396.25598,-174.57417,771.0116,430.86337
UncalGyro,1676592781457,29838279201873,0.5670357,-0.112399206,-0.31138855,0.0015596993,-0.0016472944,-0.0003403791
UncalAccel,1676592781457,29838279201873,-0.887139,0.54436713,10.101899,0.037048545,-0.031444572,0.0098014325
OrientationDeg,1676592781458,29838279201873,218.0,1.0,-6.0
UncalMag,1676592781464,29838286647633,-157.5264,746.54236,395.5362,-174.57417,771.0116,430.86337
UncalGyro,1676592781465,29838287671660,0.6916522,-0.16737708,-0.28512135,0.0015596993,-0.0016472944,-0.0003403791
UncalAccel,1676592781465,29838287671660,-0.8925229,0.56350976,10.216755,0.037048545,-0.031444572,0.0098014325
OrientationDeg,1676592781465,29838287671660,218.0,1.0,-6.0
UncalGyro,1676592781474,29838296162840,0.7695375,-0.2275473,-0.27473664,0.0015596993,-0.0016472944,-0.0003403791
UncalAccel,1676592781474,29838296162840,-0.9415757,0.6155536,10.368699,0.037048545,-0.031444572,0.0098014325
OrientationDeg,1676592781474,29838296162840,218.0,1.0,-7.0
UncalMag,1676592781474,29838296624602,-157.4532,746.12756,396.1584,-174.57417,771.0116,430.86337
UncalGyro,1676592781482,29838304644763,0.8013025,-0.29046643,-0.29443705,0.0015596993,-0.0016472944,-0.0003403791
UncalAccel,1676592781482,29838304644763,-0.93738824,0.6586244,10.383056,0.037048545,-0.031444572,0.0098014325
OrientationDeg,1676592781482,29838304644763,218.0,1.0,-7.0
UncalMag,1676592781484,29838306636645,-157.2824,745.48096,394.914,-174.57417,771.0116,430.86337
UncalGyro,1676592781491,29838313136349,0.7979427,-0.3578143,-0.34238997,0.0015596993,-0.0016472944,-0.0003403791
UncalAccel,1676592781491,29838313136349,-0.8225328,0.67836523,10.326226,0.037048545,-0.031444572,0.0098014325
OrientationDeg,1676592781491,29838313136349,218.0,1.0,-8.0
UncalMag,1676592781494,29838316636523,-157.258,745.8714,396.2194,-174.57417,771.0116,430.86337
UncalGyro,1676592781499,29838321608954,0.7612908,-0.41325033,-0.40607268,0.0015596993,-0.0016472944,-0.0003403791
UncalAccel,1676592781499,29838321608954,-0.6454639,0.6364908,10.375279,0.037048545,-0.031444572,0.0098014325
OrientationDeg,1676592781499,29838321608954,219.0,1.0,-8.0
Fix,FLP,37.4308448000,-122.1550359000,-15.700000762939453,0.18239987,4.593,301.53168,1676592779981,,,29836803720768,4.1663136
UncalMag,1676592781504,29838326625780,-157.8924,745.664,395.6948,-174.57417,771.0116,430.86337
UncalGyro,1676592781508,29838330076614,0.6988298,-0.44104472,-0.47678033,0.0015596993,-0.0016472944,-0.0003403791
UncalAccel,1676592781508,29838330076614,-0.43070808,0.56111693,10.486546,0.037048545,-0.031444572,0.0098014325
OrientationDeg,1676592781508,29838330076614,219.0,0.0,-8.0
UncalMag,1676592781514,29838336636318,-157.69719,745.5176,396.5122,-174.57417,771.0116,430.86337
UncalGyro,1676592781516,29838338565495,0.61529404,-0.44012842,-0.549626,0.0015596993,-0.0016472944,-0.0003403791
UncalAccel,1676592781516,29838338565495,-0.20578274,0.45224348,10.536197,0.037048545,-0.031444572,0.0098014325
OrientationDeg,1676592781516,29838338565495,219.0,0.0,-9.0
UncalMag,1676592781524,29838346636358,-157.5996,745.4322,396.4878,-174.57417,771.0116,430.86337
UncalGyro,1676592781525,29838347045058,0.5203045,-0.43493605,-0.63270366,0.0015596993,-0.0016472944,-0.0003403791
UncalAccel,1676592781525,29838347045058,-0.03708875,0.34277186,10.485349,0.037048545,-0.031444572,0.0098014325
OrientationDeg,1676592781525,29838347045058,219.0,0.0,-9.0
UncalGyro,1676592781533,29838355529698,0.42378777,-0.43081272,-0.7270824,0.0015596993,-0.0016472944,-0.0003403791
UncalAccel,1676592781533,29838355529698,0.07298109,0.25722843,10.505688,0.037048545,-0.031444572,0.0098014325
UncalMag,1676592781534,29838356626022,-158.12419,745.3224,396.2316,-174.57417,771.0116,430.86337
OrientationDeg,1676592781534,29838355529698,220.0,0.0,-9.0
UncalGyro,1676592781542,29838364011314,0.33643404,-0.41798455,-0.8359691,0.0015596993,-0.0016472944,-0.0003403791
UncalAccel,1676592781542,29838364011314,0.12981063,0.13758731,10.654641,0.037048545,-0.031444572,0.0098014325
OrientationDeg,1676592781542,29838364011314,220.0,0.0,-9.0
UncalMag,1676592781544,29838366636071,-158.12419,745.3224,396.2316,-174.57417,771.0116,430.86337
UncalGyro,1676592781550,29838372490247,0.2669481,-0.40744713,-0.94897914,0.0015596993,-0.0016472944,-0.0003403791
UncalAccel,1676592781550,29838372490247,0.12622139,0.0035892338,10.636097,0.037048545,-0.031444572,0.0098014325
OrientationDeg,1676592781550,29838372490247,221.0,0.0,-9.0
UncalMag,1676592781554,29838376636518,-157.83139,745.17596,396.7928,-174.57417,771.0116,430.86337
UncalGyro,1676592781558,29838380970603,0.21853705,-0.44135013,-1.0629056,0.0015596993,-0.0016472944,-0.0003403791
UncalAccel,1676592781558,29838380970603,0.12323037,-0.13998012,10.445868,0.037048545,-0.031444572,0.0098014325
OrientationDeg,1676592781558,29838380970603,221.0,0.0,-9.0
UncalMag,1676592781564,29838386630495,-157.9168,745.3224,396.1096,-174.57417,771.0116,430.86337
UncalGyro,1676592781567,29838389455120,0.18524489,-0.52534413,-1.1746938,0.0015596993,-0.0016472944,-0.0003403791
UncalAccel,1676592781568,29838389455120,0.11964113,-0.25004998,10.351351,0.037048545,-0.031444572,0.0098014325
OrientationDeg,1676592781567,29838389455120,222.0,0.0,-10.0
UncalMag,1676592781574,29838396642824,-158.0022,745.664,395.951,-174.57417,771.0116,430.86337
UncalGyro,1676592781575,29838397932251,0.15347989,-0.63270366,-1.2820535,0.0015596993,-0.0016472944,-0.0003403791
UncalAccel,1676592781575,29838397932251,0.18125631,-0.34037903,10.509277,0.037048545,-0.031444572,0.0098014325
OrientationDeg,1676592781576,29838397932251,222.0,0.0,-10.0
UncalGyro,1676592781584,29838406417379,0.121256754,-0.7255552,-1.3910929,0.0015596993,-0.0016472944,-0.0003403791
UncalAccel,1676592781584,29838406417379,0.33320054,-0.37387854,10.7348,0.037048545,-0.031444572,0.0098014325
UncalMag,1676592781584,29838406622315,-157.7582,746.1886,395.6948,-174.57417,771.0116,430.86337
OrientationDeg,1676592781584,29838406417379,223.0,0.0,-10.0
UncalGyro,1676592781592,29838414898742,0.09697486,-0.7883216,-1.5112807,0.0015596993,-0.0016472944,-0.0003403791
UncalAccel,1676592781592,29838414898742,0.48035914,-0.39182472,10.85504,0.037048545,-0.031444572,0.0098014325
OrientationDeg,1676592781592,29838414898742,224.0,0.0,-10.0
UncalMag,1676592781594,29838416625976,-157.4288,746.55457,395.9022,-174.57417,771.0116,430.86337
UncalGyro,1676592781601,29838423366698,0.07849618,-0.8210029,-1.638646,0.0015596993,-0.0016472944,-0.0003403791
UncalAccel,1676592781601,29838423366698,0.651446,-0.3912265,10.975878,0.037048545,-0.031444572,0.0098014325
OrientationDeg,1676592781601,29838423366698,225.0,-1.0,-10.0
UncalMag,1676592781604,29838426636596,-157.624,746.7986,395.71918,-174.57417,771.0116,430.86337
UncalGyro,1676592781609,29838431858539,0.06337727,-0.83031857,-1.7725782,0.0015596993,-0.0016472944,-0.0003403791
UncalAccel,1676592781609,29838431858539,0.7704889,-0.41934216,11.076974,0.037048545,-0.031444572,0.0098014325
OrientationDeg,1676592781608,29838431858539,226.0,-1.0,-10.0
UncalMag,1676592781614,29838436625771,-157.4166,746.64,396.1706,-174.57417,771.0116,430.86337
UncalGyro,1676592781618,29838440340493,0.05009095,-0.82772243,-1.9026926,0.0015596993,-0.0016472944,-0.0003403791
UncalAccel,1676592781618,29838440340493,0.85184485,-0.43788654,11.068001,0.037048545,-0.031444572,0.0098014325
UncalMag,1676592781624,29838446636554,-157.075,747.25,395.8168,-174.57417,771.0116,430.86337
OrientationDeg,1676592781618,29838440340493,226.0,-1.0,-10.0
UncalGyro,1676592781626,29838448810126,0.044593163,-0.8223773,-2.0366247,0.0015596993,-0.0016472944,-0.0003403791
UncalAccel,1676592781626,29838448810126,0.85244304,-0.35653058,10.995618,0.037048545,-0.031444572,0.0098014325
OrientationDeg,1676592781626,29838448810126,227.0,-1.0,-10.0
UncalMag,1676592781634,29838456636390,-156.8676,747.1402,395.0604,-174.57417,771.0116,430.86337
UncalGyro,1676592781635,29838457304805,0.05207626,-0.82741696,-2.1749856,0.0015596993,-0.0016472944,-0.0003403791
UncalAccel,1676592781635,29838457304805,0.76749784,-0.24646074,10.751551,0.037048545,-0.031444572,0.0098014325
OrientationDeg,1676592781635,29838457304805,229.0,-2.0,-10.0
UncalGyro,1676592781643,29838465778947,0.07437284,-0.8570439,-2.3081543,0.0015596993,-0.0016472944,-0.0003403791
UncalAccel,1676592781643,29838465778947,0.6113662,-0.21834506,10.454242,0.037048545,-0.031444572,0.0098014325
OrientationDeg,1676592781643,29838465778947,230.0,-2.0,-10.0
UncalMag,1676592781644,29838466626013,-156.56259,746.9084,395.4752,-174.57417,771.0116,430.86337
UncalGyro,1676592781652,29838474267533,0.09712757,-0.91919947,-2.4204009,0.0015596993,-0.0016472944,-0.0003403791
UncalAccel,1676592781652,29838474267533,0.49830532,-0.18005991,10.247861,0.037048545,-0.031444572,0.0098014325
OrientationDeg,1676592781652,29838474267533,231.0,-2.0,-10.0
UncalMag,1676592781654,29838476625891,-156.5016,748.03076,395.14578,-174.57417,771.0116,430.86337
UncalGyro,1676592781660,29838482744378,0.10919216,-1.0306823,-2.4973698,0.0015596993,-0.0016472944,-0.0003403791
UncalAccel,1676592781660,29838482744378,0.4755735,-0.10348958,10.018748,0.037048545,-0.031444572,0.0098014325
OrientationDeg,1676592781660,29838482744378,232.0,-2.0,-10.0
UncalMag,1676592781664,29838486630244,-156.58699,748.287,395.2068,-174.57417,771.0116,430.86337
UncalGyro,1676592781669,29838491214268,0.10247265,-1.1583532,-2.5401304,0.0015596993,-0.0016472944,-0.0003403791
UncalAccel,1676592781669,29838491214268,0.52342993,0.05503492,9.936794,0.037048545,-0.031444572,0.0098014325
OrientationDeg,1676592781669,29838491214268,233.0,-3.0,-10.0
UncalMag,1676592781674,29838496625686,-156.221,749.0678,394.7798,-174.57417,771.0116,430.86337
UncalGyro,1676592781677,29838499706505,0.07971791,-1.2667818,-2.5660923,0.0015596993,-0.0016472944,-0.0003403791
UncalAccel,1676592781677,29838499706505,0.5838487,0.36729828,9.882956,0.037048545,-0.031444572,0.0098014325
OrientationDeg,1676592781677,29838499706505,235.0,-3.0,-10.0
UncalMag,1676592781684,29838506636346,-156.6114,749.5802,394.66998,-174.57417,771.0116,430.86337
UncalGyro,1676592781686,29838508188693,0.049021937,-1.3489432,-2.5885415,0.0015596993,-0.0016472944,-0.0003403791
UncalAccel,1676592781686,29838508188693,0.64606214,0.6406783,9.757931,0.037048545,-0.031444572,0.0098014325
OrientationDeg,1676592781686,29838508188693,236.0,-3.0,-11.0
UncalMag,1676592781694,29838516636630,-156.4894,749.9096,393.8892,-174.57417,771.0116,430.86337
UncalGyro,1676592781694,29838516667513,0.01038471,-1.4004086,-2.6050348,0.0015596993,-0.0016472944,-0.0003403791
UncalAccel,1676592781694,29838516667513,0.698106,0.8422736,9.638289,0.037048545,-0.031444572,0.0098014325
OrientationDeg,1676592781694,29838516667513,237.0,-4.0,-11.0
UncalGyro,1676592781703,29838525145763,-0.031612277,-1.4002558,-2.617405,0.0015596993,-0.0016472944,-0.0003403791
UncalAccel,1676592781703,29838525145763,0.71246296,0.9912268,9.527621,0.037048545,-0.031444572,0.0098014325
UncalMag,1676592781704,29838526632967,-156.5504,750.5928,393.44998,-174.57417,771.0116,430.86337
OrientationDeg,1676592781703,29838525145763,239.0,-4.0,-11.0
UncalGyro,1676592781711,29838533631073,-0.06780604,-1.3353515,-2.6238189,0.0015596993,-0.0016472944,-0.0003403791
UncalAccel,1676592781711,29838533631073,0.70289165,1.1395818,9.42174,0.037048545,-0.031444572,0.0098014325
OrientationDeg,1676592781711,29838533631073,240.0,-5.0,-11.0
UncalMag,1676592781714,29838536636384,-156.6358,750.8612,393.8892,-174.57417,771.0116,430.86337
UncalGyro,1676592781720,29838542109649,-0.09132435,-1.2089024,-2.6181684,0.0015596993,-0.0016472944,-0.0003403791
UncalAccel,1676592781720,29838542109649,0.6693921,1.2687942,9.330214,0.037048545,-0.031444572,0.0098014325
OrientationDeg,1676592781720,29838542109649,241.0,-5.0,-11.0
UncalMag,1676592781724,29838546637279,-156.3796,751.62976,393.34018,-174.57417,771.0116,430.86337
UncalGyro,1676592781728,29838550592254,-0.09987647,-1.059393,-2.5966353,0.0015596993,-0.0016472944,-0.0003403791
UncalAccel,1676592781728,29838550592254,0.52283174,1.3501502,9.104691,0.037048545,-0.031444572,0.0098014325
OrientationDeg,1676592781728,29838550592254,242.0,-5.0,-11.0
UncalMag,1676592781734,29838556636342,-156.58699,751.703,392.9986,-174.57417,771.0116,430.86337
UncalGyro,1676592781737,29838559075621,-0.102319926,-0.9231701,-2.5631905,0.0015596993,-0.0016472944,-0.0003403791
UncalAccel,1676592781737,29838559075621,0.37627137,1.3686945,8.86481,0.037048545,-0.031444572,0.0098014325
OrientationDeg,1676592781737,29838559075621,244.0,-5.0,-11.0
UncalMag,1676592781744,29838566626738,-156.1234,752.3374,393.49878,-174.57417,771.0116,430.86337
UncalGyro,1676592781745,29838567540799,-0.112399206,-0.80909103,-2.5289822,0.0015596993,-0.0016472944,-0.0003403791
UncalAccel,1676592781745,29838567540799,0.22372891,1.3776677,8.782856,0.037048545,-0.031444572,0.0098014325
OrientationDeg,1676592781745,29838567540799,245.0,-6.0,-11.0
UncalGyro,1676592781754,29838576036365,-0.1423316,-0.73761976,-2.5008824,0.0015596993,-0.0016472944,-0.0003403791
UncalAccel,1676592781754,29838576036365,-0.0059820567,1.4961123,8.709276,0.037048545,-0.031444572,0.0098014325
UncalMag,1676592781754,29838576633818,-155.8672,753.11816,393.1938,-174.57417,771.0116,430.86337
OrientationDeg,1676592781754,29838576036365,246.0,-6.0,-11.0
UncalGyro,1676592781762,29838584519111,-0.1965459,-0.7246389,-2.4788911,0.0015596993,-0.0016472944,-0.0003403791
UncalAccel,1676592781762,29838584519111,-0.3367898,1.6325033,8.687142,0.037048545,-0.031444572,0.0098014325
OrientationDeg,1676592781762,29838584519111,247.0,-6.0,-11.0
UncalMag,1676592781764,29838586625842,-156.3674,753.6184,392.474,-174.57417,771.0116,430.86337
UncalGyro,1676592781770,29838592993139,-0.27382034,-0.7440339,-2.4608707,0.0015596993,-0.0016472944,-0.0003403791
UncalAccel,1676592781770,29838592993139,-0.6197411,1.7551354,8.751749,0.037048545,-0.031444572,0.0098014325
OrientationDeg,1676592781770,29838592993139,249.0,-6.0,-11.0
UncalMag,1676592781774,29838596636298,-155.916,754.1186,391.498,-174.57417,771.0116,430.86337
UncalGyro,1676592781779,29838601467993,-0.3651447,-0.7631234,-2.4390323,0.0015596993,-0.0016472944,-0.0003403791
UncalAccel,1676592781779,29838601467993,-0.8745767,1.9310079,8.763115,0.037048545,-0.031444572,0.0098014325
OrientationDeg,1676592781779,29838601467993,250.0,-6.0,-11.0
UncalMag,1676592781784,29838606626328,-155.76959,754.69196,392.962,-174.57417,771.0116,430.86337
UncalGyro,1676592781787,29838609960628,-0.45738536,-0.7788532,-2.4126122,0.0015596993,-0.0016472944,-0.0003403791
UncalAccel,1676592781788,29838609960628,-1.1569297,2.1308086,8.679366,0.037048545,-0.031444572,0.0098014325
UncalMag,1676592781795,29838616636582,-155.7574,754.81396,391.3028,-174.57417,771.0116,430.86337
UncalGyro,1676592781796,29838618441054,-0.53985214,-0.80649483,-2.3753495,0.0015596993,-0.0016472944,-0.0003403791
UncalAccel,1676592781796,29838618441054,-1.4434702,2.2971098,8.476574,0.037048545,-0.031444572,0.0098014325
UncalMag,1676592781804,29838626636296,-155.4646,756.2292,391.8762,-174.57417,771.0116,430.86337
UncalGyro,1676592781804,29838626916671,-0.61391956,-0.8579602,-2.31915,0.0015596993,-0.0016472944,-0.0003403791
UncalAccel,1676592781804,29838626916671,-1.6905292,2.3581266,8.245069,0.037048545,-0.031444572,0.0098014325
UncalGyro,1676592781813,29838635401167,-0.68630713,-0.89888823,-2.2261457,0.0015596993,-0.0016472944,-0.0003403791
UncalAccel,1676592781813,29838635401167,-1.8293129,2.3904297,8.239685,0.037048545,-0.031444572,0.0098014325
UncalMag,1676592781814,29838636626285,-155.6476,756.6684,391.986,-174.57417,771.0116,430.86337
UncalGyro,1676592781821,29838643889885,-0.75441855,-0.8762862,-2.084883,0.0015596993,-0.0016472944,-0.0003403791
UncalAccel,1676592781821,29838643889885,-1.9992033,2.4849463,8.467003,0.037048545,-0.031444572,0.0098014325
UncalMag,1676592781824,29838646636539,-156.11119,757.66876,390.9002,-174.57417,771.0116,430.86337
OrientationDeg,1676592781787,29838609960628,251.0,-6.0,-11.0
OrientationDeg,1676592781796,29838618441054,252.0,-6.0,-11.0
OrientationDeg,1676592781804,29838626916671,253.0,-6.0,-11.0
OrientationDeg,1676592781813,29838635401167,255.0,-7.0,-11.0
OrientationDeg,1676592781821,29838643889885,256.0,-7.0,-10.0
UncalGyro,1676592781830,29838652364106,-0.81031275,-0.80741113,-1.8880317,0.0015596993,-0.0016472944,-0.0003403791
UncalAccel,1676592781830,29838652364106,-2.2061825,2.617748,8.5938225,0.037048545,-0.031444572,0.0098014325
OrientationDeg,1676592781830,29838652364106,257.0,-7.0,-10.0
UncalMag,1676592781834,29838656635399,-155.5988,757.4126,390.705,-174.57417,771.0116,430.86337
UncalGyro,1676592781838,29838660843569,-0.8555168,-0.7292204,-1.6300939,0.0015596993,-0.0016472944,-0.0003403791
UncalAccel,1676592781838,29838660843569,-2.3491535,2.597409,8.540583,0.037048545,-0.031444572,0.0098014325
OrientationDeg,1676592781838,29838660843569,257.0,-7.0,-10.0
UncalMag,1676592781844,29838666627016,-155.81839,758.94977,389.8632,-174.57417,771.0116,430.86337
UncalGyro,1676592781847,29838669325684,-0.89369583,-0.67179906,-1.3176364,0.0015596993,-0.0016472944,-0.0003403791
UncalAccel,1676592781847,29838669325684,-2.4340987,2.487339,8.445468,0.037048545,-0.031444572,0.0098014325
UncalMag,1676592781854,29838676636536,-155.7818,759.633,389.546,-174.57417,771.0116,430.86337
UncalGyro,1676592781855,29838677807779,-0.9283624,-0.63041294,-0.9628763,0.0015596993,-0.0016472944,-0.0003403791
UncalAccel,1676592781855,29838677807779,-2.5387847,2.391028,8.416156,0.037048545,-0.031444572,0.0098014325
UncalGyro,1676592781864,29838686285003,-0.9650144,-0.61193424,-0.5751296,0.0015596993,-0.0016472944,-0.0003403791
UncalAccel,1676592781864,29838686285003,-2.5896323,2.2755744,8.245069,0.037048545,-0.031444572,0.0098014325
UncalMag,1676592781864,29838686621195,-156.4772,760.1576,389.9364,-174.57417,771.0116,430.86337
OrientationDeg,1676592781847,29838669325684,258.0,-7.0,-9.0
OrientationDeg,1676592781855,29838677807779,259.0,-8.0,-9.0
OrientationDeg,1676592781864,29838686285003,259.0,-8.0,-9.0
UncalGyro,1676592781872,29838694768940,-1.0045679,-0.6291912,-0.17134771,0.0015596993,-0.0016472944,-0.0003403791
UncalAccel,1676592781872,29838694768940,-2.5286152,2.1188445,7.9166536,0.037048545,-0.031444572,0.0098014325
OrientationDeg,1676592781872,29838694768940,259.0,-8.0,-8.0
UncalMag,1676592781874,29838696625833,-156.1844,759.88916,389.37518,-174.57417,771.0116,430.86337
UncalGyro,1676592781881,29838703252561,-1.057255,-0.6617198,0.226631,0.0015596993,-0.0016472944,-0.0003403791
UncalAccel,1676592781881,29838703252561,-2.4311078,1.9088743,7.7940216,0.037048545,-0.031444572,0.0098014325
OrientationDeg,1676592781881,29838703252561,259.0,-8.0,-8.0
UncalMag,1676592781884,29838706636453,-155.916,760.84076,389.2288,-174.57417,771.0116,430.86337
UncalGyro,1676592781889,29838711721698,-1.1357512,-0.65286225,0.5890268,0.0015596993,-0.0016472944,-0.0003403791
UncalAccel,1676592781889,29838711721698,-2.3078775,1.817947,7.9770727,0.037048545,-0.031444572,0.0098014325
OrientationDeg,1676592781889,29838711721698,259.0,-9.0,-7.0
UncalMag,1676592781894,29838716633237,-157.1604,760.9872,389.05798,-174.57417,771.0116,430.86337
UncalGyro,1676592781898,29838720211809,-1.25319,-0.5896377,0.89644474,0.0015596993,-0.0016472944,-0.0003403791
UncalAccel,1676592781898,29838720211809,-2.1852453,1.8807586,8.2253275,0.037048545,-0.031444572,0.0098014325
OrientationDeg,1676592781898,29838720211809,259.0,-9.0,-6.0
UncalMag,1676592781904,29838726636248,-157.35559,761.1458,388.6188,-174.57417,771.0116,430.86337
UncalGyro,1676592781906,29838728692714,-1.4115568,-0.49113566,1.1476631,0.0015596993,-0.0016472944,-0.0003403791
UncalAccel,1676592781906,29838728692714,-2.0338993,1.9579271,8.379066,0.037048545,-0.031444572,0.0098014325
OrientationDeg,1676592781906,29838728692714,258.0,-9.0,-6.0
UncalMag,1676592781915,29838736636328,-157.929,762.10956,389.2288,-174.57417,771.0116,430.86337
UncalGyro,1676592781915,29838737170975,-1.6143641,-0.37384954,1.3579534,0.0015596993,-0.0016472944,-0.0003403791
UncalAccel,1676592781915,29838737170975,-1.8442681,1.9974087,8.59442,0.037048545,-0.031444572,0.0098014325
OrientationDeg,1676592781915,29838737170975,258.0,-10.0,-5.0
UncalGyro,1676592781923,29838745638311,-1.8628336,-0.25030205,1.55847,0.0015596993,-0.0016472944,-0.0003403791
UncalAccel,1676592781923,29838745638311,-1.7880367,1.8436699,8.839087,0.037048545,-0.031444572,0.0098014325
UncalMag,1676592781924,29838746625992,-157.868,763.0368,388.1186,-174.57417,771.0116,430.86337
OrientationDeg,1676592781923,29838745638311,257.0,-10.0,-4.0
UncalGyro,1676592781932,29838754138482,-2.0193677,-0.5296202,1.8658879,0.0015596993,-0.0016472944,-0.0003403791
UncalAccel,1676592781932,29838754138482,-5.0476594,1.2065809,8.310871,0.037048545,-0.031444572,0.0098014325
UncalMag,1676592781934,29838756636652,-158.3804,763.29297,388.0698,-174.57417,771.0116,430.86337
OrientationDeg,1676592781932,29838754138482,256.0,-10.0,-2.0
UncalGyro,1676592781940,29838762616936,-0.70112056,-1.3052663,2.9202414,0.0015596993,-0.0016472944,-0.0003403791
UncalAccel,1676592781940,29838762616936,-10.666605,-2.4687948,19.753948,0.037048545,-0.031444572,0.0098014325
OrientationDeg,1676592781940,29838762616936,255.0,-11.0,-2.0
UncalMag,1676592781944,29838766636367,-158.0388,763.6224,387.533,-174.57417,771.0116,430.86337
UncalGyro,1676592781949,29838771101159,0.8315403,-1.1270463,3.3738089,0.0015596993,-0.0016472944,-0.0003403791
UncalAccel,1676592781949,29838771101159,-4.877769,5.962914,20.578276,0.037048545,-0.031444572,0.0098014325
OrientationDeg,1676592781949,29838771101159,253.0,-11.0,-2.0
UncalMag,1676592781954,29838776636366,-159.2222,763.18317,387.93558,-174.57417,771.0116,430.86337
UncalGyro,1676592781957,29838779578941,0.2759584,-0.43554693,2.8292224,0.0015596993,-0.0016472944,-0.0003403791
UncalAccel,1676592781957,29838779578941,-2.4005992,4.881358,9.273384,0.037048545,-0.031444572,0.0098014325
OrientationDeg,1676592781957,29838779578941,252.0,-12.0,-2.0
UncalMag,1676592781964,29838786636487,-160.61299,762.5244,387.3378,-174.57417,771.0116,430.86337
UncalGyro,1676592781966,29838788056692,-0.59742624,-0.26526824,2.281429,0.0015596993,-0.0016472944,-0.0003403791
UncalAccel,1676592781966,29838788056692,1.9962122,2.132005,5.267799,0.037048545,-0.031444572,0.0098014325
OrientationDeg,1676592781966,29838788056692,251.0,-12.0,-1.0
UncalGyro,1676592781974,29838796536450,-1.2463179,-0.17119499,1.5960382,0.0015596993,-0.0016472944,-0.0003403791
UncalAccel,1676592781974,29838796536450,3.6227336,0.50189453,6.3792653,0.037048545,-0.031444572,0.0098014325
UncalMag,1676592781974,29838796622327,-160.6252,762.4512,387.5574,-174.57417,771.0116,430.86337
OrientationDeg,1676592781974,29838796536450,250.0,-12.0,-1.0
UncalGyro,1676592781983,29838805021170,-1.6493362,-0.14553864,1.1499538,0.0015596993,-0.0016472944,-0.0003403791
UncalAccel,1676592781983,29838805021170,4.080959,-0.74835527,8.006385,0.037048545,-0.031444572,0.0098014325
OrientationDeg,1676592781983,29838805021170,250.0,-12.0,0.0
UncalMag,1676592781984,29838806626598,-161.3206,762.85376,387.1914,-174.57417,771.0116,430.86337
UncalGyro,1676592781991,29838813508382,-1.8573358,-0.20143281,1.0859656,0.0015596993,-0.0016472944,-0.0003403791
UncalAccel,1676592781991,29838813508382,4.822734,-1.2646067,10.271192,0.037048545,-0.031444572,0.0098014325
OrientationDeg,1676592781991,29838813508382,250.0,-12.0,0.0
UncalMag,1676592781994,29838816636567,-161.2108,763.1344,387.4964,-174.57417,771.0116,430.86337
UncalGyro,1676592781999,29838821983530,-1.9761491,-0.008246681,1.0832168,0.0015596993,-0.0016472944,-0.0003403791
UncalAccel,1676592781999,29838821983530,3.906881,-1.1294123,11.7685,0.037048545,-0.031444572,0.0098014325
OrientationDeg,1676592781999,29838821983530,249.0,-12.0,1.0
UncalMag,1676592782004,29838826629852,-161.3694,763.8908,386.7156,-174.57417,771.0116,430.86337
UncalGyro,1676592782008,29838830461994,-2.0412061,0.25992316,1.0465649,0.0015596993,-0.0016472944,-0.0003403791
UncalAccel,1676592782008,29838830461994,3.4803605,-1.5326029,10.875379,0.037048545,-0.031444572,0.0098014325
OrientationDeg,1676592782008,29838830461994,249.0,-12.0,3.0
UncalMag,1676592782014,29838836636321,-161.4182,764.6838,387.0206,-174.57417,771.0116,430.86337
UncalGyro,1676592782017,29838838944812,-2.0419698,0.55955255,0.9943359,0.0015596993,-0.0016472944,-0.0003403791
UncalAccel,1676592782016,29838838944812,3.3326037,-2.1272194,10.591231,0.037048545,-0.031444572,0.0098014325
OrientationDeg,1676592782016,29838838944812,249.0,-12.0,4.0
UncalMag,1676592782024,29838846636320,-161.3694,765.5378,386.61798,-174.57417,771.0116,430.86337
UncalGyro,1676592782025,29838847419511,-1.9717203,0.8727737,0.93187493,0.0015596993,-0.0016472944,-0.0003403791
UncalAccel,1676592782025,29838847419511,3.3954153,-2.0727825,9.803394,0.037048545,-0.031444572,0.0098014325
OrientationDeg,1676592782025,29838847419511,249.0,-11.0,5.0
UncalGyro,1676592782033,29838855895637,-1.7415768,1.0564915,0.795652,0.0015596993,-0.0016472944,-0.0003403791
UncalAccel,1676592782033,29838855895637,3.7022948,-0.7890333,8.185846,0.037048545,-0.031444572,0.0098014325
OrientationDeg,1676592782033,29838855895637,248.0,-11.0,6.0
UncalMag,1676592782034,29838856623176,-160.2348,767.136,386.9718,-174.57417,771.0116,430.86337
UncalGyro,1676592782042,29838864388423,-1.319469,1.204779,0.6339254,0.0015596993,-0.0016472944,-0.0003403791
UncalAccel,1676592782042,29838864388423,3.9517467,0.07597212,7.472187,0.037048545,-0.031444572,0.0098014325
OrientationDeg,1676592782042,29838864388423,248.0,-10.0,6.0
UncalMag,1676592782044,29838866636563,-160.2348,767.136,386.9718,-174.57417,771.0116,430.86337
UncalGyro,1676592782050,29838872868983,-0.7771733,1.2867876,0.4616614,0.0015596993,-0.0016472944,-0.0003403791
UncalAccel,1676592782050,29838872868983,4.2364926,0.8644072,6.5629144,0.037048545,-0.031444572,0.0098014325
OrientationDeg,1676592782050,29838872868983,248.0,-9.0,7.0
UncalMag,1676592782054,29838876636684,-159.9054,767.2336,386.8742,-174.57417,771.0116,430.86337
UncalGyro,1676592782059,29838881341477,-0.2180789,1.314582,0.40042216,0.0015596993,-0.0016472944,-0.0003403791
UncalAccel,1676592782059,29838881341477,5.1625147,1.4560326,5.749355,0.037048545,-0.031444572,0.0098014325
OrientationDeg,1676592782059,29838881341477,248.0,-9.0,7.0
UncalMag,1676592782064,29838886617885,-158.8562,767.3312,386.74,-174.57417,771.0116,430.86337
UncalGyro,1676592782067,29838889830784,0.322995,1.2974777,0.6618725,0.0015596993,-0.0016472944,-0.0003403791
UncalAccel,1676592782067,29838889830784,6.723233,1.9986051,5.150551,0.037048545,-0.031444572,0.0098014325
OrientationDeg,1676592782067,29838889830784,247.0,-8.0,7.0
UncalMag,1676592782074,29838896630172,-158.3682,766.76996,387.8136,-174.57417,771.0116,430.86337
UncalGyro,1676592782076,29838898312392,0.8242099,1.212262,1.0546589,0.0015596993,-0.0016472944,-0.0003403791
UncalAccel,1676592782076,29838898312392,6.1902323,1.5499508,5.1062837,0.037048545,-0.031444572,0.0098014325
OrientationDeg,1676592782076,29838898312392,247.0,-7.0,6.0
UncalMag,1676592782085,29838906636600,-157.8924,766.0868,387.8746,-174.57417,771.0116,430.86337
UncalGyro,1676592782084,29838906794936,1.2061534,1.1155926,1.1699597,0.0015596993,-0.0016472944,-0.0003403791
UncalAccel,1676592782084,29838906794936,3.8069808,1.442872,6.0083776,0.037048545,-0.031444572,0.0098014325
OrientationDeg,1676592782084,29838906794936,246.0,-7.0,6.0
Fix,FLP,37.4308190000,-122.1550320000,-15.700000762939453,0.32121786,6.972,270.13528,1676592781962,,,29838784015067,4.1663136
UncalGyro,1676592782093,29838915272005,1.454012,1.0705414,1.0636691,0.0015596993,-0.0016472944,-0.0003403791
UncalAccel,1676592782093,29838915272005,1.9902302,2.4209383,7.199405,0.037048545,-0.031444572,0.0098014325
UncalMag,1676592782094,29838916625695,-157.4166,765.40356,388.1796,-174.57417,771.0116,430.86337
OrientationDeg,1676592782093,29838915272005,246.0,-6.0,5.0
UncalGyro,1676592782101,29838923753735,1.6146696,0.87979865,0.79473567,0.0015596993,-0.0016472944,-0.0003403791
UncalAccel,1676592782101,29838923753735,0.7692925,3.3846476,7.954939,0.037048545,-0.031444572,0.0098014325
OrientationDeg,1676592782101,29838923753735,245.0,-6.0,4.0
UncalMag,1676592782104,29838926636558,-156.3918,765.001,388.6676,-174.57417,771.0116,430.86337
UncalGyro,1676592782110,29838932236125,1.6956092,0.6375906,0.3727805,0.0015596993,-0.0016472944,-0.0003403791
UncalAccel,1676592782110,29838932236125,0.20817557,4.034299,9.5760765,0.037048545,-0.031444572,0.0098014325
OrientationDeg,1676592782110,29838932236125,245.0,-5.0,4.0
UncalMag,1676592782114,29838936631349,-156.56259,763.9762,389.5216,-174.57417,771.0116,430.86337
UncalGyro,1676592782118,29838940719503,1.6433803,0.2509129,-0.09560041,0.0015596993,-0.0016472944,-0.0003403791
UncalAccel,1676592782118,29838940719503,-0.27337998,3.2273195,9.337991,0.037048545,-0.031444572,0.0098014325
OrientationDeg,1676592782118,29838940719503,245.0,-5.0,3.0
UncalMag,1676592782124,29838946636272,-156.831,762.97577,388.31378,-174.57417,771.0116,430.86337
UncalGyro,1676592782127,29838949199310,1.4419475,-0.17058411,-0.5102252,0.0015596993,-0.0016472944,-0.0003403791
UncalAccel,1676592782127,29838949199310,0.17587246,2.347359,9.961321,0.037048545,-0.031444572,0.0098014325
OrientationDeg,1676592782127,29838949199310,245.0,-5.0,2.0
UncalMag,1676592782134,29838956636597,-156.3064,763.0124,389.15558,-174.57417,771.0116,430.86337
UncalGyro,1676592782135,29838957676401,1.183246,-0.49754974,-0.84940815,0.0015596993,-0.0016472944,-0.0003403791
UncalAccel,1676592782135,29838957676401,1.0869397,1.7485552,10.733604,0.037048545,-0.031444572,0.0098014325
OrientationDeg,1676592782135,29838957676401,245.0,-6.0,1.0
UncalGyro,1676592782144,29838966160166,0.93951076,-0.8222246,-1.0833695,0.0015596993,-0.0016472944,-0.0003403791
UncalAccel,1676592782144,29838966160166,2.2558336,1.0187442,10.3441725,0.037048545,-0.031444572,0.0098014325
UncalMag,1676592782144,29838966621500,-156.4162,762.927,389.3874,-174.57417,771.0116,430.86337
OrientationDeg,1676592782144,29838966160166,246.0,-6.0,1.0
UncalGyro,1676592782152,29838974635160,0.7286095,-1.1068878,-1.1930199,0.0015596993,-0.0016472944,-0.0003403791
UncalAccel,1676592782152,29838974635160,3.5294135,-0.05682954,10.958529,0.037048545,-0.031444572,0.0098014325
OrientationDeg,1676592782153,29838974635160,246.0,-7.0,0.0
UncalMag,1676592782154,29838976636473,-157.48979,762.4634,388.814,-174.57417,771.0116,430.86337
UncalGyro,1676592782161,29838983123186,0.54229563,-1.2609786,-1.129948,0.0015596993,-0.0016472944,-0.0003403791
UncalAccel,1676592782161,29838983123186,4.4057846,-1.2819548,10.3645115,0.037048545,-0.031444572,0.0098014325
OrientationDeg,1676592782161,29838983123186,247.0,-7.0,0.0
UncalMag,1676592782164,29838986636513,-157.4776,762.5732,389.69238,-174.57417,771.0116,430.86337
UncalGyro,1676592782169,29838991605903,0.4625777,-1.5503759,-0.98822725,0.0015596993,-0.0016472944,-0.0003403791
UncalAccel,1676592782169,29838991605903,3.9738803,-1.4781662,8.792427,0.037048545,-0.031444572,0.0098014325
OrientationDeg,1676592782169,29838991605903,247.0,-8.0,0.0
UncalMag,1676592782174,29838996617876,-158.3316,762.3658,389.05798,-174.57417,771.0116,430.86337
UncalGyro,1676592782178,29839000082414,0.47357327,-1.7337883,-0.79717916,0.0015596993,-0.0016472944,-0.0003403791
UncalAccel,1676592782178,29839000082414,4.701298,-2.0297117,9.176475,0.037048545,-0.031444572,0.0098014325
OrientationDeg,1676592782178,29839000082414,248.0,-9.0,0.0
UncalMag,1676592782184,29839006633623,-159.0392,762.7806,388.9238,-174.57417,771.0116,430.86337
UncalGyro,1676592782186,29839008544175,0.5539021,-1.7450893,-0.5352707,0.0015596993,-0.0016472944,-0.0003403791
UncalAccel,1676592782186,29839008544175,4.726423,-2.0207388,9.616156,0.037048545,-0.031444572,0.0098014325
OrientationDeg,1676592782186,29839008544175,248.0,-10.0,0.0
UncalMag,1676592782194,29839016636592,-160.1006,762.378,388.0088,-174.57417,771.0116,430.86337
UncalGyro,1676592782195,29839017036025,0.68661255,-1.5975653,-0.2835942,0.0015596993,-0.0016472944,-0.0003403791
UncalAccel,1676592782195,29839017036025,4.6911287,-1.7922242,10.330414,0.037048545,-0.031444572,0.0098014325
OrientationDeg,1676592782195,29839017036025,248.0,-11.0,0.0
UncalGyro,1676592782203,29839025529596,0.8205447,-1.3590225,-0.081855945,0.0015596993,-0.0016472944,-0.0003403791
UncalAccel,1676592782203,29839025529596,4.6707897,-1.4530416,10.887343,0.037048545,-0.031444572,0.0098014325
UncalMag,1676592782204,29839026626948,-160.3568,761.5728,387.2158,-174.57417,771.0116,430.86337
OrientationDeg,1676592782203,29839025529596,248.0,-11.0,0.0
UncalGyro,1676592782212,29839034008080,0.9283624,-1.0795516,0.0627664,0.0015596993,-0.0016472944,-0.0003403791
UncalAccel,1676592782212,29839034008080,4.449454,-0.971486,11.36531,0.037048545,-0.031444572,0.0098014325
OrientationDeg,1676592782212,29839034008080,248.0,-12.0,-1.0
UncalMag,1676592782214,29839036636387,-160.8936,761.48737,387.56958,-174.57417,771.0116,430.86337
UncalGyro,1676592782220,29839042489037,0.98837996,-0.7666359,0.1375974,0.0015596993,-0.0016472944,-0.0003403791
UncalAccel,1676592782220,29839042489037,4.0642095,-0.3379862,11.874981,0.037048545,-0.031444572,0.0098014325
OrientationDeg,1676592782220,29839042489037,248.0,-12.0,-1.0
UncalMag,1676592782224,29839046636509,-160.93019,760.6944,387.63058,-174.57417,771.0116,430.86337
UncalGyro,1676592782228,29839050969211,0.98563105,-0.42058071,0.15286903,0.0015596993,-0.0016472944,-0.0003403791
UncalAccel,1676592782228,29839050969211,3.6580276,0.21475583,12.0843525,0.037048545,-0.031444572,0.0098014325
OrientationDeg,1676592782228,29839050969211,247.0,-12.0,-2.0
UncalMag,1676592782234,29839056636549,-161.3572,760.6212,388.10638,-174.57417,771.0116,430.86337
UncalGyro,1676592782237,29839059451225,0.9245446,-0.116675265,0.12751812,0.0015596993,-0.0016472944,-0.0003403791
UncalAccel,1676592782238,29839059451225,3.3720853,0.50129634,11.75175,0.037048545,-0.031444572,0.0098014325
OrientationDeg,1676592782237,29839059451225,247.0,-12.0,-2.0
UncalMag,1676592782244,29839066636344,-161.7964,760.2552,388.15518,-174.57417,771.0116,430.86337
UncalGyro,1676592782245,29839067930105,0.80756384,0.118202426,0.09193522,0.0015596993,-0.0016472944,-0.0003403791
UncalAccel,1676592782245,29839067930105,3.0490541,0.51864433,11.453844,0.037048545,-0.031444572,0.0098014325
OrientationDeg,1676592782245,29839067930105,247.0,-12.0,-3.0
UncalGyro,1676592782254,29839076412741,0.6542367,0.28970283,0.08017606,0.0015596993,-0.0016472944,-0.0003403791
UncalAccel,1676592782254,29839076412741,2.5896323,0.27218357,11.027323,0.037048545,-0.031444572,0.0098014325
UncalMag,1676592782254,29839076620434,-161.6378,759.57196,388.2284,-174.57417,771.0116,430.86337
OrientationDeg,1676592782254,29839076412741,247.0,-12.0,-3.0
UncalGyro,1676592782262,29839084892334,0.46807548,0.3904956,0.089491755,0.0015596993,-0.0016472944,-0.0003403791
UncalAccel,1676592782263,29839084892334,2.2588246,0.06999006,10.625329,0.037048545,-0.031444572,0.0098014325
OrientationDeg,1676592782262,29839084892334,247.0,-12.0,-3.0
UncalMag,1676592782264,29839086625682,-160.79599,759.5964,388.57,-174.57417,771.0116,430.86337
UncalGyro,1676592782271,29839093372110,0.2706133,0.41599923,0.09712757,0.0015596993,-0.0016472944,-0.0003403791
UncalAccel,1676592782271,29839093372110,2.0075781,0.26021945,10.169497,0.037048545,-0.031444572,0.0098014325
UncalMag,1676592782274,29839096626251,-161.0156,759.4866,387.8258,-174.57417,771.0116,430.86337
OrientationDeg,1676592782271,29839093372110,247.0,-12.0,-3.0
UncalGyro,1676592782279,29839101848632,0.0954477,0.3914119,0.090713486,0.0015596993,-0.0016472944,-0.0003403791
UncalAccel,1676592782279,29839101848632,1.605584,0.5072784,10.036695,0.037048545,-0.031444572,0.0098014325
OrientationDeg,1676592782279,29839101848632,247.0,-12.0,-3.0
UncalMag,1676592782284,29839106619414,-160.79599,759.4866,387.8258,-174.57417,771.0116,430.86337
UncalGyro,1676592782288,29839110337024,-0.03359759,0.38866302,0.07803804,0.0015596993,-0.0016472944,-0.0003403791
UncalAccel,1676592782288,29839110337024,1.2083755,0.64845496,10.000204,0.037048545,-0.031444572,0.0098014325
OrientationDeg,1676592782288,29839110337024,247.0,-11.0,-3.0
UncalMag,1676592782294,29839116636300,-160.5398,758.7546,389.21658,-174.57417,771.0116,430.86337
UncalGyro,1676592782296,29839118817004,-0.12812899,0.40698898,0.028252518,0.0015596993,-0.0016472944,-0.0003403791
UncalAccel,1676592782296,29839118817004,1.0456635,1.0217353,9.7298155,0.037048545,-0.031444572,0.0098014325
OrientationDeg,1676592782296,29839118817004,247.0,-11.0,-3.0
UncalMag,1676592782304,29839126636503,-159.86879,759.45,388.875,-174.57417,771.0116,430.86337
UncalGyro,1676592782305,29839127301744,-0.20158553,0.3998113,-0.025809057,0.0015596993,-0.0016472944,-0.0003403791
UncalAccel,1676592782305,29839127301744,0.6999006,0.94337034,9.336794,0.037048545,-0.031444572,0.0098014325
OrientationDeg,1676592782305,29839127301744,247.0,-11.0,-3.0
UncalGyro,1676592782313,29839135782141,-0.25671613,0.35094208,-0.064446285,0.0015596993,-0.0016472944,-0.0003403791
UncalAccel,1676592782313,29839135782141,0.32542387,0.5485546,9.164511,0.037048545,-0.031444572,0.0098014325
UncalMag,1676592782314,29839136626126,-160.61299,759.25476,388.7286,-174.57417,771.0116,430.86337
OrientationDeg,1676592782313,29839135782141,247.0,-11.0,-3.0
UncalGyro,1676592782322,29839144249527,-0.2843578,0.26908615,-0.10338894,0.0015596993,-0.0016472944,-0.0003403791
UncalAccel,1676592782322,29839144249527,0.19262223,0.3080759,9.169894,0.037048545,-0.031444572,0.0098014325
OrientationDeg,1676592782322,29839144249527,247.0,-11.0,-3.0
UncalMag,1676592782324,29839146636420,-159.8566,759.5232,388.5334,-174.57417,771.0116,430.86337
UncalGyro,1676592782330,29839152742772,-0.2835942,0.16691893,-0.15454891,0.0015596993,-0.0016472944,-0.0003403791
UncalAccel,1676592782330,29839152742772,0.1591227,0.25543383,9.222537,0.037048545,-0.031444572,0.0098014325
UncalMag,1676592782334,29839156636500,-159.84439,759.7672,387.8624,-174.57417,771.0116,430.86337
OrientationDeg,1676592782330,29839152742772,247.0,-11.0,-3.0
UncalGyro,1676592782339,29839161211379,-0.24419338,0.031001411,-0.2096795,0.0015596993,-0.0016472944,-0.0003403791
UncalAccel,1676592782339,29839161211379,0.0741775,0.15433706,9.136395,0.037048545,-0.031444572,0.0098014325
OrientationDeg,1676592782339,29839161211379,247.0,-11.0,-3.0
UncalMag,1676592782344,29839166636255,-159.7346,759.77936,387.9844,-174.57417,771.0116,430.86337
UncalGyro,1676592782347,29839169703382,-0.15470162,-0.11484267,-0.25778514,0.0015596993,-0.0016472944,-0.0003403791
UncalAccel,1676592782347,29839169703382,-0.0017946169,-0.023330022,9.199206,0.037048545,-0.031444572,0.0098014325
OrientationDeg,1676592782348,29839169703382,247.0,-11.0,-3.0
UncalMag,1676592782354,29839176636580,-159.6248,759.9746,388.63098,-174.57417,771.0116,430.86337
UncalGyro,1676592782356,29839178195691,-0.009010263,-0.24358252,-0.29428434,0.0015596993,-0.0016472944,-0.0003403791
UncalAccel,1676592782356,29839178195691,-0.03589234,-0.23030917,9.404989,0.037048545,-0.031444572,0.0098014325
OrientationDeg,1676592782356,29839178195691,247.0,-11.0,-3.0
UncalMag,1676592782364,29839186636579,-160.0518,759.79156,388.7286,-174.57417,771.0116,430.86337
UncalGyro,1676592782364,29839186666598,0.1965459,-0.32284227,-0.31031954,0.0015596993,-0.0016472944,-0.0003403791
UncalAccel,1676592782364,29839186666598,0.029910283,-0.47916272,9.783653,0.037048545,-0.031444572,0.0098014325
OrientationDeg,1676592782364,29839186666598,248.0,-11.0,-3.0
UncalGyro,1676592782373,29839195144126,0.44776422,-0.3359759,-0.29550606,0.0015596993,-0.0016472944,-0.0003403791
UncalAccel,1676592782373,29839195144126,0.28713873,-0.79441714,10.1497555,0.037048545,-0.031444572,0.0098014325
UncalMag,1676592782374,29839196626040,-159.942,759.77936,388.10638,-174.57417,771.0116,430.86337
OrientationDeg,1676592782373,29839195144126,248.0,-11.0,-3.0
UncalGyro,1676592782381,29839203627615,0.7160868,-0.30833423,-0.24510968,0.0015596993,-0.0016472944,-0.0003403791
UncalAccel,1676592782381,29839203627615,0.61675006,-1.1186446,10.4016,0.037048545,-0.031444572,0.0098014325
UncalMag,1676592782384,29839206636252,-160.2226,760.3772,388.26498,-174.57417,771.0116,430.86337
OrientationDeg,1676592782381,29839203627615,248.0,-11.0,-3.0
UncalGyro,1676592782390,29839212123648,0.96974856,-0.25534168,-0.15118915,0.0015596993,-0.0016472944,-0.0003403791
UncalAccel,1676592782390,29839212123648,0.9320044,-1.4093726,10.667203,0.037048545,-0.031444572,0.0098014325
OrientationDeg,1676592782390,29839212123648,248.0,-11.0,-4.0
UncalMag,1676592782394,29839216635967,-160.5032,759.3402,388.509,-174.57417,771.0116,430.86337
UncalGyro,1676592782398,29839220590525,1.1728612,-0.19486602,-0.025350908,0.0015596993,-0.0016472944,-0.0003403791
UncalAccel,1676592782398,29839220590525,1.2466606,-1.5900307,10.932807,0.037048545,-0.031444572,0.0098014325
OrientationDeg,1676592782398,29839220590525,248.0,-11.0,-4.0
UncalMag,1676592782404,29839226636536,-160.0152,758.7668,389.3264,-174.57417,771.0116,430.86337
UncalGyro,1676592782407,29839229068603,1.2993103,-0.12583824,0.12217305,0.0015596993,-0.0016472944,-0.0003403791
UncalAccel,1676592782407,29839229068603,1.4883357,-1.5696917,11.19183,0.037048545,-0.031444572,0.0098014325
OrientationDeg,1676592782407,29839229068603,247.0,-12.0,-5.0
UncalMag,1676592782414,29839236636291,-160.6496,758.474,388.9116,-174.57417,771.0116,430.86337
UncalGyro,1676592782415,29839237541045,1.3550519,-0.055588737,0.28069258,0.0015596993,-0.0016472944,-0.0003403791
UncalAccel,1676592782415,29839237541045,1.5481563,-1.4015958,11.382657,0.037048545,-0.031444572,0.0098014325
OrientationDeg,1676592782415,29839237541045,247.0,-12.0,-6.0
UncalGyro,1676592782424,29839246034229,1.3645202,0.02076942,0.43111816,0.0015596993,-0.0016472944,-0.0003403791
UncalAccel,1676592782424,29839246034229,1.5463617,-1.1814562,11.524432,0.037048545,-0.031444572,0.0098014325
UncalMag,1676592782424,29839246631367,-160.3812,757.7908,389.0946,-174.57417,771.0116,430.86337
OrientationDeg,1676592782424,29839246034229,247.0,-12.0,-6.0
UncalGyro,1676592782432,29839254514371,1.3529139,0.07620544,0.5522222,0.0015596993,-0.0016472944,-0.0003403791
UncalAccel,1676592782432,29839254514371,1.4829519,-0.91346,11.446666,0.037048545,-0.031444572,0.0098014325
OrientationDeg,1676592782432,29839254514371,246.0,-12.0,-7.0
UncalMag,1676592782435,29839256626198,-160.43,757.0832,388.692,-174.57417,771.0116,430.86337
UncalGyro,1676592782440,29839262989366,1.3495541,0.0777326,0.6383542,0.0015596993,-0.0016472944,-0.0003403791
UncalAccel,1676592782440,29839262989366,1.3686945,-0.6358926,11.224731,0.037048545,-0.031444572,0.0098014325
OrientationDeg,1676592782440,29839262989366,246.0,-12.0,-7.0
UncalMag,1676592782444,29839266626157,-160.8326,755.6192,389.8022,-174.57417,771.0116,430.86337
UncalGyro,1676592782450,29839271465023,1.3675746,0.050549097,0.6953174,0.0015596993,-0.0016472944,-0.0003403791
UncalAccel,1676592782449,29839271465023,1.3351951,-0.40618163,11.089537,0.037048545,-0.031444572,0.0098014325
OrientationDeg,1676592782449,29839271465023,245.0,-12.0,-8.0
UncalMag,1676592782454,29839276625668,-161.1254,756.08276,390.64398,-174.57417,771.0116,430.86337
UncalGyro,1676592782457,29839279958573,1.4033102,0.03390302,0.7244862,0.0015596993,-0.0016472944,-0.0003403791
UncalAccel,1676592782457,29839279958573,1.416551,-0.21834506,10.955539,0.037048545,-0.031444572,0.0098014325
OrientationDeg,1676592782457,29839279958573,245.0,-12.0,-8.0
UncalMag,1676592782464,29839286625870,-160.6496,755.2044,390.1804,-174.57417,771.0116,430.86337
UncalGyro,1676592782466,29839288444483,1.45783,0.03680463,0.7440339,0.0015596993,-0.0016472944,-0.0003403791
UncalAccel,1676592782466,29839288444483,1.5744773,-0.10229317,10.826924,0.037048545,-0.031444572,0.0098014325
OrientationDeg,1676592782466,29839288444483,244.0,-12.0,-9.0
UncalMag,1676592782474,29839296626195,-160.918,754.2528,390.5708,-174.57417,771.0116,430.86337
UncalGyro,1676592782474,29839296914464,1.5337299,0.035277467,0.76174897,0.0015596993,-0.0016472944,-0.0003403791
UncalAccel,1676592782474,29839296914464,1.8430717,-0.047856454,10.694721,0.037048545,-0.031444572,0.0098014325
OrientationDeg,1676592782474,29839296914464,244.0,-12.0,-10.0
UncalGyro,1676592782483,29839305399133,1.6333009,0.051465396,0.79229224,0.0015596993,-0.0016472944,-0.0003403791
UncalAccel,1676592782483,29839305399133,2.067997,-0.09451649,10.730015,0.037048545,-0.031444572,0.0098014325
UncalMag,1676592782484,29839306626601,-160.77159,753.1914,390.1926,-174.57417,771.0116,430.86337
OrientationDeg,1676592782483,29839305399133,243.0,-12.0,-10.0
UncalGyro,1676592782491,29839313880801,1.7545577,0.12690726,0.84574294,0.0015596993,-0.0016472944,-0.0003403791
UncalAccel,1676592782492,29839313880801,2.3306093,-0.12622139,10.817951,0.037048545,-0.031444572,0.0098014325
OrientationDeg,1676592782491,29839313880801,243.0,-12.0,-11.0
UncalMag,1676592782494,29839316636407,-161.3328,752.5692,389.8144,-174.57417,771.0116,430.86337
UncalGyro,1676592782500,29839322351748,1.882534,0.25534168,0.9053023,0.0015596993,-0.0016472944,-0.0003403791
UncalAccel,1676592782500,29839322351748,2.6350958,0.047856454,10.837692,0.037048545,-0.031444572,0.0098014325
UncalMag,1676592782504,29839326625867,-160.8448,751.9104,391.0954,-174.57417,771.0116,430.86337
OrientationDeg,1676592782500,29839322351748,242.0,-12.0,-12.0
UncalGyro,1676592782509,29839330832643,2.0022635,0.43860126,0.9640981,0.0015596993,-0.0016472944,-0.0003403791
UncalAccel,1676592782508,29839330832643,2.8863423,0.35593235,10.966905,0.037048545,-0.031444572,0.0098014325
OrientationDeg,1676592782508,29839330832643,241.0,-12.0,-13.0
UncalMag,1676592782514,29839336625867,-160.8448,751.9104,391.0954,-174.57417,771.0116,430.86337
UncalGyro,1676592782517,29839339322196,2.1013765,0.66675943,1.0126618,0.0015596993,-0.0016472944,-0.0003403791
UncalAccel,1676592782517,29839339322196,3.0747771,0.70648086,11.099706,0.037048545,-0.031444572,0.0098014325
OrientationDeg,1676592782517,29839339322196,241.0,-12.0,-14.0
UncalMag,1676592782524,29839346626802,-161.27179,750.2024,392.5106,-174.57417,771.0116,430.86337
UncalGyro,1676592782525,29839347803955,2.1488712,0.9100365,1.0490084,0.0015596993,-0.0016472944,-0.0003403791
UncalAccel,1676592782526,29839347803955,3.0723844,1.1419746,11.08834,0.037048545,-0.031444572,0.0098014325
OrientationDeg,1676592782525,29839347803955,240.0,-12.0,-15.0
UncalGyro,1676592782534,29839356284811,2.1241312,1.131017,1.0709995,0.0015596993,-0.0016472944,-0.0003403791
UncalAccel,1676592782534,29839356284811,2.961118,1.5966109,10.917851,0.037048545,-0.031444572,0.0098014325
UncalMag,1676592782534,29839356645844,-160.8814,748.0796,393.8038,-174.57417,771.0116,430.86337
OrientationDeg,1676592782534,29839356284811,239.0,-11.0,-15.0
UncalGyro,1676592782542,29839364767313,2.032196,1.2927436,1.0784826,0.0015596993,-0.0016472944,-0.0003403791
UncalAccel,1676592782542,29839364767313,2.7086751,1.9597218,10.537393,0.037048545,-0.031444572,0.0098014325
OrientationDeg,1676592782542,29839364767313,238.0,-11.0,-16.0
UncalMag,1676592782544,29839366636485,-160.8814,748.0796,393.8038,-174.57417,771.0116,430.86337
UncalGyro,1676592782551,29839373244372,1.8852829,1.3877331,1.0668762,0.0015596993,-0.0016472944,-0.0003403791
UncalAccel,1676592782551,29839373244372,2.585445,2.295315,10.182058,0.037048545,-0.031444572,0.0098014325
OrientationDeg,1676592782552,29839373244372,238.0,-10.0,-17.0
UncalMag,1676592782554,29839376636565,-160.2104,747.128,393.6818,-174.57417,771.0116,430.86337
UncalGyro,1676592782559,29839381726765,1.6885842,1.4396566,1.0537425,0.0015596993,-0.0016472944,-0.0003403791
UncalAccel,1676592782559,29839381726765,2.4424736,2.5435705,9.88834,0.037048545,-0.031444572,0.0098014325
OrientationDeg,1676592782559,29839381726765,237.0,-10.0,-18.0
UncalMag,1676592782564,29839386631315,-159.9908,745.70056,395.28,-174.57417,771.0116,430.86337
UncalGyro,1676592782568,29839390212675,1.483028,1.4576772,1.0395399,0.0015596993,-0.0016472944,-0.0003403791
UncalAccel,1676592782568,29839390212675,2.2420747,2.815754,9.685548,0.037048545,-0.031444572,0.0098014325
OrientationDeg,1676592782569,29839390212675,236.0,-9.0,-18.0
UncalMag,1676592782574,29839396626188,-160.0396,744.74896,395.5362,-174.57417,771.0116,430.86337
UncalGyro,1676592782576,29839398689521,1.2982414,1.4717271,1.0132728,0.0015596993,-0.0016472944,-0.0003403791
UncalAccel,1676592782576,29839398689521,2.199004,3.0699914,9.507282,0.037048545,-0.031444572,0.0098014325
OrientationDeg,1676592782576,29839398689521,236.0,-9.0,-19.0
UncalMag,1676592782584,29839406627652,-159.66139,744.1512,395.98758,-174.57417,771.0116,430.86337
UncalGyro,1676592782585,29839407166448,1.132086,1.4756978,0.9653198,0.0015596993,-0.0016472944,-0.0003403791
UncalAccel,1676592782585,29839407166448,2.2671995,3.3200414,9.167501,0.037048545,-0.031444572,0.0098014325
OrientationDeg,1676592782585,29839407166448,235.0,-8.0,-19.0
UncalGyro,1676592782593,29839415652574,0.9960158,1.4369078,0.90133166,0.0015596993,-0.0016472944,-0.0003403791
UncalAccel,1676592782593,29839415652574,2.1391835,3.5976088,8.83131,0.037048545,-0.031444572,0.0098014325
OrientationDeg,1676592782593,29839415652574,235.0,-8.0,-20.0
UncalMag,1676592782594,29839416626268,-159.4662,744.00476,396.5488,-174.57417,771.0116,430.86337
UncalGyro,1676592782602,29839424135025,0.91415983,1.3489432,0.8153524,0.0015596993,-0.0016472944,-0.0003403791
UncalAccel,1676592782602,29839424135025,1.9094725,3.9080775,8.62792,0.037048545,-0.031444572,0.0098014325
OrientationDeg,1676592782602,29839424135025,234.0,-7.0,-20.0
UncalMag,1676592782604,29839426636480,-158.7952,743.0044,397.7444,-174.57417,771.0116,430.86337
UncalGyro,1676592782610,29839432613520,0.87979865,1.2507466,0.70402217,0.0015596993,-0.0016472944,-0.0003403791
UncalAccel,1676592782610,29839432613520,1.7258233,4.19402,8.653643,0.037048545,-0.031444572,0.0098014325
OrientationDeg,1676592782610,29839432613520,234.0,-7.0,-21.0
UncalMag,1676592782614,29839436625574,-158.3682,743.285,397.9274,-174.57417,771.0116,430.86337
UncalGyro,1676592782619,29839441083999,0.86635965,1.165989,0.5705481,0.0015596993,-0.0016472944,-0.0003403791
UncalAccel,1676592782619,29839441083999,1.6767704,4.438088,8.676374,0.037048545,-0.031444572,0.0098014325
OrientationDeg,1676592782619,29839441083999,233.0,-6.0,-21.0
UncalMag,1676592782624,29839446626184,-158.6122,742.6506,397.537,-174.57417,771.0116,430.86337
UncalGyro,1676592782627,29839449573835,0.86620694,1.0784826,0.42485678,0.0015596993,-0.0016472944,-0.0003403791
UncalAccel,1676592782627,29839449573835,1.6079768,4.595416,8.765508,0.037048545,-0.031444572,0.0098014325
OrientationDeg,1676592782627,29839449573835,233.0,-6.0,-21.0
UncalMag,1676592782634,29839456636274,-158.3438,741.9064,398.5618,-174.57417,771.0116,430.86337
UncalGyro,1676592782636,29839458057792,0.8677341,1.0076222,0.2875648,0.0015596993,-0.0016472944,-0.0003403791
UncalAccel,1676592782636,29839458057792,1.5930216,4.6002016,8.86122,0.037048545,-0.031444572,0.0098014325
OrientationDeg,1676592782636,29839458057792,233.0,-6.0,-22.0
UncalGyro,1676592782644,29839466534589,0.8520043,0.95630956,0.17928895,0.0015596993,-0.0016472944,-0.0003403791
UncalAccel,1676592782644,29839466534589,1.5972091,4.494319,9.014361,0.037048545,-0.031444572,0.0098014325
UncalMag,1676592782644,29839466630252,-158.3438,741.9308,399.2938,-174.57417,771.0116,430.86337
OrientationDeg,1676592782644,29839466534589,233.0,-5.0,-22.0
UncalGyro,1676592782653,29839475018739,0.8164214,0.9236283,0.111941054,0.0015596993,-0.0016472944,-0.0003403791
UncalAccel,1676592782653,29839475018739,1.6301104,4.3316073,9.1681,0.037048545,-0.031444572,0.0098014325
UncalMag,1676592782654,29839476629559,-157.1116,741.638,400.526,-174.57417,771.0116,430.86337
OrientationDeg,1676592782653,29839475018739,233.0,-5.0,-23.0
UncalGyro,1676592782661,29839483493774,0.7834347,0.9114109,0.07941248,0.0015596993,-0.0016472944,-0.0003403791
UncalAccel,1676592782661,29839483493774,1.6336997,4.240082,9.38824,0.037048545,-0.031444572,0.0098014325
OrientationDeg,1676592782661,29839483493774,233.0,-4.0,-23.0
UncalMag,1676592782664,29839486625774,-157.2702,740.6498,399.5744,-174.57417,771.0116,430.86337
UncalGyro,1676592782669,29839491981537,0.74464476,0.9486737,0.069027774,0.0015596993,-0.0016472944,-0.0003403791
UncalAccel,1676592782669,29839491981537,1.655235,4.2687955,9.698111,0.037048545,-0.031444572,0.0098014325
OrientationDeg,1676592782669,29839491981537,233.0,-4.0,-23.0
UncalMag,1676592782674,29839496627360,-156.7578,740.5766,399.7818,-174.57417,771.0116,430.86337
UncalGyro,1676592782678,29839500451598,0.6924158,1.0175488,0.06887506,0.0015596993,-0.0016472944,-0.0003403791
UncalAccel,1676592782678,29839500451598,1.6630118,4.339982,9.912866,0.037048545,-0.031444572,0.0098014325
OrientationDeg,1676592782678,29839500451598,233.0,-3.0,-24.0
UncalMag,1676592782684,29839506620402,-157.0506,740.8694,400.953,-174.57417,771.0116,430.86337
UncalGyro,1676592782686,29839508934131,0.62888575,1.0958922,0.07009678,0.0015596993,-0.0016472944,-0.0003403791
UncalAccel,1676592782686,29839508934131,1.6091732,4.5409794,9.934999,0.037048545,-0.031444572,0.0098014325
OrientationDeg,1676592782686,29839508934131,232.0,-3.0,-24.0
UncalMag,1676592782694,29839516620767,-156.5504,740.6376,401.3556,-174.57417,771.0116,430.86337
UncalGyro,1676592782695,29839517411547,0.56138515,1.1725558,0.06414085,0.0015596993,-0.0016472944,-0.0003403791
UncalAccel,1676592782695,29839517411547,1.4027922,4.822136,9.860822,0.037048545,-0.031444572,0.0098014325
UncalGyro,1676592782703,29839525891710,0.49434268,1.2313516,0.04886922,0.0015596993,-0.0016472944,-0.0003403791
UncalAccel,1676592782703,29839525891710,1.1437693,5.0937214,9.734002,0.037048545,-0.031444572,0.0098014325
UncalMag,1676592782704,29839526633177,-155.8916,739.4176,401.0506,-174.57417,771.0116,430.86337
OrientationDeg,1676592782696,29839517411547,232.0,-2.0,-24.0
OrientationDeg,1676592782703,29839525891710,232.0,-2.0,-24.0
UncalGyro,1676592782712,29839534375312,0.4436409,1.261284,0.018325957,0.0015596993,-0.0016472944,-0.0003403791
UncalAccel,1676592782712,29839534375312,0.8805587,5.303093,9.620942,0.037048545,-0.031444572,0.0098014325
