# 
# Header Description:
# 
# Version: v3.0.5.6 Platform: 13 Manufacturer: Google Model: Pixel 7
# 
# Raw,utcTimeMillis,TimeNanos,LeapSecond,TimeUncertaintyNanos,FullBiasNanos,BiasNanos,BiasUncertaintyNanos,DriftNanosPerSecond,DriftUncertaintyNanosPerSecond,HardwareClockDiscontinuityCount,Svid,TimeOffsetNanos,State,ReceivedSvTimeNanos,ReceivedSvTimeUncertaintyNanos,Cn0DbHz,PseudorangeRateMetersPerSecond,PseudorangeRateUncertaintyMetersPerSecond,AccumulatedDeltaRangeState,AccumulatedDeltaRangeMeters,AccumulatedDeltaRangeUncertaintyMeters,CarrierFrequencyHz,CarrierCycles,CarrierPhase,CarrierPhaseUncertainty,MultipathIndicator,SnrInDb,ConstellationType,AgcDb,BasebandCn0DbHz,FullInterSignalBiasNanos,FullInterSignalBiasUncertaintyNanos,SatelliteInterSignalBiasNanos,SatelliteInterSignalBiasUncertaintyNanos,CodeType,ChipsetElapsedRealtimeNanos
# 
# UncalAccel,utcTimeMillis,elapsedRealtimeNanos,UncalAccelXMps2,UncalAccelYMps2,UncalAccelZMps2,BiasXMps2,BiasYMps2,BiasZMps2
# 
# Accel,utcTimeMillis,elapsedRealtimeNanos,AccelXMps2,AccelYMps2,AccelZMps2
# 
# UncalGyro,utcTimeMillis,elapsedRealtimeNanos,UncalGyroXRadPerSec,UncalGyroYRadPerSec,UncalGyroZRadPerSec,DriftXRadPerSec,DriftYRadPerSec,DriftZRadPerSec
# 
# Gyro,utcTimeMillis,elapsedRealtimeNanos,GyroXRadPerSec,GyroYRadPerSec,GyroZRadPerSec
# 
# UncalMag,utcTimeMillis,elapsedRealtimeNanos,UncalMagXMicroT,UncalMagYMicroT,UncalMagZMicroT,BiasXMicroT,BiasYMicroT,BiasZMicroT
# 
# Mag,utcTimeMillis,elapsedRealtimeNanos,MagXMicroT,MagYMicroT,MagZMicroT
# 
# OrientationDeg,utcTimeMillis,elapsedRealtimeNanos,yawDeg,rollDeg,pitchDeg
# 
# Fix,Provider,LatitudeDegrees,LongitudeDegrees,AltitudeMeters,SpeedMps,AccuracyMeters,BearingDegrees,UnixTimeMillis,SpeedAccuracyMps,BearingAccuracyDegrees,elapsedRealtimeNanos,VerticalAccuracyMeters
# 
# Nav,Svid,Type,Status,MessageId,Sub-messageId,Data(Bytes)
# 
# Status,UnixTimeMillis,SignalCount,SignalIndex,ConstellationType,Svid,CarrierFrequencyHz,Cn0DbHz,AzimuthDegrees,ElevationDegrees,UsedInFix,HasAlmanacData,HasEphemerisData,BasebandCn0DbHz
# 
UncalGyro,1676593676150,30732972862018,-0.053297993,-0.5749769,-0.031154128,0.000619511,-0.0016941649,-0.00032316393
UncalMag,1676593676152,30732974587726,-177.7906,785.985,387.4476,-174.57417,771.0116,430.86337
UncalAccel,1676593676155,30732977091856,2.9282167,2.0985055,15.080765,0.037048545,-0.031444572,0.0098014325
UncalGyro,1676593676159,30732981331420,0.29611692,-0.23411411,-0.048716504,0.000619511,-0.0016941649,-0.00032316393
UncalMag,1676593676162,30732984587930,-178.64459,785.802,387.78918,-174.57417,771.0116,430.86337
UncalAccel,1676593676164,30732985571206,3.1208389,2.1343977,14.217554,0.037048545,-0.031444572,0.0098014325
OrientationDeg,1676593676163,30732985571206,353.0,-10.0,-10.0
UncalGyro,1676593676167,30732989813476,0.54718256,0.028710667,-0.074830994,0.000619511,-0.0016941649,-0.00032316393
Fix,FLP,37.4312639000,-122.1550221000,-16.5,0.69176066,3.844,128.9039,1676593675658,,,30732480971330,2.1486857
UncalAccel,1676593676172,30732994058582,2.9419754,2.1541386,13.176078,0.037048545,-0.031444572,0.0098014325
OrientationDeg,1676593676172,30732994058582,353.0,-10.0,-11.0
UncalMag,1676593676172,30732994588500,-178.64459,785.802,387.9112,-174.57417,771.0116,430.86337
UncalGyro,1676593676176,30732998296670,0.6910413,0.20448714,-0.08689558,0.000619511,-0.0016941649,-0.00032316393
UncalAccel,1676593676180,30733002535032,2.4442682,2.1966112,11.917453,0.037048545,-0.031444572,0.0098014325
OrientationDeg,1676593676180,30733002535032,353.0,-10.0,-11.0
UncalMag,1676593676182,30733004588175,-178.7788,785.3506,387.3134,-174.57417,771.0116,430.86337
UncalGyro,1676593676184,30733006773986,0.7499898,0.28115073,-0.08506299,0.000619511,-0.0016941649,-0.00032316393
UncalAccel,1676593676189,30733011015035,2.0955145,2.0907288,10.7228365,0.037048545,-0.031444572,0.0098014325
OrientationDeg,1676593676189,30733011015035,353.0,-10.0,-11.0
UncalMag,1676593676192,30733014588541,-178.0712,784.9358,387.56958,-174.57417,771.0116,430.86337
UncalGyro,1676593676193,30733015256337,0.7333437,0.25228736,-0.07284568,0.000619511,-0.0016941649,-0.00032316393
UncalAccel,1676593676197,30733019495016,2.0111675,2.067997,9.853643,0.037048545,-0.031444572,0.0098014325
OrientationDeg,1676593676197,30733019495016,353.0,-10.0,-12.0
UncalGyro,1676593676201,30733023737345,0.6574437,0.17104226,-0.05009095,0.000619511,-0.0016941649,-0.00032316393
UncalMag,1676593676202,30733024588379,-178.80319,784.8992,386.8498,-174.57417,771.0116,430.86337
UncalAccel,1676593676205,30733027975474,2.0542383,2.1074786,9.171091,0.037048545,-0.031444572,0.0098014325
OrientationDeg,1676593676205,30733027975474,353.0,-10.0,-12.0
UncalGyro,1676593676210,30733032220489,0.5375614,0.072540246,-0.027183503,0.000619511,-0.0016941649,-0.00032316393
UncalMag,1676593676212,30733034588297,-177.7784,784.4966,387.3256,-174.57417,771.0116,430.86337
UncalAccel,1676593676214,30733036456146,2.1098714,2.056033,8.775677,0.037048545,-0.031444572,0.0098014325
OrientationDeg,1676593676214,30733036456146,353.0,-10.0,-12.0
UncalGyro,1676593676218,30733040701203,0.3950771,-0.00992656,-0.001985312,0.000619511,-0.0016941649,-0.00032316393
UncalMag,1676593676222,30733044596476,-178.5592,783.7646,386.4472,-174.57417,771.0116,430.86337
UncalAccel,1676593676222,30733044936442,2.1361923,1.9704895,8.547162,0.037048545,-0.031444572,0.0098014325
OrientationDeg,1676593676222,30733044936442,353.0,-10.0,-12.0
UncalGyro,1676593676227,30733049179444,0.2565634,-0.076358154,0.029626964,0.000619511,-0.0016941649,-0.00032316393
UncalAccel,1676593676231,30733053424702,2.1176481,1.878964,8.490333,0.037048545,-0.031444572,0.0098014325
OrientationDeg,1676593676231,30733053424702,353.0,-10.0,-12.0
UncalMag,1676593676232,30733054588135,-178.24199,783.6792,386.4228,-174.57417,771.0116,430.86337
UncalGyro,1676593676235,30733057664399,0.14553864,-0.107665,0.060170226,0.000619511,-0.0016941649,-0.00032316393
UncalAccel,1676593676239,30733061905081,2.1457636,1.8215362,8.643474,0.037048545,-0.031444572,0.0098014325
OrientationDeg,1676593676239,30733061905081,353.0,-10.0,-12.0
UncalMag,1676593676242,30733064587932,-178.5592,783.71576,387.7648,-174.57417,771.0116,430.86337
UncalGyro,1676593676244,30733066143332,0.065515295,-0.08781188,0.08674286,0.000619511,-0.0016941649,-0.00032316393
UncalAccel,1676593676248,30733070380412,2.1966112,1.8454645,8.829515,0.037048545,-0.031444572,0.0098014325
OrientationDeg,1676593676248,30733070380412,352.0,-10.0,-12.0
UncalMag,1676593676252,30733074598634,-178.1566,783.545,387.594,-174.57417,771.0116,430.86337
UncalGyro,1676593676252,30733074621450,0.018478673,-0.037873644,0.10399981,0.000619511,-0.0016941649,-0.00032316393
UncalAccel,1676593676256,30733078867514,2.228316,1.8981066,9.058628,0.037048545,-0.031444572,0.0098014325
OrientationDeg,1676593676256,30733078867514,352.0,-10.0,-12.0
UncalGyro,1676593676261,30733083103171,-0.0041233404,0.02076942,0.12110403,0.000619511,-0.0016941649,-0.00032316393
UncalMag,1676593676262,30733084598471,-178.1444,783.72797,387.88678,-174.57417,771.0116,430.86337
UncalAccel,1676593676265,30733087353568,2.2067807,1.9357935,9.387642,0.037048545,-0.031444572,0.0098014325
OrientationDeg,1676593676265,30733087353568,352.0,-10.0,-12.0
UncalGyro,1676593676269,30733091593059,-0.006414085,0.083383106,0.1421789,0.000619511,-0.0016941649,-0.00032316393
UncalMag,1676593676272,30733094598471,-178.9496,784.2038,386.923,-174.57417,771.0116,430.86337
UncalAccel,1676593676273,30733095834891,2.213361,2.0602202,9.640084,0.037048545,-0.031444572,0.0098014325
OrientationDeg,1676593676273,30733095834891,352.0,-10.0,-12.0
UncalGyro,1676593676278,30733100072380,0.010995574,0.13744467,0.15867224,0.000619511,-0.0016941649,-0.00032316393
UncalAccel,1676593676282,30733104304170,2.2325034,2.1080768,9.601799,0.037048545,-0.031444572,0.0098014325
UncalMag,1676593676282,30733104600710,-178.4372,783.9964,388.4358,-174.57417,771.0116,430.86337
OrientationDeg,1676593676282,30733104304170,352.0,-10.0,-12.0
UncalGyro,1676593676286,30733108555492,0.056199603,0.15622878,0.17180584,0.000619511,-0.0016941649,-0.00032316393
UncalAccel,1676593676290,30733112792797,2.2875385,1.9794625,9.416355,0.037048545,-0.031444572,0.0098014325
OrientationDeg,1676593676290,30733112792797,352.0,-10.0,-12.0
UncalMag,1676593676292,30733114598594,-178.64459,784.03296,386.8742,-174.57417,771.0116,430.86337
UncalGyro,1676593676295,30733117034304,0.11224649,0.14477506,0.18585575,0.000619511,-0.0016941649,-0.00032316393
UncalAccel,1676593676299,30733121274315,2.3353949,1.9076779,9.46481,0.037048545,-0.031444572,0.0098014325
OrientationDeg,1676593676299,30733121274315,352.0,-10.0,-12.0
UncalMag,1676593676302,30733124598716,-178.2542,783.60596,386.88638,-174.57417,771.0116,430.86337
UncalGyro,1676593676303,30733125515963,0.13942999,0.12492194,0.19226983,0.000619511,-0.0016941649,-0.00032316393
UncalAccel,1676593676307,30733129756523,2.352743,1.9555343,9.660423,0.037048545,-0.031444572,0.0098014325
OrientationDeg,1676593676307,30733129756523,352.0,-10.0,-12.0
UncalGyro,1676593676311,30733133996523,0.13255776,0.11056661,0.17455475,0.000619511,-0.0016941649,-0.00032316393
UncalMag,1676593676312,30733134587934,-178.0102,784.15497,387.8624,-174.57417,771.0116,430.86337
UncalAccel,1676593676316,30733138230736,2.3670998,1.9220347,9.698709,0.037048545,-0.031444572,0.0098014325
OrientationDeg,1676593676316,30733138230736,352.0,-10.0,-13.0
UncalGyro,1676593676320,30733142477683,0.10629055,0.077579886,0.14660765,0.000619511,-0.0016941649,-0.00032316393
UncalMag,1676593676322,30733144582197,-177.42459,783.545,387.2158,-174.57417,771.0116,430.86337
UncalAccel,1676593676324,30733146717053,2.382055,1.7449659,9.742975,0.037048545,-0.031444572,0.0098014325
OrientationDeg,1676593676324,30733146717053,352.0,-10.0,-13.0
UncalGyro,1676593676328,30733150959903,0.071013086,0.030543262,0.12385293,0.000619511,-0.0016941649,-0.00032316393
UncalMag,1676593676332,30733154598717,-178.2664,783.4474,387.5818,-174.57417,771.0116,430.86337
UncalAccel,1676593676333,30733155199455,2.318047,1.6193427,10.053444,0.037048545,-0.031444572,0.0098014325
OrientationDeg,1676593676333,30733155199455,352.0,-10.0,-13.0
UncalGyro,1676593676337,30733159446038,0.039095376,0.007788532,0.10629055,0.000619511,-0.0016941649,-0.00032316393
UncalAccel,1676593676341,30733163679273,2.3030918,1.4991034,10.254441,0.037048545,-0.031444572,0.0098014325
OrientationDeg,1676593676341,30733163679273,352.0,-10.0,-13.0
UncalMag,1676593676342,30733164587812,-178.1444,783.5938,386.3984,-174.57417,771.0116,430.86337
UncalGyro,1676593676345,30733167921329,0.024129177,-0.0053450707,0.07880162,0.000619511,-0.0016941649,-0.00032316393
UncalAccel,1676593676350,30733172158359,2.4035904,1.3226327,10.346565,0.037048545,-0.031444572,0.0098014325
OrientationDeg,1676593676350,30733172158359,352.0,-10.0,-13.0
UncalMag,1676593676352,30733174598677,-178.0468,783.52057,386.862,-174.57417,771.0116,430.86337
UncalGyro,1676593676354,30733176402021,0.021227567,-0.011453724,0.043829583,0.000619511,-0.0016941649,-0.00032316393
UncalAccel,1676593676358,30733180639591,2.6135604,1.1413764,10.491929,0.037048545,-0.031444572,0.0098014325
OrientationDeg,1676593676358,30733180639591,352.0,-10.0,-13.0
UncalMag,1676593676362,30733184598718,-177.9492,783.3498,387.0572,-174.57417,771.0116,430.86337
UncalGyro,1676593676362,30733184875359,0.018936822,-0.001985312,-0.012217305,0.000619511,-0.0016941649,-0.00032316393
UncalAccel,1676593676367,30733189104638,2.9132617,1.1090733,10.737193,0.037048545,-0.031444572,0.0098014325
OrientationDeg,1676593676367,30733189104638,352.0,-10.0,-13.0
UncalGyro,1676593676371,30733193352298,0.015118915,0.031001411,-0.10629055,0.000619511,-0.0016941649,-0.00032316393
UncalMag,1676593676372,30733194598433,-178.0468,783.423,386.5936,-174.57417,771.0116,430.86337
UncalAccel,1676593676375,30733197603285,3.257828,1.1018949,10.710873,0.037048545,-0.031444572,0.0098014325
OrientationDeg,1676593676375,30733197603285,352.0,-10.0,-13.0
UncalGyro,1676593676379,30733201848382,0.014049901,0.047036625,-0.23457226,0.000619511,-0.0016941649,-0.00032316393
UncalMag,1676593676382,30733204598515,-177.7296,783.5328,386.9718,-174.57417,771.0116,430.86337
UncalAccel,1676593676385,30733206085839,3.6729827,0.91346,10.337592,0.037048545,-0.031444572,0.0098014325
OrientationDeg,1676593676384,30733206085839,352.0,-10.0,-13.0
UncalGyro,1676593676388,30733210324548,0.014202617,0.022449298,-0.37125334,0.000619511,-0.0016941649,-0.00032316393
UncalAccel,1676593676392,30733214563531,4.0103707,0.7004988,10.154541,0.037048545,-0.031444572,0.0098014325
UncalMag,1676593676392,30733214596196,-178.24199,783.789,387.04498,-174.57417,771.0116,430.86337
OrientationDeg,1676593676392,30733214563531,352.0,-10.0,-13.0
UncalGyro,1676593676396,30733218805476,0.0096211275,-0.03283401,-0.49403727,0.000619511,-0.0016941649,-0.00032316393
UncalAccel,1676593676401,30733223042129,4.141378,0.6873383,9.964312,0.037048545,-0.031444572,0.0098014325
OrientationDeg,1676593676401,30733223042129,352.0,-10.0,-13.0
UncalMag,1676593676402,30733224587732,-178.3884,783.1058,387.9844,-174.57417,771.0116,430.86337
UncalGyro,1676593676405,30733227276148,0.012217305,-0.13820826,-0.58291817,0.000619511,-0.0016941649,-0.00032316393
UncalAccel,1676593676409,30733231525894,4.080361,0.65324056,9.821341,0.037048545,-0.031444572,0.0098014325
OrientationDeg,1676593676409,30733231525894,353.0,-10.0,-13.0
UncalMag,1676593676412,30733234598597,-178.486,783.1424,386.30078,-174.57417,771.0116,430.86337
UncalGyro,1676593676413,30733235768325,0.035277467,-0.28298333,-0.6097962,0.000619511,-0.0016941649,-0.00032316393
UncalAccel,1676593676418,30733240008479,3.9948175,0.6047859,9.759128,0.037048545,-0.031444572,0.0098014325
OrientationDeg,1676593676418,30733240008479,353.0,-10.0,-13.0
UncalGyro,1676593676422,30733244243403,0.07544186,-0.41416663,-0.58062744,0.000619511,-0.0016941649,-0.00032316393
UncalMag,1676593676422,30733244607264,-178.8886,783.4352,387.35,-174.57417,771.0116,430.86337
UncalAccel,1676593676426,30733248477117,3.918247,0.62871414,9.705887,0.037048545,-0.031444572,0.0098014325
OrientationDeg,1676593676426,30733248477117,353.0,-10.0,-13.0
UncalGyro,1676593676430,30733252728917,0.117438845,-0.48655418,-0.52381694,0.000619511,-0.0016941649,-0.00032316393
UncalMag,1676593676432,30733254598516,-179.523,783.2522,387.5574,-174.57417,771.0116,430.86337
UncalAccel,1676593676434,30733256969060,3.866203,0.7004988,9.580862,0.037048545,-0.031444572,0.0098014325
OrientationDeg,1676593676434,30733256969060,353.0,-10.0,-13.0
UncalGyro,1676593676439,30733261212358,0.15363261,-0.49388456,-0.46395215,0.000619511,-0.0016941649,-0.00032316393
UncalMag,1676593676442,30733264598435,-179.7426,783.24,387.3256,-174.57417,771.0116,430.86337
UncalAccel,1676593676443,30733265449488,3.81057,0.76749784,9.360723,0.037048545,-0.031444572,0.0098014325
OrientationDeg,1676593676443,30733265449488,354.0,-11.0,-13.0
UncalGyro,1676593676447,30733269688970,0.17333302,-0.44776422,-0.40866885,0.000619511,-0.0016941649,-0.00032316393
UncalAccel,1676593676451,30733273919459,3.7830527,0.8392825,9.131011,0.037048545,-0.031444572,0.0098014325
UncalMag,1676593676452,30733274591640,-179.95,783.24,387.3256,-174.57417,771.0116,430.86337
OrientationDeg,1676593676451,30733273919459,354.0,-11.0,-13.0
UncalGyro,1676593676456,30733278166805,0.17241672,-0.35827246,-0.35811976,0.000619511,-0.0016941649,-0.00032316393
UncalAccel,1676593676460,30733282392482,3.7172499,0.9445667,8.925228,0.037048545,-0.031444572,0.0098014325
OrientationDeg,1676593676460,30733282392482,354.0,-11.0,-13.0
UncalMag,1676593676462,30733284598558,-180.25499,783.39856,387.0084,-174.57417,771.0116,430.86337
UncalGyro,1676593676464,30733286654801,0.15592335,-0.23991732,-0.3199407,0.000619511,-0.0016941649,-0.00032316393
UncalAccel,1676593676468,30733290891720,3.6466618,1.0743774,8.651849,0.037048545,-0.031444572,0.0098014325
OrientationDeg,1676593676468,30733290891720,354.0,-11.0,-13.0
UncalMag,1676593676472,30733294598598,-180.2916,782.8008,387.716,-174.57417,771.0116,430.86337
UncalGyro,1676593676473,30733295134945,0.1301143,-0.12675454,-0.30207285,0.000619511,-0.0016941649,-0.00032316393
UncalAccel,1676593676477,30733299363979,3.557529,1.1270195,8.369495,0.037048545,-0.031444572,0.0098014325
OrientationDeg,1676593676478,30733299363979,354.0,-11.0,-13.0
UncalGyro,1676593676481,30733303621629,0.08781188,-0.027183503,-0.301462,0.000619511,-0.0016941649,-0.00032316393
UncalMag,1676593676482,30733304587816,-180.5112,782.5202,387.289,-174.57417,771.0116,430.86337
UncalAccel,1676593676485,30733307853939,3.4492538,1.1647065,8.115856,0.037048545,-0.031444572,0.0098014325
OrientationDeg,1676593676485,30733307853939,354.0,-11.0,-13.0
UncalGyro,1676593676490,30733312096279,0.018936822,0.034055736,-0.31642818,0.000619511,-0.0016941649,-0.00032316393
UncalMag,1676593676492,30733314598558,-180.2794,782.9594,386.8986,-174.57417,771.0116,430.86337
UncalAccel,1676593676494,30733316323086,3.2979078,1.2556337,7.804191,0.037048545,-0.031444572,0.0098014325
OrientationDeg,1676593676494,30733316323086,354.0,-11.0,-13.0
UncalGyro,1676593676498,30733320575824,-0.07849618,0.05467244,-0.3471242,0.000619511,-0.0016941649,-0.00032316393
UncalMag,1676593676502,30733324598681,-180.4014,782.7032,387.20358,-174.57417,771.0116,430.86337
UncalAccel,1676593676502,30733324816657,3.0933216,1.3070793,7.6307116,0.037048545,-0.031444572,0.0098014325
OrientationDeg,1676593676502,30733324816657,355.0,-11.0,-13.0
UncalGyro,1676593676507,30733329065660,-0.20952678,0.063988134,-0.38621956,0.000619511,-0.0016941649,-0.00032316393
UncalAccel,1676593676511,30733333296668,2.8839495,1.3154542,7.519445,0.037048545,-0.031444572,0.0098014325
UncalMag,1676593676512,30733334588142,-179.95,783.2278,386.9596,-174.57417,771.0116,430.86337
OrientationDeg,1676593676511,30733333296668,355.0,-11.0,-13.0
UncalGyro,1676593676515,30733337539385,-0.37003163,0.08475755,-0.420428,0.000619511,-0.0016941649,-0.00032316393
UncalAccel,1676593676519,30733341775479,2.693122,1.3866407,7.4129643,0.037048545,-0.031444572,0.0098014325
OrientationDeg,1676593676519,30733341775479,355.0,-11.0,-13.0
UncalMag,1676593676522,30733344586026,-180.4868,782.86176,386.88638,-174.57417,771.0116,430.86337
UncalGyro,1676593676524,30733346018349,-0.54336464,0.12736541,-0.4447099,0.000619511,-0.0016941649,-0.00032316393
UncalAccel,1676593676528,30733350257424,2.4969103,1.4237294,7.3543406,0.037048545,-0.031444572,0.0098014325
OrientationDeg,1676593676528,30733350257424,355.0,-11.0,-13.0
UncalGyro,1676593676532,30733354498919,-0.7351763,0.1815797,-0.45142943,0.000619511,-0.0016941649,-0.00032316393
UncalMag,1676593676532,30733354588224,-179.93779,783.423,387.6062,-174.57417,771.0116,430.86337
UncalAccel,1676593676536,30733358737903,2.379662,1.3082758,7.1916285,0.037048545,-0.031444572,0.0098014325
OrientationDeg,1676593676536,30733358737903,356.0,-10.0,-12.0
UncalGyro,1676593676540,30733362977893,-0.944245,0.1863139,-0.43569964,0.000619511,-0.0016941649,-0.00032316393
UncalMag,1676593676542,30733364598478,-180.3282,783.92316,387.1304,-174.57417,771.0116,430.86337
UncalAccel,1676593676545,30733367217334,1.0911272,1.1377872,6.8931236,0.037048545,-0.031444572,0.0098014325
OrientationDeg,1676593676545,30733367217334,356.0,-10.0,-12.0
UncalGyro,1676593676549,30733371450937,-0.9256136,-0.39293906,-0.041233405,0.000619511,-0.0016941649,-0.00032316393
UncalMag,1676593676552,30733374598600,-179.9988,784.1062,387.533,-174.57417,771.0116,430.86337
UncalAccel,1676593676553,30733375698088,-3.4797623,1.5870396,7.6683984,0.037048545,-0.031444572,0.0098014325
OrientationDeg,1676593676554,30733375698088,356.0,-11.0,-12.0
UncalGyro,1676593676556,30733379942879,-0.44409904,-1.2066116,0.95310247,0.000619511,-0.0016941649,-0.00032316393
UncalAccel,1676593676562,30733384183490,-1.975275,2.7996025,12.855439,0.037048545,-0.031444572,0.0098014325
UncalMag,1676593676562,30733384587899,-180.6088,784.338,386.88638,-174.57417,771.0116,430.86337
OrientationDeg,1676593676562,30733384183490,355.0,-12.0,-11.0
UncalGyro,1676593676566,30733388420652,-0.21502456,-0.77442443,1.6615535,0.000619511,-0.0016941649,-0.00032316393
UncalAccel,1676593676570,30733392651081,-0.70648086,2.9952157,12.48515,0.037048545,-0.031444572,0.0098014325
OrientationDeg,1676593676570,30733392651081,354.0,-12.0,-11.0
UncalMag,1676593676572,30733394598682,-180.6088,784.35016,387.3744,-174.57417,771.0116,430.86337
UncalGyro,1676593676574,30733396903655,-0.2958115,0.02076942,2.0676262,0.000619511,-0.0016941649,-0.00032316393
UncalAccel,1676593676579,30733401143249,0.57188463,2.7870402,9.912268,0.037048545,-0.031444572,0.0098014325
OrientationDeg,1676593676579,30733401143249,353.0,-12.0,-11.0
UncalMag,1676593676582,30733404598642,-180.57219,784.98456,387.7526,-174.57417,771.0116,430.86337
UncalGyro,1676593676583,30733405388172,-0.49953505,0.46822822,2.2192733,0.000619511,-0.0016941649,-0.00032316393
UncalAccel,1676593676587,30733409623656,1.634896,2.3383858,10.068997,0.037048545,-0.031444572,0.0098014325
OrientationDeg,1676593676587,30733409623656,352.0,-12.0,-10.0
UncalGyro,1676593676591,30733413865060,-0.49678615,0.944245,2.1227567,0.000619511,-0.0016941649,-0.00032316393
UncalMag,1676593676592,30733414588063,-179.9012,785.7654,387.4476,-174.57417,771.0116,430.86337
UncalAccel,1676593676596,30733418104450,2.1421745,2.228316,8.7984085,0.037048545,-0.031444572,0.0098014325
OrientationDeg,1676593676596,30733418104450,351.0,-11.0,-10.0
UncalGyro,1676593676600,30733422343220,-0.58123827,0.9934196,1.8987219,0.000619511,-0.0016941649,-0.00032316393
UncalMag,1676593676602,30733424598642,-178.9374,786.1314,387.2646,-174.57417,771.0116,430.86337
UncalAccel,1676593676604,30733426574737,1.5439688,1.6516458,7.9914293,0.037048545,-0.031444572,0.0098014325
OrientationDeg,1676593676604,30733426574737,350.0,-11.0,-9.0
UncalGyro,1676593676608,30733430826050,-0.89751375,1.0273226,1.6415477,0.000619511,-0.0016941649,-0.00032316393
UncalMag,1676593676612,30733434598683,-178.51039,786.1314,386.88638,-174.57417,771.0116,430.86337
UncalAccel,1676593676613,30733435060933,1.6313069,2.6285157,8.473583,0.037048545,-0.031444572,0.0098014325
OrientationDeg,1676593676613,30733435060933,350.0,-11.0,-9.0
UncalGyro,1676593676617,30733439301137,-1.1607966,0.9923506,1.3165673,0.000619511,-0.0016941649,-0.00032316393
UncalAccel,1676593676621,30733443546498,0.98524475,3.1627133,7.431509,0.037048545,-0.031444572,0.0098014325
OrientationDeg,1676593676621,30733443546498,349.0,-10.0,-8.0
UncalMag,1676593676622,30733444583425,-178.35179,787.20496,387.7526,-174.57417,771.0116,430.86337
UncalGyro,1676593676625,30733447786244,-1.3278683,0.75823647,1.0102184,0.000619511,-0.0016941649,-0.00032316393
UncalAccel,1676593676630,30733452030486,0.8955139,3.03709,7.4123664,0.037048545,-0.031444572,0.0098014325
OrientationDeg,1676593676630,30733452030486,349.0,-10.0,-7.0
UncalMag,1676593676632,30733454598562,-177.7052,787.4856,388.1674,-174.57417,771.0116,430.86337
UncalGyro,1676593676634,30733456266428,-1.4052955,0.5018258,0.7370089,0.000619511,-0.0016941649,-0.00032316393
UncalAccel,1676593676638,30733460497691,1.1318051,2.71705,7.9974113,0.037048545,-0.031444572,0.0098014325
OrientationDeg,1676593676638,30733460497691,349.0,-10.0,-6.0
UncalMag,1676593676642,30733464598603,-176.9366,788.05896,389.1312,-174.57417,771.0116,430.86337
UncalGyro,1676593676642,30733464750254,-1.4193454,0.2948952,0.50518554,0.000619511,-0.0016941649,-0.00032316393
UncalAccel,1676593676646,30733468987366,1.6205392,2.3844478,8.09791,0.037048545,-0.031444572,0.0098014325
OrientationDeg,1676593676646,30733468987366,349.0,-10.0,-6.0
UncalGyro,1676593676651,30733473224670,-1.4479034,0.062308256,0.27046058,0.000619511,-0.0016941649,-0.00032316393
UncalMag,1676593676652,30733474598481,-176.778,788.8886,387.8746,-174.57417,771.0116,430.86337
UncalAccel,1676593676655,30733477469372,2.321038,2.4095724,7.1808605,0.037048545,-0.031444572,0.0098014325
OrientationDeg,1676593676655,30733477469372,349.0,-10.0,-5.0
UncalGyro,1676593676659,30733481706472,-1.3950635,-0.2049453,0.09392053,0.000619511,-0.0016941649,-0.00032316393
UncalMag,1676593676662,30733484598481,-177.40019,788.9618,387.9112,-174.57417,771.0116,430.86337
UncalAccel,1676593676663,30733485953757,3.4534414,1.9944177,7.6343007,0.037048545,-0.031444572,0.0098014325
OrientationDeg,1676593676663,30733485953757,349.0,-10.0,-4.0
UncalGyro,1676593676668,30733490192984,-1.2483032,-0.1872302,0.059864793,0.000619511,-0.0016941649,-0.00032316393
UncalAccel,1676593676672,30733494433625,4.7228336,1.0606186,9.284152,0.037048545,-0.031444572,0.0098014325
OrientationDeg,1676593676672,30733494433625,349.0,-10.0,-4.0
UncalMag,1676593676672,30733494588146,-177.13179,790.1208,388.5456,-174.57417,771.0116,430.86337
UncalGyro,1676593676676,30733498673626,-1.0358747,0.033444874,0.12751812,0.000619511,-0.0016941649,-0.00032316393
UncalAccel,1676593676680,30733502912192,4.226921,0.8536395,7.969296,0.037048545,-0.031444572,0.0098014325
OrientationDeg,1676593676680,30733502912192,349.0,-10.0,-3.0
UncalMag,1676593676682,30733504587862,-177.6686,789.76697,388.47238,-174.57417,771.0116,430.86337
UncalGyro,1676593676685,30733507150127,-0.8179486,0.13271047,0.22968534,0.000619511,-0.0016941649,-0.00032316393
UncalAccel,1676593676689,30733511381645,4.295715,0.5706882,8.553742,0.037048545,-0.031444572,0.0098014325
OrientationDeg,1676593676689,30733511381645,349.0,-10.0,-3.0
UncalMag,1676593676692,30733514598563,-177.083,790.82837,388.8262,-174.57417,771.0116,430.86337
UncalGyro,1676593676693,30733515626314,-0.61361414,0.21960606,0.33276883,0.000619511,-0.0016941649,-0.00032316393
UncalAccel,1676593676697,30733519875439,4.2460637,0.89730847,7.945368,0.037048545,-0.031444572,0.0098014325
OrientationDeg,1676593676697,30733519875439,349.0,-10.0,-3.0
UncalGyro,1676593676702,30733524118806,-0.39660427,0.1525636,0.35476,0.000619511,-0.0016941649,-0.00032316393
UncalMag,1676593676702,30733524591931,-176.7292,791.43835,388.6066,-174.57417,771.0116,430.86337
UncalAccel,1676593676706,30733528358258,3.8620157,1.7228323,8.210971,0.037048545,-0.031444572,0.0098014325
OrientationDeg,1676593676706,30733528358258,349.0,-10.0,-3.0
UncalGyro,1676593676710,30733532594759,-0.21029036,0.1085813,0.26435193,0.000619511,-0.0016941649,-0.00032316393
UncalMag,1676593676712,30733534598645,-176.6438,791.2066,389.3874,-174.57417,771.0116,430.86337
UncalAccel,1676593676714,30733536826316,3.458227,2.513062,9.77468,0.037048545,-0.031444572,0.0098014325
OrientationDeg,1676593676714,30733536826316,349.0,-10.0,-3.0
UncalGyro,1676593676719,30733541079023,-0.12385293,0.19425514,0.103847094,0.000619511,-0.0016941649,-0.00032316393
UncalMag,1676593676722,30733544581230,-176.4364,791.292,389.0458,-174.57417,771.0116,430.86337
UncalAccel,1676593676723,30733545317609,3.295515,3.3786657,9.88834,0.037048545,-0.031444572,0.0098014325
OrientationDeg,1676593676723,30733545317609,349.0,-10.0,-3.0
UncalGyro,1676593676728,30733549559319,-0.10216721,0.21563543,-0.1049161,0.000619511,-0.0016941649,-0.00032316393
UncalAccel,1676593676731,30733553787955,3.1423743,3.9391842,9.436096,0.037048545,-0.031444572,0.0098014325
OrientationDeg,1676593676731,30733553787955,349.0,-10.0,-3.0
UncalMag,1676593676732,30733554588107,-176.65599,791.12115,389.6192,-174.57417,771.0116,430.86337
UncalGyro,1676593676736,30733558039685,-0.110413894,0.23762658,-0.3587306,0.000619511,-0.0016941649,-0.00032316393
UncalAccel,1676593676740,30733562278302,2.952743,3.7692938,10.017552,0.037048545,-0.031444572,0.0098014325
OrientationDeg,1676593676740,30733562278302,349.0,-9.0,-3.0
UncalMag,1676593676742,30733564598687,-176.5462,791.0968,388.63098,-174.57417,771.0116,430.86337
UncalGyro,1676593676744,30733566518435,-0.16081028,0.3306308,-0.6081163,0.000619511,-0.0016941649,-0.00032316393
UncalAccel,1676593676748,30733570754235,2.8049862,3.4941192,10.743773,0.037048545,-0.031444572,0.0098014325
OrientationDeg,1676593676748,30733570754235,349.0,-9.0,-3.0
UncalMag,1676593676752,30733574598524,-176.534,791.3652,388.94818,-174.57417,771.0116,430.86337
UncalGyro,1676593676752,30733574999769,-0.25381452,0.49174652,-0.8315403,0.000619511,-0.0016941649,-0.00032316393
UncalAccel,1676593676757,30733579231449,2.7643085,3.2775688,11.250454,0.037048545,-0.031444572,0.0098014325
OrientationDeg,1676593676757,30733579231449,350.0,-9.0,-3.0
UncalGyro,1676593676761,30733583485101,-0.3914119,0.70325863,-1.0187705,0.000619511,-0.0016941649,-0.00032316393
UncalMag,1676593676762,30733584599094,-176.961,791.2188,390.1316,-174.57417,771.0116,430.86337
UncalAccel,1676593676765,30733587722934,2.7272196,2.8265216,11.347961,0.037048545,-0.031444572,0.0098014325
OrientationDeg,1676593676765,30733587722934,350.0,-8.0,-2.0
UncalGyro,1676593676769,30733591970452,-0.5561928,0.904386,-1.1505647,0.000619511,-0.0016941649,-0.00032316393
UncalMag,1676593676772,30733594598525,-176.534,791.3896,389.4362,-174.57417,771.0116,430.86337
UncalAccel,1676593676774,30733596202345,2.7218359,1.9782661,11.447862,0.037048545,-0.031444572,0.0098014325
OrientationDeg,1676593676774,30733596202345,351.0,-8.0,-2.0
UncalGyro,1676593676778,30733600444167,-0.7290677,1.1004738,-1.1962268,0.000619511,-0.0016941649,-0.00032316393
UncalMag,1676593676782,30733604598525,-176.20459,791.54816,388.8628,-174.57417,771.0116,430.86337
UncalAccel,1676593676782,30733604683516,2.714059,0.94396853,11.305489,0.037048545,-0.031444572,0.0098014325
OrientationDeg,1676593676782,30733604683516,352.0,-7.0,-2.0
UncalGyro,1676593676786,30733608929590,-0.8932377,1.2647965,-1.1325442,0.000619511,-0.0016941649,-0.00032316393
UncalAccel,1676593676791,30733613164555,2.664408,-0.09032906,10.96152,0.037048545,-0.031444572,0.0098014325
OrientationDeg,1676593676791,30733613164555,352.0,-7.0,-2.0
UncalMag,1676593676792,30733614581150,-176.0704,792.08496,389.2288,-174.57417,771.0116,430.86337
UncalGyro,1676593676795,30733617405980,-1.0225884,1.4239268,-0.959822,0.000619511,-0.0016941649,-0.00032316393
UncalAccel,1676593676799,30733621641086,3.5784662,-2.0482562,13.5356,0.037048545,-0.031444572,0.0098014325
OrientationDeg,1676593676799,30733621641086,353.0,-6.0,-1.0
UncalMag,1676593676802,30733624598566,-175.72879,792.5364,389.69238,-174.57417,771.0116,430.86337
UncalGyro,1676593676803,30733625873855,-1.1798862,1.7806722,-0.6239988,0.000619511,-0.0016941649,-0.00032316393
UncalAccel,1676593676808,30733630125432,2.3102703,-1.7641085,10.89153,0.037048545,-0.031444572,0.0098014325
OrientationDeg,1676593676808,30733630125432,353.0,-5.0,0.0
UncalGyro,1676593676812,30733634364496,-1.2370021,1.8726074,-0.3098614,0.000619511,-0.0016941649,-0.00032316393
UncalMag,1676593676812,30733634588557,-174.948,793.4392,389.8754,-174.57417,771.0116,430.86337
UncalAccel,1676593676816,30733638610753,1.838286,-2.347359,11.135,0.037048545,-0.031444572,0.0098014325
OrientationDeg,1676593676816,30733638610753,353.0,-4.0,0.0
UncalGyro,1676593676820,30733642849563,-1.2220359,1.956296,0.0012217305,0.000619511,-0.0016941649,-0.00032316393
UncalMag,1676593676822,30733644608698,-174.521,793.5368,390.1316,-174.57417,771.0116,430.86337
UncalAccel,1676593676825,30733647089085,1.1826526,-2.0542383,10.910075,0.037048545,-0.031444572,0.0098014325
OrientationDeg,1676593676825,30733647089085,353.0,-3.0,0.0
UncalGyro,1676593676829,30733651330256,-1.1001683,2.01387,0.26847526,0.000619511,-0.0016941649,-0.00032316393
UncalMag,1676593676832,30733654587865,-173.9598,794.0614,389.8876,-174.57417,771.0116,430.86337
UncalAccel,1676593676833,30733655564346,0.4331009,-1.6564314,11.094322,0.037048545,-0.031444572,0.0098014325
OrientationDeg,1676593676833,30733655564346,353.0,-2.0,0.0
UncalGyro,1676593676837,30733659793209,-0.8897252,2.0928242,0.4813618,0.000619511,-0.0016941649,-0.00032316393
UncalAccel,1676593676842,30733664049454,-0.08554341,-1.5116657,11.285748,0.037048545,-0.031444572,0.0098014325
OrientationDeg,1676593676842,30733664049454,353.0,-1.0,1.0
UncalMag,1676593676842,30733664580663,-172.1786,794.19556,390.2414,-174.57417,771.0116,430.86337
UncalGyro,1676593676846,30733668290817,-0.6462954,2.1856759,0.6432411,0.000619511,-0.0016941649,-0.00032316393
UncalAccel,1676593676850,30733672534775,-0.48275197,-1.3848461,11.273186,0.037048545,-0.031444572,0.0098014325
OrientationDeg,1676593676850,30733672534775,352.0,0.0,1.0
UncalMag,1676593676852,30733674598649,-172.1786,794.19556,390.2414,-174.57417,771.0116,430.86337
UncalGyro,1676593676854,30733676770869,-0.40698898,2.2565362,0.7695375,0.000619511,-0.0016941649,-0.00032316393
UncalAccel,1676593676859,30733681002691,-0.7603194,-1.2281163,11.146366,0.037048545,-0.031444572,0.0098014325
OrientationDeg,1676593676859,30733681002691,352.0,0.0,1.0
UncalMag,1676593676862,30733684598649,-170.3608,794.9642,391.3394,-174.57417,771.0116,430.86337
UncalGyro,1676593676863,30733685252997,-0.19807306,2.2893703,0.8764389,0.000619511,-0.0016941649,-0.00032316393
UncalAccel,1676593676867,30733689491136,-1.1030912,-1.0378869,10.785049,0.037048545,-0.031444572,0.0098014325
OrientationDeg,1676593676867,30733689491136,351.0,1.0,1.0
UncalGyro,1676593676871,30733693732814,-0.04505131,2.2609649,0.9589057,0.000619511,-0.0016941649,-0.00032316393
UncalMag,1676593676872,30733694588151,-169.7386,794.769,390.1926,-174.57417,771.0116,430.86337
UncalAccel,1676593676875,30733697973333,-1.6187445,-0.6765706,10.402797,0.037048545,-0.031444572,0.0098014325
OrientationDeg,1676593676875,30733697973333,351.0,2.0,1.0
UncalGyro,1676593676880,30733702214544,0.04046982,2.1685717,0.9978484,0.000619511,-0.0016941649,-0.00032316393
UncalMag,1676593676882,30733704598487,-169.7386,794.769,390.1926,-174.57417,771.0116,430.86337
UncalAccel,1676593676884,30733706454850,-2.2121646,-0.32063824,10.220942,0.037048545,-0.031444572,0.0098014325
OrientationDeg,1676593676884,30733706454850,350.0,3.0,1.0
Fix,FLP,37.4312676000,-122.1550197000,-16.5,0.6130105,3.875,125.09444,1676593676676,,,30733498673626,2.1486857
UncalGyro,1676593676888,30733710693203,0.0664316,2.0399845,0.9984592,0.000619511,-0.0016941649,-0.00032316393
UncalMag,1676593676892,30733714598487,-166.1152,794.342,391.2052,-174.57417,771.0116,430.86337
UncalAccel,1676593676892,30733714919969,-2.7613173,-0.22791636,10.092926,0.037048545,-0.031444572,0.0098014325
OrientationDeg,1676593676892,30733714919969,350.0,4.0,1.0
UncalGyro,1676593676897,30733719166684,0.065515295,1.884672,0.9784534,0.000619511,-0.0016941649,-0.00032316393
UncalAccel,1676593676901,30733723415341,-3.0951161,-0.3260221,10.033704,0.037048545,-0.031444572,0.0098014325
OrientationDeg,1676593676901,30733723415341,350.0,5.0,1.0
UncalMag,1676593676902,30733724588193,-164.9928,793.8418,391.0588,-174.57417,771.0116,430.86337
UncalGyro,1676593676905,30733727660295,0.058490347,1.730123,0.9639453,0.000619511,-0.0016941649,-0.00032316393
UncalAccel,1676593676909,30733731900296,-3.2805598,-0.61914283,10.095917,0.037048545,-0.031444572,0.0098014325
OrientationDeg,1676593676909,30733731900296,349.0,6.0,1.0
UncalMag,1676593676912,30733734598691,-164.05339,793.8174,392.4862,-174.57417,771.0116,430.86337
UncalGyro,1676593676914,30733736142942,0.059253927,1.617724,0.9764681,0.000619511,-0.0016941649,-0.00032316393
UncalAccel,1676593676918,30733740377480,-3.278167,-1.0839486,10.107881,0.037048545,-0.031444572,0.0098014325
OrientationDeg,1676593676918,30733740377480,349.0,7.0,1.0
UncalMag,1676593676922,30733744587827,-163.968,793.5978,391.0954,-174.57417,771.0116,430.86337
UncalGyro,1676593676922,30733744619656,0.06307184,1.5438092,1.0346531,0.000619511,-0.0016941649,-0.00032316393
UncalAccel,1676593676926,30733748855771,-3.0885358,-1.5613167,9.973285,0.037048545,-0.031444572,0.0098014325
OrientationDeg,1676593676926,30733748855771,348.0,8.0,1.0
UncalGyro,1676593676931,30733753095822,0.064446285,1.4749341,1.1385001,0.000619511,-0.0016941649,-0.00032316393
UncalMag,1676593676932,30733754588437,-162.6992,793.7198,391.2174,-174.57417,771.0116,430.86337
UncalAccel,1676593676935,30733757335772,-2.9036903,-1.8574286,9.803992,0.037048545,-0.031444572,0.0098014325
OrientationDeg,1676593676935,30733757335772,348.0,8.0,1.0
UncalGyro,1676593676939,30733761580797,0.054825157,1.396438,1.2667818,0.000619511,-0.0016941649,-0.00032316393
UncalMag,1676593676942,30733764598447,-162.0038,793.122,391.3028,-174.57417,771.0116,430.86337
UncalAccel,1676593676943,30733765818184,-2.8133612,-1.8568304,9.83809,0.037048545,-0.031444572,0.0098014325
OrientationDeg,1676593676943,30733765818184,347.0,9.0,0.0
UncalGyro,1676593676948,30733770051501,0.04046982,1.3185526,1.391551,0.000619511,-0.0016941649,-0.00032316393
UncalAccel,1676593676952,30733774301074,-2.7523441,-1.7748762,9.924232,0.037048545,-0.031444572,0.0098014325
UncalMag,1676593676952,30733774596332,-161.1498,793.4148,391.9494,-174.57417,771.0116,430.86337
OrientationDeg,1676593676952,30733774301074,346.0,10.0,0.0
UncalGyro,1676593676956,30733778543171,0.026725354,1.2579242,1.4963144,0.000619511,-0.0016941649,-0.00032316393
UncalAccel,1676593676960,30733782784655,-2.7332017,-1.7030915,9.942777,0.037048545,-0.031444572,0.0098014325
OrientationDeg,1676593676960,30733782784655,345.0,10.0,0.0
UncalMag,1676593676962,30733784588316,-160.8936,792.6462,391.9982,-174.57417,771.0116,430.86337
UncalGyro,1676593676965,30733787024066,0.016187929,1.2082914,1.5829046,0.000619511,-0.0016941649,-0.00032316393
UncalAccel,1676593676969,30733791262368,-2.6907291,-1.5158532,9.842278,0.037048545,-0.031444572,0.0098014325
OrientationDeg,1676593676969,30733791262368,345.0,11.0,0.0
UncalMag,1676593676972,30733794598570,-159.8566,792.49976,392.3032,-174.57417,771.0116,430.86337
UncalGyro,1676593676973,30733795503884,0.010995574,1.1597277,1.6481144,0.000619511,-0.0016941649,-0.00032316393
UncalAccel,1676593676977,30733799740691,-2.6859434,-1.2233306,9.616156,0.037048545,-0.031444572,0.0098014325
OrientationDeg,1676593676977,30733799740691,344.0,12.0,0.0
UncalGyro,1676593676981,30733803974527,0.013439035,1.1027645,1.6835446,0.000619511,-0.0016941649,-0.00032316393
UncalMag,1676593676982,30733804581888,-158.8074,792.4388,392.6326,-174.57417,771.0116,430.86337
UncalAccel,1676593676986,30733808221933,-2.8528428,-0.92183495,9.360723,0.037048545,-0.031444572,0.0098014325
OrientationDeg,1676593676986,30733808221933,343.0,12.0,0.0
UncalGyro,1676593676990,30733812456155,0.020158553,1.0320568,1.6867516,0.000619511,-0.0016941649,-0.00032316393
UncalMag,1676593676992,30733814598449,-158.2096,791.9142,391.9982,-174.57417,771.0116,430.86337
UncalAccel,1676593676994,30733816707854,-3.1250265,-0.6837491,9.099904,0.037048545,-0.031444572,0.0098014325
OrientationDeg,1676593676994,30733816707854,342.0,13.0,0.0
UncalGyro,1676593676998,30733820945841,0.03359759,0.93874717,1.6589572,0.000619511,-0.0016941649,-0.00032316393
UncalMag,1676593677002,30733824598693,-157.0872,791.536,393.0962,-174.57417,771.0116,430.86337
UncalAccel,1676593677003,30733825185149,-3.3822548,-0.48394838,8.858828,0.037048545,-0.031444572,0.0098014325
OrientationDeg,1676593677003,30733825185149,341.0,13.0,0.0
UncalGyro,1676593677007,30733829427561,0.051159963,0.83291477,1.6064229,0.000619511,-0.0016941649,-0.00032316393
UncalAccel,1676593677011,30733833666747,-3.5736806,-0.3696911,8.76132,0.037048545,-0.031444572,0.0098014325
OrientationDeg,1676593677011,30733833666747,341.0,13.0,0.0
UncalMag,1676593677012,30733834588277,-156.5748,791.43835,392.6936,-174.57417,771.0116,430.86337
UncalGyro,1676593677015,30733837909362,0.070554934,0.7425067,1.5427402,0.000619511,-0.0016941649,-0.00032316393
UncalAccel,1676593677020,30733842148101,-3.7160535,-0.46181476,8.732606,0.037048545,-0.031444572,0.0098014325
OrientationDeg,1676593677020,30733842148101,340.0,14.0,0.0
UncalMag,1676593677022,30733844588399,-156.1966,790.7674,393.2548,-174.57417,771.0116,430.86337
UncalGyro,1676593677024,30733846390329,0.08353582,0.6693556,1.4882205,0.000619511,-0.0016941649,-0.00032316393
UncalAccel,1676593677028,30733850629059,-3.8344984,-0.70648086,8.685348,0.037048545,-0.031444572,0.0098014325
OrientationDeg,1676593677028,30733850629059,339.0,14.0,0.0
UncalMag,1676593677032,30733854598368,-155.4524,790.9748,393.8892,-174.57417,771.0116,430.86337
UncalGyro,1676593677032,30733854870036,0.087659165,0.57803124,1.4555391,0.000619511,-0.0016941649,-0.00032316393
UncalAccel,1676593677037,30733859105063,-3.9858444,-1.0043873,8.676374,0.037048545,-0.031444572,0.0098014325
OrientationDeg,1676593677037,30733859105063,339.0,14.0,0.0
UncalGyro,1676593677041,30733863350851,0.08827003,0.45020768,1.4456125,0.000619511,-0.0016941649,-0.00032316393
UncalMag,1676593677042,30733864598531,-155.04979,790.80396,393.4744,-174.57417,771.0116,430.86337
UncalAccel,1676593677045,30733867590047,-4.3005004,-1.3375878,8.819346,0.037048545,-0.031444572,0.0098014325
OrientationDeg,1676593677045,30733867590047,338.0,15.0,-1.0
UncalGyro,1676593677049,30733871828938,0.09560041,0.2958115,1.4530957,0.000619511,-0.0016941649,-0.00032316393
UncalMag,1676593677052,30733874598491,-154.7204,791.0602,393.2792,-174.57417,771.0116,430.86337
UncalAccel,1676593677054,30733876058075,-4.6552362,-1.550549,9.037691,0.037048545,-0.031444572,0.0098014325
OrientationDeg,1676593677054,30733876058075,337.0,15.0,-1.0
UncalGyro,1676593677058,30733880324423,0.122783914,0.12751812,1.4689782,0.000619511,-0.0016941649,-0.00032316393
UncalAccel,1676593677062,30733884549043,-4.971089,-1.7060826,9.222537,0.037048545,-0.031444572,0.0098014325
UncalMag,1676593677062,30733884587912,-154.1836,789.401,392.9986,-174.57417,771.0116,430.86337
UncalGyro,1676593677066,30733888797945,0.1853976,-0.05222898,1.4665347,0.000619511,-0.0016941649,-0.00032316393
OrientationDeg,1676593677062,30733884549043,337.0,15.0,-1.0
UncalAccel,1676593677071,30733893029938,-5.339584,-1.9435701,9.402596,0.037048545,-0.031444572,0.0098014325
OrientationDeg,1676593677071,30733893029938,336.0,15.0,-1.0
UncalMag,1676593677072,30733894608135,-154.1836,789.4742,392.291,-174.57417,771.0116,430.86337
UncalGyro,1676593677075,30733897275056,0.3119994,-0.2649628,1.4341589,0.000619511,-0.0016941649,-0.00032316393
Status,0,30,0,6,2,1176450050,30.55,81.0,79.0,1,1,1,26.949194
Status,0,30,1,6,2,1575420030,42.07,81.0,79.0,1,1,1,38.465683
Status,0,30,2,3,17,1604249980,40.68,287.0,74.0,1,1,1,37.079727
Status,0,30,3,1,11,1575420030,37.48,147.0,71.0,1,1,1,33.881706
Status,0,30,4,1,11,1176450050,34.92,147.0,71.0,1,1,1,31.323654
Status,0,30,5,3,15,1602000000,43.07,328.0,68.0,1,1,1,39.47186
Status,0,30,6,6,36,1575420030,40.19,60.0,67.0,1,1,1,36.585896
Status,0,30,7,6,36,1176450050,33.30,60.0,67.0,1,1,1,29.697598
Status,0,30,8,1,12,1575420030,45.91,323.0,58.0,1,1,1,42.30985
Status,0,30,9,3,14,1598062460,39.43,146.0,54.0,1,1,1,35.826843
Status,0,30,10,6,34,1176450050,32.50,202.0,53.0,1,1,1,28.89534
Status,0,30,11,6,34,1575420030,37.76,202.0,53.0,1,1,1,34.16427
Status,0,30,12,1,6,1176450050,36.45,53.0,50.0,1,1,1,32.847374
Status,0,30,13,1,6,1575420030,43.05,53.0,50.0,1,1,1,39.451847
Status,0,30,14,1,24,1575420030,38.46,225.0,44.0,1,1,1,34.86338
Status,0,30,15,1,24,1176450050,35.34,225.0,44.0,1,1,1,31.736715
Status,0,30,16,6,30,1575420030,42.46,314.0,41.0,1,1,1,38.86106
Status,0,30,17,6,30,1176450050,36.71,314.0,41.0,1,1,1,33.108227
Status,0,30,18,3,24,1603124990,48.06,31.0,38.0,1,1,1,44.460445
Status,0,30,19,3,18,1600312450,37.26,232.0,30.0,1,1,1,33.655704
Status,0,30,20,6,25,1575420030,38.28,122.0,30.0,1,1,1,34.67685
Status,0,30,21,6,25,1176450050,32.68,122.0,30.0,1,1,1,29.077753
Status,0,30,22,1,19,1575420030,40.44,56.0,30.0,1,1,1,36.843002
Status,0,30,23,1,25,1575420030,44.16,310.0,29.0,1,1,1,40.56259
Status,0,30,24,1,25,1176450050,35.78,310.0,29.0,1,1,1,32.17958
Status,0,30,25,1,20,1575420030,33.12,146.0,21.0,1,1,1,29.518532
Status,0,30,26,6,11,1575420030,39.20,40.0,19.0,1,1,1,35.604965
Status,0,30,27,6,11,1176450050,29.85,40.0,19.0,1,1,1,26.247177
Status,0,30,28,3,16,1601437440,45.60,327.0,14.0,1,1,1,42.000916
Status,0,30,29,1,29,1575420030,42.53,259.0,10.0,1,1,1,38.931038
UncalAccel,1676593677079,30733901513815,-5.8223357,-2.4071796,9.659825,0.037048545,-0.031444572,0.0098014325
OrientationDeg,1676593677079,30733901513815,335.0,14.0,-2.0
UncalMag,1676593677082,30733904598695,-154.2934,789.4864,393.02298,-174.57417,771.0116,430.86337
Fix,GPS,37.4312988686,-122.1550370593,-7.151601907174173,0.25107914,3.3658195,330.14963,1676593676999,0.13325678,180.0,30733815306000,3.0
UncalGyro,1676593677083,30733905755250,0.5354234,-0.50335294,1.4010195,0.000619511,-0.0016941649,-0.00032316393
Raw,1676593676999,433043000000,,,-1360628461956742156,0.0,8.41761707240941,176.0,1.0,56,6,0.0,16431,433694929002512,12,43.05184555053711,428.6399912416032,0.15,16,175404.2439250614,340282346638528860000000000000000000000,1575420030,,,,0,,1,,39.451847076416016,0.320142130558394,1.0,0.320142130558394,1.0,C,30733815306000
Raw,1676593676999,433043000000,,,-1360628461956742156,0.0,8.41761707240941,176.0,1.0,56,11,0.0,16431,433694931376434,24,35.05865478515625,-122.39239341861327,0.5360370937790342,16,-64844.859648567726,340282346638528860000000000000000000000,1575420030,,,,0,,1,,31.458656311035156,-0.20372681261465636,1.0,-0.20372681261465636,1.0,C,30733815306000
Raw,1676593676999,433043000000,,,-1360628461956742156,0.0,8.41761707240941,176.0,1.0,56,12,0.0,16431,433694930262353,12,45.909847259521484,-279.2196900429393,0.15,16,-127514.68538273068,340282346638528860000000000000000000000,1575420030,,,,0,,1,,42.30984878540039,-0.6984919076624261,1.0,-0.6984919076624261,1.0,C,30733815306000
Raw,1676593676999,433043000000,,,-1360628461956742156,0.0,8.41761707240941,176.0,1.0,56,19,0.0,16431,433694924861943,19,37.718502044677734,543.3545870762523,0.15,16,232351.26378419623,340282346638528860000000000000000000000,1575420030,,,,0,,1,,34.11850357055664,0.0,1.0,0.0,1.0,C,30733815306000
Raw,1676593676999,433043000000,,,-1360628461956742156,0.0,8.41761707240941,176.0,1.0,56,20,0.0,16431,433694921079351,30,32.477073669433594,-513.1437272021506,0.6502757632558755,16,-224548.0316338345,340282346638528860000000000000000000000,1575420030,,,,0,,1,,28.8770751953125,0.0,1.0,0.0,1.0,C,30733815306000
Raw,1676593676999,433043000000,,,-1360628461956742156,0.0,8.41761707240941,176.0,1.0,56,24,0.0,16431,433694926567994,27,33.73470687866211,496.22771788601017,0.5947085782024986,16,205789.5759513921,340282346638528860000000000000000000000,1575420030,,,,0,,1,,30.134708404541016,-0.20372681261465636,1.0,-0.20372681261465636,1.0,C,30733815306000
Raw,1676593676999,433043000000,,,-1360628461956742156,0.0,8.41761707240941,176.0,1.0,56,25,0.0,16431,433694924652232,14,41.550594329833984,-512.7119706429196,0.15,16,-225683.99828160432,340282346638528860000000000000000000000,1575420030,,,,0,,1,,37.95059585571289,-2.0372682255564105,1.0,-2.0372682255564105,1.0,C,30733815306000
Raw,1676593676999,433043000000,,,-1360628461956742156,0.0,8.41761707240941,176.0,1.0,56,29,0.0,16419,433694916713560,16,39.81986999511719,-464.12480452050113,0.15,16,-66750.48630065654,340282346638528860000000000000000000000,1575420030,,,,0,,1,,36.219871520996094,-0.6984919076624261,1.0,-0.6984919076624261,1.0,C,30733815306000
Raw,1676593676999,433043000000,,,-1360628461956742156,0.0,8.41761707240941,176.0,1.0,56,6,0.0,81921,433694929003028,11,32.53384780883789,428.5796652935578,0.6491479800949196,16,176597.00854195215,340282346638528860000000000000000000000,1176450050,,,,0,,1,,28.933849334716797,1.9208527336454408,1.4723001595885243,1.9208527336454408,1.0,Q,30733815306000
Raw,1676593676999,433043000000,,,-1360628461956742156,0.0,8.41761707240941,176.0,1.0,56,11,0.0,81921,433694931376960,11,31.518102645874023,-122.68436930303005,0.6952518249447892,16,-65402.14541460874,340282346638528860000000000000000000000,1176450050,,,,0,,1,,27.918102264404297,0.0,1.4723001595885243,0.0,1.0,Q,30733815306000
Raw,1676593676999,433043000000,,,-1360628461956742156,0.0,8.41761707240941,176.0,1.0,56,24,0.0,81921,433694926568485,10,33.8070068359375,496.2649359285331,0.5914574313732524,16,205780.39628077947,340282346638528860000000000000000000000,1176450050,,,,0,,1,,30.207008361816406,3.5215636101095664,1.4723001595885243,3.5215636101095664,1.0,Q,30733815306000
Raw,1676593676999,433043000000,,,-1360628461956742156,0.0,8.41761707240941,176.0,1.0,56,25,0.0,81921,433694924652736,26,28.808135986328125,-513.0889907769749,0.8159065168620496,16,-227230.46646828906,340282346638528860000000000000000000000,1176450050,,,,0,,1,,25.2081356048584,1.0186341127782053,1.4723001595885243,1.0186341127782053,1.0,Q,30733815306000
Raw,1676593676999,433043000000,,,-1360628461956742156,0.0,8.41761707240941,176.0,1.0,56,14,0.0,32995,12476932782696,51,34.477420806884766,514.7061351740692,0.5624276990299486,16,210006.70353195956,340282346638528860000000000000000000000,1598062460,,,,0,,3,,30.87742042541504,52.1540641784668,2.0000000474974513,52.1540641784668,2.0000000474974513,C,30733815306000
Raw,1676593676999,433043000000,,,-1360628461956742156,0.0,8.41761707240941,176.0,1.0,56,18,0.0,32995,12476927395017,53,34.01700973510742,-524.2308525563903,0.582162639568018,16,-234715.25699023044,340282346638528860000000000000000000000,1600312450,,,,0,,3,,30.417011260986328,52.1540641784668,2.0000000474974513,52.1540641784668,2.0000000474974513,C,30733815306000
Raw,1676593676999,433043000000,,,-1360628461956742156,0.0,8.41761707240941,176.0,1.0,56,16,0.0,32867,12476922424654,44,36.126190185546875,-711.7969718681989,0.15,16,-310323.97840042843,340282346638528860000000000000000000000,1601437440,,,,0,,3,,32.52619171142578,52.1540641784668,2.0000000474974513,52.1540641784668,2.0000000474974513,C,30733815306000
Raw,1676593676999,433043000000,,,-1360628461956742156,0.0,8.41761707240941,176.0,1.0,56,15,0.0,32995,12476934785746,33,42.57676696777344,-245.2657755049047,0.15,16,-118566.821040054,340282346638528860000000000000000000000,1602000000,,,,0,,3,,38.976768493652344,52.1540641784668,2.0000000474974513,52.1540641784668,2.0000000474974513,C,30733815306000
Raw,1676593676999,433043000000,,,-1360628461956742156,0.0,8.41761707240941,176.0,1.0,56,24,0.0,32995,12476929341898,33,47.469261169433594,656.816448138949,0.15,16,279427.33900145825,340282346638528860000000000000000000000,1603124990,,,,0,,3,,43.8692626953125,52.1540641784668,2.0000000474974513,52.1540641784668,2.0000000474974513,C,30733815306000
Raw,1676593676999,433043000000,,,-1360628461956742156,0.0,8.41761707240941,176.0,1.0,56,17,0.0,32995,12476935844368,36,38.59959030151367,37.78188138208699,0.15,16,3674.9025986766496,340282346638528860000000000000000000000,1604249980,,,,0,,3,,34.99959182739258,52.1540641784668,2.0000000474974513,52.1540641784668,2.0000000474974513,C,30733815306000
Raw,1676593676999,433043000000,,,-1360628461956742156,0.0,8.41761707240941,176.0,1.0,56,2,0.0,85026,433694921952667,15,40.98576736450195,88.14291581761285,0.15,16,32217.573946066936,340282346638528860000000000000000000000,1575420030,,,,0,,6,,37.38576889038086,-5.878973752260207,1.5000000237487257,-5.878973752260207,1.5000000237487257,C,30733815306000
Raw,1676593676999,433043000000,,,-1360628461956742156,0.0,8.41761707240941,176.0,1.0,56,11,0.0,85026,433694910782500,17,39.20496368408203,566.327628318257,0.15,16,242450.59278273242,340282346638528860000000000000000000000,1575420030,,,,0,,6,,35.60496520996094,-5.878973752260207,1.5000000237487257,-5.878973752260207,1.5000000237487257,C,30733815306000
Raw,1676593676999,433043000000,,,-1360628461956742156,0.0,8.41761707240941,176.0,1.0,56,25,0.0,85026,433694912730376,26,34.2021369934082,456.8833049830996,0.5733582490463842,16,193550.69097848682,340282346638528860000000000000000000000,1575420030,,,,0,,6,,30.60213851928711,-5.878973752260207,1.5000000237487257,-5.878973752260207,1.5000000237487257,C,30733815306000
Raw,1676593676999,433043000000,,,-1360628461956742156,0.0,8.41761707240941,176.0,1.0,56,30,0.0,85026,433694914955786,14,41.75086212158203,-336.3686930272247,0.15,16,-148692.0538127476,340282346638528860000000000000000000000,1575420030,,,,0,,6,,38.15086364746094,-5.878973752260207,1.5000000237487257,-5.878973752260207,1.5000000237487257,C,30733815306000
Raw,1676593676999,433043000000,,,-1360628461956742156,0.0,8.41761707240941,176.0,1.0,56,34,0.0,85026,433694918781639,27,33.775535583496094,-320.06204395125565,0.5929109948901119,16,-145611.67735963155,340282346638528860000000000000000000000,1575420030,,,,1,,6,,30.175537109375,-5.878973752260207,1.5000000237487257,-5.878973752260207,1.5000000237487257,C,30733815306000
Raw,1676593676999,433043000000,,,-1360628461956742156,0.0,8.41761707240941,176.0,1.0,56,36,0.0,85026,433694920913786,16,40.18589401245117,207.77265347540015,0.15,16,81982.30357289547,340282346638528860000000000000000000000,1575420030,,,,0,,6,,36.58589553833008,-5.878973752260207,1.5000000237487257,-5.878973752260207,1.5000000237487257,C,30733815306000
Raw,1676593676999,433043000000,,,-1360628461956742156,0.0,8.41761707240941,176.0,1.0,56,2,0.0,84003,433694921953170,15,30.5491943359375,88.39162402347392,0.740725011214391,16,32239.78980644489,340282346638528860000000000000000000000,1176450050,,,,0,,6,,26.949193954467773,-4.216632805764675,1.97230018333725,-4.216632805764675,1.5000000237487257,Q,30733815306000
Raw,1676593676999,433043000000,,,-1360628461956742156,0.0,8.41761707240941,176.0,1.0,56,11,0.0,84003,433694910783012,35,26.77152442932129,566.3165856023436,0.9085933579720451,16,245310.65969015044,340282346638528860000000000000000000000,1176450050,,,,0,,6,,23.171524047851562,4.279776476323602,1.97230018333725,4.279776476323602,1.5000000237487257,Q,30733815306000
Raw,1676593676999,433043000000,,,-1360628461956742156,0.0,8.41761707240941,176.0,1.0,56,25,0.0,84003,433694912730879,10,31.7508544921875,456.7339215761601,0.6850288853049893,16,194150.28114437766,340282346638528860000000000000000000000,1176450050,,,,0,,6,,28.150854110717773,-8.649541996419428,1.97230018333725,-8.649541996419428,1.5000000237487257,Q,30733815306000
Raw,1676593676999,433043000000,,,-1360628461956742156,0.0,8.41761707240941,176.0,1.0,56,30,0.0,84003,433694914956301,14,33.488468170166016,-336.35996791835487,0.607290529745141,16,-149141.1965175201,340282346638528860000000000000000000000,1176450050,,,,0,,6,,29.888469696044922,-8.2801328971982,1.97230018333725,-8.2801328971982,1.5000000237487257,Q,30733815306000
Raw,1676593676999,433043000000,,,-1360628461956742156,0.0,8.41761707240941,176.0,1.0,56,34,0.0,84003,433694918782177,15,30.262014389038086,-320.1786741174767,0.7530687849651612,16,-146372.8656171564,340282346638528860000000000000000000000,1176450050,,,,0,,6,,26.66201400756836,-9.942473843693731,1.97230018333725,-9.942473843693731,1.5000000237487257,Q,30733815306000
Raw,1676593676999,433043000000,,,-1360628461956742156,0.0,8.41761707240941,176.0,1.0,56,36,0.0,84003,433694920914300,13,32.23067855834961,207.9038538917847,0.6649236974560218,16,82209.01985090178,340282346638528860000000000000000000000,1176450050,,,,0,,6,,28.630678176879883,-10.865996591746804,1.97230018333725,-10.865996591746804,1.5000000237487257,Q,30733815306000
UncalAccel,1676593677087,30733909992403,-6.2608204,-3.1334012,10.018748,0.037048545,-0.031444572,0.0098014325
OrientationDeg,1676593677087,30733909992403,335.0,14.0,-2.0
UncalGyro,1676593677092,30733914226563,0.86208355,-0.73364913,1.399645,0.000619511,-0.0016941649,-0.00032316393
UncalMag,1676593677092,30733914596091,-153.7078,788.7178,392.81558,-174.57417,771.0116,430.86337
UncalAccel,1676593677096,30733918475954,-6.4151573,-3.8350966,10.655837,0.037048545,-0.031444572,0.0098014325
OrientationDeg,1676593677096,30733918475954,334.0,14.0,-3.0
UncalGyro,1676593677100,30733922717907,1.2646438,-0.91522884,1.454012,0.000619511,-0.0016941649,-0.00032316393
UncalMag,1676593677102,30733924598451,-153.8664,787.8272,392.4862,-174.57417,771.0116,430.86337
UncalAccel,1676593677104,30733926958915,-6.4055862,-4.4207397,11.675778,0.037048545,-0.031444572,0.0098014325
OrientationDeg,1676593677104,30733926958915,334.0,13.0,-4.0
UncalGyro,1676593677109,30733931197970,1.7017179,-0.9663888,1.5731307,0.000619511,-0.0016941649,-0.00032316393
UncalMag,1676593677112,30733934598696,-154.0128,787.0952,391.4736,-174.57417,771.0116,430.86337
UncalAccel,1676593677113,30733935436037,-6.2291155,-5.0685964,12.815958,0.037048545,-0.031444572,0.0098014325
OrientationDeg,1676593677113,30733935436037,333.0,13.0,-5.0
UncalGyro,1676593677117,30733939674735,2.118939,-0.8584184,1.7699821,0.000619511,-0.0016941649,-0.00032316393
UncalAccel,1676593677121,30733943915966,-5.903692,-5.5710893,13.822739,0.037048545,-0.031444572,0.0098014325
UncalMag,1676593677122,30733944594505,-154.1836,786.05817,391.70538,-174.57417,771.0116,430.86337
OrientationDeg,1676593677121,30733943915966,333.0,12.0,-6.0
UncalGyro,1676593677126,30733948150230,2.4874432,-0.63255095,2.028378,0.000619511,-0.0016941649,-0.00032316393
UncalAccel,1676593677130,30733952399345,-5.4777694,-5.799604,14.590236,0.037048545,-0.031444572,0.0098014325
OrientationDeg,1676593677130,30733952399345,332.0,12.0,-8.0
UncalMag,1676593677132,30733954588036,-154.1714,784.3746,390.827,-174.57417,771.0116,430.86337
UncalGyro,1676593677134,30733956637362,2.7818804,-0.32711834,2.314721,0.000619511,-0.0016941649,-0.00032316393
UncalAccel,1676593677138,30733960882377,-5.2169514,-5.7744794,14.854643,0.037048545,-0.031444572,0.0098014325
OrientationDeg,1676593677138,30733960882377,331.0,12.0,-9.0
UncalMag,1676593677142,30733964598534,-153.43939,782.7276,390.7782,-174.57417,771.0116,430.86337
UncalGyro,1676593677143,30733965118888,2.982244,-0.018784106,2.588236,0.000619511,-0.0016941649,-0.00032316393
UncalAccel,1676593677147,30733969351168,-5.1696935,-5.5393844,14.800804,0.037048545,-0.031444572,0.0098014325
OrientationDeg,1676593677147,30733969351168,330.0,12.0,-11.0
UncalGyro,1676593677151,30733973602521,3.089909,0.25244007,2.8124237,0.000619511,-0.0016941649,-0.00032316393
UncalMag,1676593677152,30733974588443,-153.43939,780.87317,389.85098,-174.57417,771.0116,430.86337
UncalAccel,1676593677155,30733977841963,-5.2079782,-5.189434,14.498113,0.037048545,-0.031444572,0.0098014325
OrientationDeg,1676593677155,30733977841963,329.0,12.0,-13.0
UncalGyro,1676593677160,30733982086734,3.1418326,0.46654832,3.0056098,0.000619511,-0.0016941649,-0.00032316393
UncalMag,1676593677162,30733984598534,-152.8172,779.2506,390.53418,-174.57417,771.0116,430.86337
UncalAccel,1676593677165,30733986322544,-5.17089,-4.895715,13.852649,0.037048545,-0.031444572,0.0098014325
OrientationDeg,1676593677164,30733986322544,328.0,12.0,-14.0
UncalGyro,1676593677168,30733990565077,3.1771102,0.6252206,3.1919236,0.000619511,-0.0016941649,-0.00032316393
UncalMag,1676593677172,30733994598494,-152.9026,777.6646,390.156,-174.57417,771.0116,430.86337
UncalAccel,1676593677172,30733994800734,-4.956134,-4.706682,13.161122,0.037048545,-0.031444572,0.0098014325
OrientationDeg,1676593677172,30733994800734,326.0,12.0,-16.0
UncalGyro,1676593677177,30733999035821,3.212235,0.75609845,3.3773212,0.000619511,-0.0016941649,-0.00032316393
UncalAccel,1676593677181,30734003284224,-4.4207397,-4.57747,12.476177,0.037048545,-0.031444572,0.0098014325
OrientationDeg,1676593677181,30734003284224,325.0,12.0,-18.0
UncalMag,1676593677182,30734004585962,-151.9998,775.432,390.4488,-174.57417,771.0116,430.86337
UncalGyro,1676593677185,30734007525669,3.2664492,0.8752172,3.5703547,0.000619511,-0.0016941649,-0.00032316393
UncalAccel,1676593677189,30734011766849,-3.5497525,-4.369294,11.569298,0.037048545,-0.031444572,0.0098014325
OrientationDeg,1676593677189,30734011766849,323.0,12.0,-20.0
UncalMag,1676593677192,30734014598739,-151.60939,773.24817,390.034,-174.57417,771.0116,430.86337
UncalGyro,1676593677194,30734016004470,3.3660202,0.9575313,3.7797287,0.000619511,-0.0016941649,-0.00032316393
UncalAccel,1676593677198,30734020245976,-2.5728827,-3.9882371,10.542776,0.037048545,-0.031444572,0.0098014325
OrientationDeg,1676593677198,30734020245976,322.0,12.0,-22.0
UncalGyro,1676593677202,30734024487349,3.535688,0.99296147,3.9869647,0.000619511,-0.0016941649,-0.00032316393
UncalMag,1676593677202,30734024592717,-150.9018,771.2108,391.70538,-174.57417,771.0116,430.86337
