# 
# Header Description:
# 
# Version: v3.0.5.6 Platform: 13 Manufacturer: Google Model: Pixel 7
# 
# Raw,utcTimeMillis,TimeNanos,LeapSecond,TimeUncertaintyNanos,FullBiasNanos,BiasNanos,BiasUncertaintyNanos,DriftNanosPerSecond,DriftUncertaintyNanosPerSecond,HardwareClockDiscontinuityCount,Svid,TimeOffsetNanos,State,ReceivedSvTimeNanos,ReceivedSvTimeUncertaintyNanos,Cn0DbHz,PseudorangeRateMetersPerSecond,PseudorangeRateUncertaintyMetersPerSecond,AccumulatedDeltaRangeState,AccumulatedDeltaRangeMeters,AccumulatedDeltaRangeUncertaintyMeters,CarrierFrequencyHz,CarrierCycles,CarrierPhase,CarrierPhaseUncertainty,MultipathIndicator,SnrInDb,ConstellationType,AgcDb,BasebandCn0DbHz,FullInterSignalBiasNanos,FullInterSignalBiasUncertaintyNanos,SatelliteInterSignalBiasNanos,SatelliteInterSignalBiasUncertaintyNanos,CodeType,ChipsetElapsedRealtimeNanos
# 
# UncalAccel,utcTimeMillis,elapsedRealtimeNanos,UncalAccelXMps2,UncalAccelYMps2,UncalAccelZMps2,BiasXMps2,BiasYMps2,BiasZMps2
# 
# Accel,utcTimeMillis,elapsedRealtimeNanos,AccelXMps2,AccelYMps2,AccelZMps2
# 
# UncalGyro,utcTimeMillis,elapsedRealtimeNanos,UncalGyroXRadPerSec,UncalGyroYRadPerSec,UncalGyroZRadPerSec,DriftXRadPerSec,DriftYRadPerSec,DriftZRadPerSec
# 
# Gyro,utcTimeMillis,elapsedRealtimeNanos,GyroXRadPerSec,GyroYRadPerSec,GyroZRadPerSec
# 
# UncalMag,utcTimeMillis,elapsedRealtimeNanos,UncalMagXMicroT,UncalMagYMicroT,UncalMagZMicroT,BiasXMicroT,BiasYMicroT,BiasZMicroT
# 
# Mag,utcTimeMillis,elapsedRealtimeNanos,MagXMicroT,MagYMicroT,MagZMicroT
# 
# OrientationDeg,utcTimeMillis,elapsedRealtimeNanos,yawDeg,rollDeg,pitchDeg
# 
# Fix,Provider,LatitudeDegrees,LongitudeDegrees,AltitudeMeters,SpeedMps,AccuracyMeters,BearingDegrees,UnixTimeMillis,SpeedAccuracyMps,BearingAccuracyDegrees,elapsedRealtimeNanos,VerticalAccuracyMeters
# 
# Nav,Svid,Type,Status,MessageId,Sub-messageId,Data(Bytes)
# 
# Status,UnixTimeMillis,SignalCount,SignalIndex,ConstellationType,Svid,CarrierFrequencyHz,Cn0DbHz,AzimuthDegrees,ElevationDegrees,UsedInFix,HasAlmanacData,HasEphemerisData,BasebandCn0DbHz
# 
UncalMag,1676597703506,34760328065229,-195.4928,749.93396,362.68158,550.38293,613.60535,598.6976
UncalAccel,1676597703504,34760326956323,-0.116650105,-0.02751746,9.805787,0.037048545,-0.031444572,0.0098014325
UncalGyro,1676597703509,34760331194705,0.00030543262,0.002443461,0.0,-0.0010803987,-0.001336456,-0.00036562036
UncalAccel,1676597703513,34760335431298,-0.14476576,-0.01794617,9.729217,0.037048545,-0.031444572,0.0098014325
UncalMag,1676597703516,34760338075402,-195.5904,750.1048,362.7304,550.38293,613.60535,598.6976
UncalGyro,1676597703517,34760339683190,-0.0035124752,-0.0041233404,-0.00061086525,-0.0010803987,-0.001336456,-0.00036562036
UncalAccel,1676597703521,34760343921370,-0.116650105,-0.032303106,9.805787,0.037048545,-0.031444572,0.0098014325
OrientationDeg,1676597703504,34760326956323,79.0,0.0,0.0
OrientationDeg,1676597703513,34760335431298,79.0,0.0,0.0
OrientationDeg,1676597703521,34760343921370,79.0,0.0,0.0
UncalMag,1676597703526,34760348075484,-195.7856,750.37317,363.15738,550.38293,613.60535,598.6976
UncalGyro,1676597703526,34760348162001,0.00061086525,0.00015271631,0.00045814895,-0.0010803987,-0.001336456,-0.00036562036
Fix,FLP,37.4242175000,-122.1566867000,-13.5,0.021281814,13.826,,1676597702681,,,34759503000000,1.0373119
UncalAccel,1676597703530,34760352402439,-0.12622139,-0.01794617,9.781859,0.037048545,-0.031444572,0.0098014325
OrientationDeg,1676597703530,34760352402439,79.0,0.0,0.0
UncalGyro,1676597703534,34760356625056,-0.00045814895,0.00045814895,-0.00061086525,-0.0010803987,-0.001336456,-0.00036562036
UncalMag,1676597703537,34760358075199,-195.688,750.2024,362.8768,550.38293,613.60535,598.6976
UncalAccel,1676597703538,34760360874037,-0.14057833,-0.013160525,9.757333,0.037048545,-0.031444572,0.0098014325
OrientationDeg,1676597703538,34760360874037,79.0,0.0,0.0
UncalGyro,1676597703543,34760365112045,-0.00290161,-0.004428773,0.0,-0.0010803987,-0.001336456,-0.00036562036
UncalMag,1676597703546,34760368075322,-195.8832,750.422,361.83978,550.38293,613.60535,598.6976
UncalAccel,1676597703547,34760369355482,-0.13100705,-0.022731815,9.800404,0.037048545,-0.031444572,0.0098014325
OrientationDeg,1676597703547,34760369355482,79.0,0.0,0.0
UncalGyro,1676597703551,34760373589807,-0.0009162979,0.00045814895,-0.00061086525,-0.0010803987,-0.001336456,-0.00036562036
UncalAccel,1676597703555,34760377830794,-0.13579269,-0.013160525,9.7812605,0.037048545,-0.031444572,0.0098014325
OrientationDeg,1676597703555,34760377830794,79.0,0.0,0.0
UncalMag,1676597703556,34760378073694,-195.7612,750.6294,362.6206,550.38293,613.60535,598.6976
UncalGyro,1676597703560,34760382070591,-0.0010690142,-0.0015271631,0.0,-0.0010803987,-0.001336456,-0.00036562036
UncalAccel,1676597703564,34760386309871,-0.13100705,-0.013160525,9.771689,0.037048545,-0.031444572,0.0098014325
UncalMag,1676597703566,34760388075404,-195.5782,750.2756,362.52298,550.38293,613.60535,598.6976
OrientationDeg,1676597703564,34760386309871,79.0,0.0,0.0
UncalGyro,1676597703568,34760390548538,-0.0015271631,-0.0027488936,-0.00015271631,-0.0010803987,-0.001336456,-0.00036562036
UncalAccel,1676597703572,34760394784918,-0.12622139,-0.01794617,9.7812605,0.037048545,-0.031444572,0.0098014325
OrientationDeg,1676597703572,34760394784918,79.0,0.0,0.0
UncalMag,1676597703576,34760398075485,-195.4928,749.9218,362.1936,550.38293,613.60535,598.6976
UncalGyro,1676597703577,34760399029281,-0.00061086525,0.00030543262,-0.00045814895,-0.0010803987,-0.001336456,-0.00036562036
UncalAccel,1676597703581,34760403264400,-0.13100705,-0.01794617,9.7812605,0.037048545,-0.031444572,0.0098014325
OrientationDeg,1676597703581,34760403264400,79.0,0.0,0.0
UncalGyro,1676597703585,34760407496659,-0.0016798794,-0.0013744468,-0.00076358154,-0.0010803987,-0.001336456,-0.00036562036
UncalMag,1676597703586,34760408066900,-195.9076,749.995,362.1082,550.38293,613.60535,598.6976
UncalAccel,1676597703589,34760411744207,-0.13579269,-0.02751746,9.771689,0.037048545,-0.031444572,0.0098014325
OrientationDeg,1676597703589,34760411744207,79.0,0.0,0.0
UncalGyro,1676597703593,34760415981370,-0.0016798794,-0.00045814895,-0.00076358154,-0.0010803987,-0.001336456,-0.00036562036
UncalMag,1676597703596,34760418075323,-195.7002,749.8974,361.7178,550.38293,613.60535,598.6976
UncalAccel,1676597703598,34760420213079,-0.13100705,-0.02751746,9.786046,0.037048545,-0.031444572,0.0098014325
OrientationDeg,1676597703598,34760420213079,79.0,0.0,0.0
UncalGyro,1676597703602,34760424464962,-0.0010690142,-0.0012217305,0.0,-0.0010803987,-0.001336456,-0.00036562036
UncalMag,1676597703606,34760428075282,-195.79779,750.0804,361.99838,550.38293,613.60535,598.6976
UncalAccel,1676597703606,34760428708827,-0.13100705,-0.01794617,9.762716,0.037048545,-0.031444572,0.0098014325
OrientationDeg,1676597703606,34760428708827,79.0,0.0,0.0
UncalGyro,1676597703610,34760432944922,-0.0013744468,-0.0022907446,-0.00061086525,-0.0010803987,-0.001336456,-0.00036562036
UncalAccel,1676597703615,34760437180732,-0.13100705,-0.022731815,9.786046,0.037048545,-0.031444572,0.0098014325
OrientationDeg,1676597703615,34760437180732,79.0,0.0,0.0
UncalMag,1676597703616,34760438064988,-195.5904,750.0194,362.828,550.38293,613.60535,598.6976
UncalGyro,1676597703619,34760441417975,-0.00061086525,-0.0010690142,-0.00045814895,-0.0010803987,-0.001336456,-0.00036562036
UncalAccel,1676597703623,34760445658017,-0.13579269,-0.01794617,9.786046,0.037048545,-0.031444572,0.0098014325
OrientationDeg,1676597703623,34760445658017,79.0,0.0,0.0
UncalMag,1676597703626,34760448066616,-195.261,750.2756,362.401,550.38293,613.60535,598.6976
UncalGyro,1676597703627,34760449897263,-0.00015271631,-0.0010690142,0.0,-0.0010803987,-0.001336456,-0.00036562036
UncalAccel,1676597703632,34760454132514,-0.13579269,-0.022731815,9.771689,0.037048545,-0.031444572,0.0098014325
OrientationDeg,1676597703632,34760454132514,79.0,0.0,0.0
UncalMag,1676597703636,34760458065436,-194.9682,749.93396,362.1814,550.38293,613.60535,598.6976
UncalGyro,1676597703636,34760458369401,-0.001985312,-0.0015271631,-0.00061086525,-0.0010803987,-0.001336456,-0.00036562036
UncalAccel,1676597703640,34760462599688,-0.12622139,-0.01794617,9.786046,0.037048545,-0.031444572,0.0098014325
OrientationDeg,1676597703640,34760462599688,79.0,0.0,0.0
UncalGyro,1676597703644,34760466856961,-0.0012217305,-0.0009162979,-0.00076358154,-0.0010803987,-0.001336456,-0.00036562036
UncalMag,1676597703646,34760468072720,-196.3224,750.0804,362.2546,550.38293,613.60535,598.6976
UncalAccel,1676597703649,34760471095120,-0.12622139,-0.022731815,9.772287,0.037048545,-0.031444572,0.0098014325
OrientationDeg,1676597703649,34760471095120,79.0,0.0,0.0
UncalGyro,1676597703653,34760475337460,-0.00061086525,-0.001985312,0.00030543262,-0.0010803987,-0.001336456,-0.00036562036
UncalMag,1676597703656,34760478075406,-195.749,750.971,362.5718,550.38293,613.60535,598.6976
UncalAccel,1676597703657,34760479569851,-0.13579269,-0.008374879,9.771689,0.037048545,-0.031444572,0.0098014325
OrientationDeg,1676597703657,34760479569851,79.0,0.0,0.0
UncalGyro,1676597703661,34760483805122,-0.0009162979,-0.0009162979,-0.00061086525,-0.0010803987,-0.001336456,-0.00036562036
UncalAccel,1676597703666,34760488049792,-0.13579269,-0.013160525,9.7812605,0.037048545,-0.031444572,0.0098014325
UncalMag,1676597703666,34760488082079,-195.6758,750.37317,362.79138,550.38293,613.60535,598.6976
OrientationDeg,1676597703666,34760488049792,79.0,0.0,0.0
UncalGyro,1676597703670,34760492290067,-0.0010690142,-0.00061086525,-0.00076358154,-0.0010803987,-0.001336456,-0.00036562036
UncalAccel,1676597703674,34760496530027,-0.13100705,-0.022731815,9.776475,0.037048545,-0.031444572,0.0098014325
UncalMag,1676597703676,34760498071378,-195.6758,750.37317,362.79138,550.38293,613.60535,598.6976
OrientationDeg,1676597703674,34760496530027,79.0,0.0,0.0
UncalGyro,1676597703678,34760500768745,-0.0010690142,-0.0012217305,-0.00045814895,-0.0010803987,-0.001336456,-0.00036562036
UncalAccel,1676597703683,34760505008024,-0.13100705,-0.01794617,9.7812605,0.037048545,-0.031444572,0.0098014325
OrientationDeg,1676597703683,34760505008024,79.0,0.0,0.0
UncalMag,1676597703686,34760508075244,-195.77339,750.3366,361.8154,550.38293,613.60535,598.6976
UncalGyro,1676597703687,34760509247108,-0.0013744468,-0.0009162979,-0.00076358154,-0.0010803987,-0.001336456,-0.00036562036
UncalAccel,1676597703691,34760513484282,-0.13579269,-0.01794617,9.776475,0.037048545,-0.031444572,0.0098014325
OrientationDeg,1676597703691,34760513484282,79.0,0.0,0.0
UncalGyro,1676597703695,34760517720813,-0.00030543262,-0.00076358154,-0.00076358154,-0.0010803987,-0.001336456,-0.00036562036
UncalMag,1676597703696,34760518084603,-195.79779,750.0926,362.36438,550.38293,613.60535,598.6976
UncalAccel,1676597703699,34760521962655,-0.12622139,-0.01794617,9.7812605,0.037048545,-0.031444572,0.0098014325
OrientationDeg,1676597703699,34760521962655,79.0,0.0,0.0
UncalGyro,1676597703704,34760526198017,-0.0012217305,-0.0012217305,-0.00076358154,-0.0010803987,-0.001336456,-0.00036562036
UncalMag,1676597703706,34760528075366,-196.11499,749.9218,362.5718,550.38293,613.60535,598.6976
UncalAccel,1676597703708,34760530432697,-0.13579269,-0.01794617,9.771689,0.037048545,-0.031444572,0.0098014325
OrientationDeg,1676597703708,34760530432697,79.0,0.0,0.0
UncalGyro,1676597703712,34760534683837,-0.00061086525,-0.0018325958,-0.00045814895,-0.0010803987,-0.001336456,-0.00036562036
UncalMag,1676597703716,34760538075448,-195.9076,749.8974,361.83978,550.38293,613.60535,598.6976
UncalAccel,1676597703716,34760538922371,-0.13100705,-0.013160525,9.7812605,0.037048545,-0.031444572,0.0098014325
OrientationDeg,1676597703716,34760538922371,79.0,0.0,0.0
UncalGyro,1676597703721,34760543163370,-0.0009162979,-0.0016798794,-0.00045814895,-0.0010803987,-0.001336456,-0.00036562036
UncalAccel,1676597703725,34760547396005,-0.13100705,-0.013160525,9.7812605,0.037048545,-0.031444572,0.0098014325
OrientationDeg,1676597703725,34760547396005,79.0,0.0,0.0
UncalMag,1676597703726,34760548064869,-195.6026,749.751,362.52298,550.38293,613.60535,598.6976
UncalGyro,1676597703729,34760551628589,-0.00061086525,-0.0009162979,-0.00076358154,-0.0010803987,-0.001336456,-0.00036562036
UncalAccel,1676597703733,34760555877471,-0.13579269,-0.013160525,9.7812605,0.037048545,-0.031444572,0.0098014325
OrientationDeg,1676597703733,34760555877471,79.0,0.0,0.0
UncalMag,1676597703736,34760558076710,-195.6026,749.751,362.52298,550.38293,613.60535,598.6976
UncalGyro,1676597703738,34760560117471,-0.00015271631,-0.00076358154,-0.00076358154,-0.0010803987,-0.001336456,-0.00036562036
UncalAccel,1676597703742,34760564358255,-0.13100705,-0.01794617,9.786046,0.037048545,-0.031444572,0.0098014325
OrientationDeg,1676597703742,34760564358255,79.0,0.0,0.0
UncalMag,1676597703746,34760568075449,-195.61479,749.6412,361.7666,550.38293,613.60535,598.6976
UncalGyro,1676597703746,34760568593423,-0.00045814895,-0.0012217305,-0.0010690142,-0.0010803987,-0.001336456,-0.00036562036
UncalAccel,1676597703750,34760572824676,-0.13100705,-0.032303106,9.786645,0.037048545,-0.031444572,0.0098014325
OrientationDeg,1676597703750,34760572824676,79.0,0.0,0.0
UncalGyro,1676597703755,34760577074209,-0.0012217305,-0.0013744468,-0.00045814895,-0.0010803987,-0.001336456,-0.00036562036
UncalMag,1676597703756,34760578065032,-195.0414,750.4464,361.9496,550.38293,613.60535,598.6976
UncalAccel,1676597703759,34760581311869,-0.13100705,-0.022731815,9.777073,0.037048545,-0.031444572,0.0098014325
OrientationDeg,1676597703759,34760581311869,79.0,0.0,0.0
UncalGyro,1676597703763,34760585551900,-0.0013744468,-0.0016798794,0.0,-0.0010803987,-0.001336456,-0.00036562036
UncalMag,1676597703766,34760588075327,-196.2004,750.2878,363.1452,550.38293,613.60535,598.6976
UncalAccel,1676597703767,34760589791218,-0.12622139,-0.022731815,9.786645,0.037048545,-0.031444572,0.0098014325
OrientationDeg,1676597703767,34760589791218,79.0,0.0,0.0
UncalGyro,1676597703772,34760594030986,-0.0010690142,-0.0016798794,-0.00061086525,-0.0010803987,-0.001336456,-0.00036562036
UncalMag,1676597703777,34760598075287,-195.993,750.26337,362.4132,550.38293,613.60535,598.6976
UncalAccel,1676597703776,34760598266510,-0.12622139,-0.01794617,9.776475,0.037048545,-0.031444572,0.0098014325
OrientationDeg,1676597703776,34760598266510,79.0,0.0,0.0
UncalGyro,1676597703780,34760602492065,-0.00030543262,-0.0016798794,-0.00076358154,-0.0010803987,-0.001336456,-0.00036562036
UncalAccel,1676597703784,34760606737519,-0.13579269,-0.01794617,9.7812605,0.037048545,-0.031444572,0.0098014325
UncalMag,1676597703786,34760608064626,-195.6758,750.37317,363.0354,550.38293,613.60535,598.6976
OrientationDeg,1676597703784,34760606737519,79.0,0.0,0.0
UncalGyro,1676597703788,34760610988057,-0.0015271631,-0.0016798794,-0.00076358154,-0.0010803987,-0.001336456,-0.00036562036
UncalAccel,1676597703793,34760615230032,-0.13579269,-0.022731815,9.7812605,0.037048545,-0.031444572,0.0098014325
OrientationDeg,1676597703793,34760615230032,79.0,0.0,0.0
UncalMag,1676597703796,34760618075491,-195.3708,750.1902,362.3766,550.38293,613.60535,598.6976
UncalGyro,1676597703797,34760619468954,-0.00061086525,-0.0013744468,0.00030543262,-0.0010803987,-0.001336456,-0.00036562036
UncalAccel,1676597703801,34760623702210,-0.13579269,-0.022731815,9.786046,0.037048545,-0.031444572,0.0098014325
OrientationDeg,1676597703801,34760623702210,79.0,0.0,0.0
UncalGyro,1676597703805,34760627935455,-0.0012217305,-0.0009162979,0.00015271631,-0.0010803987,-0.001336456,-0.00036562036
UncalMag,1676597703806,34760628077851,-195.79779,750.0072,362.5962,550.38293,613.60535,598.6976
UncalAccel,1676597703810,34760632182994,-0.12622139,-0.01794617,9.776475,0.037048545,-0.031444572,0.0098014325
OrientationDeg,1676597703810,34760632182994,79.0,0.0,0.0
UncalGyro,1676597703814,34760636423666,-0.0013744468,-0.00076358154,0.00015271631,-0.0010803987,-0.001336456,-0.00036562036
UncalMag,1676597703816,34760638075328,-195.82219,749.6534,362.1448,550.38293,613.60535,598.6976
UncalAccel,1676597703818,34760640663860,-0.13579269,-0.013160525,9.776475,0.037048545,-0.031444572,0.0098014325
OrientationDeg,1676597703818,34760640663860,79.0,0.0,0.0
UncalGyro,1676597703822,34760644895173,-0.00061086525,-0.0015271631,-0.0013744468,-0.0010803987,-0.001336456,-0.00036562036
UncalMag,1676597703826,34760648075451,-195.4928,749.8486,362.9134,550.38293,613.60535,598.6976
UncalAccel,1676597703827,34760649127005,-0.13100705,-0.022731815,9.786046,0.037048545,-0.031444572,0.0098014325
OrientationDeg,1676597703827,34760649127005,79.0,0.0,0.0
UncalGyro,1676597703831,34760653379843,-0.00045814895,-0.0009162979,-0.00015271631,-0.0010803987,-0.001336456,-0.00036562036
UncalAccel,1676597703835,34760657616172,-0.12622139,-0.022731815,9.771689,0.037048545,-0.031444572,0.0098014325
UncalMag,1676597703836,34760658080374,-195.7856,750.26337,362.04718,550.38293,613.60535,598.6976
OrientationDeg,1676597703835,34760657616172,79.0,0.0,0.0
UncalGyro,1676597703839,34760661850852,-0.00045814895,-0.0015271631,-0.00061086525,-0.0010803987,-0.001336456,-0.00036562036
UncalAccel,1676597703844,34760666096661,-0.12622139,-0.01794617,9.777073,0.037048545,-0.031444572,0.0098014325
OrientationDeg,1676597703844,34760666096661,79.0,0.0,0.0
UncalMag,1676597703846,34760668064994,-195.688,750.1048,362.4864,550.38293,613.60535,598.6976
UncalGyro,1676597703848,34760670337994,-0.00015271631,-0.0013744468,-0.00076358154,-0.0010803987,-0.001336456,-0.00036562036
UncalAccel,1676597703852,34760674578727,-0.12622139,-0.01794617,9.781859,0.037048545,-0.031444572,0.0098014325
OrientationDeg,1676597703852,34760674578727,79.0,0.0,0.0
UncalMag,1676597703856,34760678075370,-195.3952,749.71436,361.181,550.38293,613.60535,598.6976
UncalGyro,1676597703856,34760678815116,-0.0012217305,-0.0013744468,0.0,-0.0010803987,-0.001336456,-0.00036562036
UncalAccel,1676597703861,34760683053265,-0.13579269,-0.01794617,9.7812605,0.037048545,-0.031444572,0.0098014325
OrientationDeg,1676597703861,34760683053265,79.0,0.0,0.0
UncalGyro,1676597703865,34760687293277,-0.0013744468,-0.0013744468,-0.00061086525,-0.0010803987,-0.001336456,-0.00036562036
UncalMag,1676597703866,34760688064913,-195.2732,750.1292,363.0842,550.38293,613.60535,598.6976
UncalAccel,1676597703869,34760691529288,-0.12622139,-0.01794617,9.786645,0.037048545,-0.031444572,0.0098014325
OrientationDeg,1676597703869,34760691529288,79.0,0.0,0.0
UncalGyro,1676597703873,34760695761569,-0.0013744468,-0.00061086525,-0.00045814895,-0.0010803987,-0.001336456,-0.00036562036
UncalMag,1676597703876,34760698075248,-195.48059,750.0804,361.8764,550.38293,613.60535,598.6976
UncalAccel,1676597703878,34760700010235,-0.13579269,-0.013160525,9.7812605,0.037048545,-0.031444572,0.0098014325
OrientationDeg,1676597703878,34760700010235,79.0,0.0,0.0
UncalGyro,1676597703882,34760704250715,-0.0013744468,-0.00076358154,-0.0015271631,-0.0010803987,-0.001336456,-0.00036562036
UncalMag,1676597703887,34760708075289,-195.566,750.36096,362.42538,550.38293,613.60535,598.6976
UncalAccel,1676597703886,34760708489769,-0.13579269,-0.013160525,9.786046,0.037048545,-0.031444572,0.0098014325
OrientationDeg,1676597703886,34760708489769,79.0,0.0,0.0
UncalGyro,1676597703890,34760712717655,-0.0013744468,-0.00076358154,-0.00061086525,-0.0010803987,-0.001336456,-0.00036562036
UncalAccel,1676597703894,34760716963575,-0.13579269,-0.02751746,9.781859,0.037048545,-0.031444572,0.0098014325
UncalMag,1676597703896,34760718065239,-196.3102,750.25116,362.3034,550.38293,613.60535,598.6976
OrientationDeg,1676597703894,34760716963575,79.0,0.0,0.0
UncalGyro,1676597703900,34760721206790,-0.00030543262,-0.0018325958,-0.00076358154,-0.0010803987,-0.001336456,-0.00036562036
UncalAccel,1676597703903,34760725445346,-0.13100705,-0.02751746,9.781859,0.037048545,-0.031444572,0.0098014325
OrientationDeg,1676597703903,34760725445346,79.0,0.0,0.0
UncalMag,1676597703906,34760728075412,-195.98079,750.422,361.7178,550.38293,613.60535,598.6976
UncalGyro,1676597703907,34760729675855,-0.0012217305,-0.0016798794,-0.00045814895,-0.0010803987,-0.001336456,-0.00036562036
UncalAccel,1676597703912,34760733924269,-0.13100705,-0.022731815,9.781859,0.037048545,-0.031444572,0.0098014325
OrientationDeg,1676597703911,34760733924269,79.0,0.0,0.0
UncalMag,1676597703916,34760738075412,-195.688,750.178,362.1448,550.38293,613.60535,598.6976
UncalGyro,1676597703916,34760738165815,-0.0009162979,-0.0009162979,-0.00045814895,-0.0010803987,-0.001336456,-0.00036562036
UncalAccel,1676597703920,34760742408166,-0.12622139,-0.01794617,9.777073,0.037048545,-0.031444572,0.0098014325
OrientationDeg,1676597703920,34760742408166,79.0,0.0,0.0
UncalGyro,1676597703924,34760746638961,-0.0010690142,-0.0012217305,0.0,-0.0010803987,-0.001336456,-0.00036562036
UncalMag,1676597703926,34760748075290,-195.79779,750.1048,362.8524,550.38293,613.60535,598.6976
UncalAccel,1676597703928,34760750866937,-0.12143575,-0.013160525,9.781859,0.037048545,-0.031444572,0.0098014325
OrientationDeg,1676597703928,34760750866937,79.0,0.0,0.0
UncalGyro,1676597703933,34760755120142,-0.0013744468,-0.0016798794,0.00015271631,-0.0010803987,-0.001336456,-0.00036562036
UncalMag,1676597703936,34760758064955,-195.993,750.36096,362.5596,550.38293,613.60535,598.6976
UncalAccel,1676597703937,34760759359043,-0.12622139,-0.022731815,9.777073,0.037048545,-0.031444572,0.0098014325
OrientationDeg,1676597703937,34760759359043,79.0,0.0,0.0
UncalGyro,1676597703941,34760763602717,-0.0013744468,-0.0013744468,-0.00061086525,-0.0010803987,-0.001336456,-0.00036562036
UncalAccel,1676597703945,34760767834853,-0.13579269,-0.022731815,9.786046,0.037048545,-0.031444572,0.0098014325
UncalMag,1676597703946,34760768066583,-195.566,750.4464,362.20578,550.38293,613.60535,598.6976
OrientationDeg,1676597703945,34760767834853,79.0,0.0,0.0
UncalGyro,1676597703950,34760772066543,-0.0013744468,-0.0009162979,0.0,-0.0010803987,-0.001336456,-0.00036562036
UncalAccel,1676597703954,34760776313583,-0.13579269,-0.013160525,9.771689,0.037048545,-0.031444572,0.0098014325
UncalMag,1676597703956,34760778075495,-195.79779,750.0194,362.7182,550.38293,613.60535,598.6976
OrientationDeg,1676597703954,34760776313583,79.0,0.0,0.0
UncalGyro,1676597703958,34760780556034,-0.0013744468,-0.0015271631,-0.00015271631,-0.0010803987,-0.001336456,-0.00036562036
Raw,1676597703763,11105000000,,,-1360632910658997151,0.0,2000003322,,,64,11,0.0,17,59207,48,26.579191207885742,354.6247904513855,0.9156731229397863,21,2743.464011756635,0.10122580468942201,1575420030,,,,0,,1,,22.979190826416016,-0.20372681261465636,1.0,-0.20372681261465636,1.0,C,34760729211309
Raw,1676597703763,11105000000,,,-1360632910658997151,0.0,2000003322,,,64,12,0.0,17,994764,47,26.732229232788086,105.01400445605617,0.909139342949389,16,352.69438079099996,340282346638528860000000000000000000000,1575420030,,,,0,,1,,23.13222885131836,-0.6984919076624261,1.0,-0.6984919076624261,1.0,C,34760729211309
Raw,1676597703763,11105000000,,,-1360632910658997151,0.0,2000003322,,,64,11,0.0,65553,2059225,111,21.64372444152832,354.25090590333025,1.1376155502590075,16,6017.018672632175,340282346638528860000000000000000000000,1176450050,,,,0,,1,,18.043724060058594,0.0,7.671281903963041,0.0,1.0,Q,34760729211309
OrientationDeg,1676597703962,34760784796808,79.0,0.0,0.0
Status,0,3,0,1,12,1575420030,26.73,68.0,88.0,0,1,1,23.132229
Status,0,3,1,1,11,1176450050,21.64,50.0,64.0,0,1,1,18.043724
Status,0,3,2,1,11,1575420030,26.58,50.0,64.0,0,1,1,22.97919
UncalAccel,1676597703962,34760784796808,-0.13579269,-0.022731815,9.7812605,0.037048545,-0.031444572,0.0098014325
UncalMag,1676597703966,34760788075983,-195.566,750.4464,362.4498,550.38293,613.60535,598.6976
UncalGyro,1676597703967,34760789034987,-0.0013744468,-0.0012217305,0.0,-0.0010803987,-0.001336456,-0.00036562036
UncalAccel,1676597703971,34760793272852,-0.13100705,-0.01794617,9.781859,0.037048545,-0.031444572,0.0098014325
OrientationDeg,1676597703971,34760793272852,79.0,0.0,0.0
UncalGyro,1676597703975,34760797513026,-0.0013744468,-0.0016798794,-0.00061086525,-0.0010803987,-0.001336456,-0.00036562036
UncalMag,1676597703976,34760798064672,-195.7002,749.9096,361.9618,550.38293,613.60535,598.6976
UncalAccel,1676597703979,34760801748795,-0.13100705,-0.013160525,9.786046,0.037048545,-0.031444572,0.0098014325
OrientationDeg,1676597703979,34760801748795,79.0,0.0,0.0
UncalGyro,1676597703983,34760805981837,-0.0013744468,-0.0016798794,-0.00076358154,-0.0010803987,-0.001336456,-0.00036562036
UncalMag,1676597703986,34760808075414,-195.77339,750.4464,362.3278,550.38293,613.60535,598.6976
UncalAccel,1676597703988,34760810230423,-0.13100705,-0.01794617,9.777073,0.037048545,-0.031444572,0.0098014325
OrientationDeg,1676597703988,34760810230423,79.0,0.0,0.0
UncalGyro,1676597703992,34760814469925,-0.0018325958,-0.0013744468,0.00030543262,-0.0010803987,-0.001336456,-0.00036562036
UncalMag,1676597703996,34760818075292,-195.993,750.239,361.5592,550.38293,613.60535,598.6976
UncalAccel,1676597703996,34760818707759,-0.13100705,-0.01794617,9.786645,0.037048545,-0.031444572,0.0098014325
OrientationDeg,1676597703996,34760818707759,79.0,0.0,0.0
UncalGyro,1676597704000,34760822937455,-0.0013744468,-0.0016798794,-0.00061086525,-0.0010803987,-0.001336456,-0.00036562036
UncalAccel,1676597704005,34760827186509,-0.13579269,-0.01794617,9.786046,0.037048545,-0.031444572,0.0098014325
UncalMag,1676597704006,34760828064876,-195.688,750.0926,362.36438,550.38293,613.60535,598.6976
OrientationDeg,1676597704005,34760827186509,79.0,0.0,0.0
UncalGyro,1676597704009,34760831426723,-0.0013744468,-0.0009162979,-0.00045814895,-0.0010803987,-0.001336456,-0.00036562036
UncalAccel,1676597704013,34760835665513,-0.13579269,-0.01794617,9.786046,0.037048545,-0.031444572,0.0098014325
OrientationDeg,1676597704013,34760835665513,79.0,0.0,0.0
UncalMag,1676597704016,34760838075415,-196.0052,750.1902,362.63278,550.38293,613.60535,598.6976
UncalGyro,1676597704017,34760839896073,-0.00061086525,-0.0015271631,-0.00030543262,-0.0010803987,-0.001336456,-0.00036562036
UncalAccel,1676597704022,34760844139065,-0.13579269,-0.022731815,9.781859,0.037048545,-0.031444572,0.0098014325
OrientationDeg,1676597704022,34760844139065,79.0,0.0,0.0
UncalMag,1676597704026,34760848075496,-195.993,750.26337,362.4132,550.38293,613.60535,598.6976
UncalGyro,1676597704026,34760848372900,-0.0009162979,-0.00061086525,-0.00076358154,-0.0010803987,-0.001336456,-0.00036562036
UncalAccel,1676597704030,34760852612972,-0.13579269,-0.01794617,9.7908325,0.037048545,-0.031444572,0.0098014325
OrientationDeg,1676597704031,34760852612972,79.0,0.0,0.0
UncalGyro,1676597704034,34760856859676,-0.00061086525,-0.0012217305,0.0,-0.0010803987,-0.001336456,-0.00036562036
UncalMag,1676597704036,34760858069637,-195.77339,750.4464,362.3278,550.38293,613.60535,598.6976
UncalAccel,1676597704039,34760861091874,-0.13579269,-0.022731815,9.777073,0.037048545,-0.031444572,0.0098014325
OrientationDeg,1676597704039,34760861091874,79.0,0.0,0.0
UncalGyro,1676597704043,34760865342893,-0.00045814895,-0.00015271631,-0.00030543262,-0.0010803987,-0.001336456,-0.00036562036
UncalMag,1676597704046,34760868069068,-195.98079,750.5074,361.8642,550.38293,613.60535,598.6976
UncalAccel,1676597704047,34760869579383,-0.13100705,-0.022731815,9.776475,0.037048545,-0.031444572,0.0098014325
OrientationDeg,1676597704047,34760869579383,79.0,0.0,0.0
UncalGyro,1676597704051,34760873824958,-0.00045814895,-0.0013744468,-0.00076358154,-0.0010803987,-0.001336456,-0.00036562036
UncalAccel,1676597704056,34760878057797,-0.13100705,-0.022731815,9.786046,0.037048545,-0.031444572,0.0098014325
UncalMag,1676597704056,34760878070248,-195.5904,750.1048,362.7304,550.38293,613.60535,598.6976
OrientationDeg,1676597704056,34760878057797,79.0,0.0,0.0
UncalGyro,1676597704060,34760882296872,-0.0012217305,-0.0009162979,0.0,-0.0010803987,-0.001336456,-0.00036562036
UncalAccel,1676597704064,34760886534197,-0.13100705,-0.01794617,9.776475,0.037048545,-0.031444572,0.0098014325
UncalMag,1676597704067,34760888064877,-195.77339,750.422,361.83978,550.38293,613.60535,598.6976
OrientationDeg,1676597704064,34760886534197,79.0,0.0,0.0
UncalGyro,1676597704068,34760890775337,-0.0013744468,-0.00045814895,-0.00061086525,-0.0010803987,-0.001336456,-0.00036562036
UncalAccel,1676597704073,34760895014086,-0.13100705,-0.01794617,9.776475,0.037048545,-0.031444572,0.0098014325
OrientationDeg,1676597704073,34760895014086,79.0,0.0,0.0
UncalMag,1676597704077,34760898075498,-195.77339,750.544,362.9622,550.38293,613.60535,598.6976
UncalGyro,1676597704077,34760899253781,-0.0013744468,-0.00045814895,0.0,-0.0010803987,-0.001336456,-0.00036562036
UncalAccel,1676597704081,34760903491239,-0.13100705,-0.013160525,9.776475,0.037048545,-0.031444572,0.0098014325
OrientationDeg,1676597704081,34760903491239,79.0,0.0,0.0
UncalGyro,1676597704085,34760907729225,-0.0010690142,-0.0012217305,-0.0010690142,-0.0010803987,-0.001336456,-0.00036562036
UncalMag,1676597704086,34760908065610,-195.6514,750.78796,362.1692,550.38293,613.60535,598.6976
UncalAccel,1676597704089,34760911971972,-0.13100705,-0.01794617,9.776475,0.037048545,-0.031444572,0.0098014325
UncalGyro,1676597704094,34760916213305,-0.0013744468,-0.0009162979,0.0,-0.0010803987,-0.001336456,-0.00036562036
OrientationDeg,1676597704089,34760911971972,79.0,0.0,0.0
UncalMag,1676597704096,34760918075335,-196.0052,750.0194,362.9622,550.38293,613.60535,598.6976
UncalAccel,1676597704098,34760920449450,-0.13100705,-0.022731815,9.7812605,0.037048545,-0.031444572,0.0098014325
OrientationDeg,1676597704099,34760920449450,79.0,0.0,0.0
UncalGyro,1676597704102,34760924688383,-0.0016798794,-0.0012217305,-0.00061086525,-0.0010803987,-0.001336456,-0.00036562036
UncalMag,1676597704106,34760928075295,-195.5782,750.178,362.1448,550.38293,613.60535,598.6976
UncalAccel,1676597704106,34760928925107,-0.13579269,-0.022731815,9.776475,0.037048545,-0.031444572,0.0098014325
OrientationDeg,1676597704106,34760928925107,79.0,0.0,0.0
UncalGyro,1676597704111,34760933167652,-0.0010690142,-0.0013744468,-0.0015271631,-0.0010803987,-0.001336456,-0.00036562036
UncalAccel,1676597704115,34760937405984,-0.13579269,-0.01794617,9.776475,0.037048545,-0.031444572,0.0098014325
UncalMag,1676597704116,34760938069558,-195.8954,750.2756,362.6572,550.38293,613.60535,598.6976
OrientationDeg,1676597704115,34760937405984,79.0,0.0,0.0
UncalGyro,1676597704119,34760941647653,-0.00061086525,-0.0009162979,-0.00015271631,-0.0010803987,-0.001336456,-0.00036562036
UncalAccel,1676597704123,34760945880848,-0.13100705,-0.022731815,9.777073,0.037048545,-0.031444572,0.0098014325
OrientationDeg,1676597704123,34760945880848,79.0,0.0,0.0
UncalMag,1676597704126,34760948075540,-195.4684,750.2756,362.401,550.38293,613.60535,598.6976
UncalGyro,1676597704128,34760950106799,-0.00015271631,-0.0015271631,0.00015271631,-0.0010803987,-0.001336456,-0.00036562036
UncalAccel,1676597704132,34760954362364,-0.14057833,-0.01794617,9.776475,0.037048545,-0.031444572,0.0098014325
OrientationDeg,1676597704132,34760954362364,79.0,0.0,0.0
UncalMag,1676597704136,34760958075540,-195.3098,749.5924,362.7182,550.38293,613.60535,598.6976
UncalGyro,1676597704136,34760958602578,-0.00015271631,-0.0027488936,-0.00061086525,-0.0010803987,-0.001336456,-0.00036562036
UncalAccel,1676597704140,34760962844431,-0.13579269,-0.022731815,9.7812605,0.037048545,-0.031444572,0.0098014325
OrientationDeg,1676597704140,34760962844431,79.0,0.0,0.0
UncalGyro,1676597704145,34760967077596,-0.00015271631,-0.00076358154,0.00030543262,-0.0010803987,-0.001336456,-0.00036562036
UncalMag,1676597704146,34760968065001,-195.5904,750.03156,363.194,550.38293,613.60535,598.6976
UncalAccel,1676597704149,34760971318989,-0.12622139,-0.022731815,9.777073,0.037048545,-0.031444572,0.0098014325
OrientationDeg,1676597704149,34760971318989,79.0,0.0,0.0
UncalGyro,1676597704153,34760975559692,-0.0012217305,-0.0012217305,-0.00061086525,-0.0010803987,-0.001336456,-0.00036562036
UncalMag,1676597704156,34760978075337,-195.8954,750.2756,362.6572,550.38293,613.60535,598.6976
UncalAccel,1676597704157,34760979797922,-0.13100705,-0.022731815,9.786645,0.037048545,-0.031444572,0.0098014325
OrientationDeg,1676597704157,34760979797922,79.0,0.0,0.0
UncalGyro,1676597704162,34760984030945,-0.00061086525,-0.0013744468,-0.00076358154,-0.0010803987,-0.001336456,-0.00036562036
UncalMag,1676597704166,34760988076151,-195.98079,750.5196,362.2302,550.38293,613.60535,598.6976
UncalAccel,1676597704166,34760988275217,-0.13579269,-0.01794617,9.776475,0.037048545,-0.031444572,0.0098014325
OrientationDeg,1676597704166,34760988275217,79.0,0.0,0.0
UncalGyro,1676597704170,34760992511820,-0.0012217305,-0.0016798794,0.0,-0.0010803987,-0.001336456,-0.00036562036
UncalAccel,1676597704174,34760996756296,-0.13579269,-0.01794617,9.7812605,0.037048545,-0.031444572,0.0098014325
UncalMag,1676597704176,34760998060648,-195.993,750.2756,362.6572,550.38293,613.60535,598.6976
OrientationDeg,1676597704174,34760996756296,79.0,0.0,0.0
UncalGyro,1676597704178,34761000991913,-0.0010690142,-0.0016798794,-0.00061086525,-0.0010803987,-0.001336456,-0.00036562036
UncalAccel,1676597704183,34761005223592,-0.14057833,-0.022731815,9.776475,0.037048545,-0.031444572,0.0098014325
UncalMag,1676597704186,34761008075297,-196.1028,750.178,362.3888,550.38293,613.60535,598.6976
UncalGyro,1676597704188,34761009474212,-0.00061086525,-0.0009162979,-0.00045814895,-0.0010803987,-0.001336456,-0.00036562036
OrientationDeg,1676597704183,34761005223592,79.0,0.0,0.0
UncalAccel,1676597704191,34761013712576,-0.13100705,-0.01794617,9.7812605,0.037048545,-0.031444572,0.0098014325
OrientationDeg,1676597704192,34761013712576,79.0,0.0,0.0
UncalGyro,1676597704195,34761017954173,-0.0012217305,-0.0015271631,0.0,-0.0010803987,-0.001336456,-0.00036562036
UncalMag,1676597704197,34761018084249,-196.0052,750.0926,362.6206,550.38293,613.60535,598.6976
UncalAccel,1676597704200,34761022189301,-0.12622139,-0.013160525,9.776475,0.037048545,-0.031444572,0.0098014325
OrientationDeg,1676597704200,34761022189301,79.0,0.0,0.0
UncalGyro,1676597704204,34761026429668,-0.00061086525,-0.0016798794,-0.00030543262,-0.0010803987,-0.001336456,-0.00036562036
UncalMag,1676597704206,34761028075338,-196.0052,750.0926,362.6206,550.38293,613.60535,598.6976
UncalAccel,1676597704208,34761030667481,-0.13100705,-0.01794617,9.786046,0.037048545,-0.031444572,0.0098014325
OrientationDeg,1676597704208,34761030667481,79.0,0.0,0.0
UncalGyro,1676597704212,34761034907949,-0.0012217305,-0.0009162979,-0.00076358154,-0.0010803987,-0.001336456,-0.00036562036
UncalMag,1676597704216,34761038075460,-195.98079,750.4464,362.8158,550.38293,613.60535,598.6976
UncalAccel,1676597704217,34761039156993,-0.13579269,-0.022731815,9.776475,0.037048545,-0.031444572,0.0098014325
OrientationDeg,1676597704217,34761039156993,79.0,0.0,0.0
UncalGyro,1676597704221,34761043384380,-0.00030543262,-0.001985312,-0.00045814895,-0.0010803987,-0.001336456,-0.00036562036
UncalAccel,1676597704225,34761047616314,-0.13579269,-0.022731815,9.786046,0.037048545,-0.031444572,0.0098014325
OrientationDeg,1676597704225,34761047616314,79.0,0.0,0.0
UncalMag,1676597704226,34761048077943,-196.0174,749.8974,361.83978,550.38293,613.60535,598.6976
UncalGyro,1676597704229,34761051862671,-0.00045814895,-0.00076358154,-0.00045814895,-0.0010803987,-0.001336456,-0.00036562036
UncalAccel,1676597704234,34761056103446,-0.12622139,-0.01794617,9.781859,0.037048545,-0.031444572,0.0098014325
UncalMag,1676597704236,34761058064637,-196.0174,749.8974,361.83978,550.38293,613.60535,598.6976
OrientationDeg,1676597704234,34761056103446,79.0,0.0,0.0
UncalGyro,1676597704238,34761060345664,-0.0015271631,-0.0012217305,0.00030543262,-0.0010803987,-0.001336456,-0.00036562036
UncalAccel,1676597704242,34761064581881,-0.13100705,-0.013160525,9.776475,0.037048545,-0.031444572,0.0098014325
OrientationDeg,1676597704242,34761064581881,79.0,0.0,0.0
UncalMag,1676597704246,34761068080181,-195.3586,750.3854,362.9134,550.38293,613.60535,598.6976
UncalGyro,1676597704246,34761068819226,-0.00030543262,-0.0016798794,0.00015271631,-0.0010803987,-0.001336456,-0.00036562036
UncalAccel,1676597704251,34761073049918,-0.13579269,-0.01794617,9.7812605,0.037048545,-0.031444572,0.0098014325
OrientationDeg,1676597704251,34761073049918,79.0,0.0,0.0
UncalGyro,1676597704255,34761077301556,-0.0012217305,-0.0016798794,-0.00030543262,-0.0010803987,-0.001336456,-0.00036562036
UncalMag,1676597704256,34761078076357,-195.9076,750.0194,363.0842,550.38293,613.60535,598.6976
UncalAccel,1676597704259,34761081539695,-0.13579269,-0.01794617,9.776475,0.037048545,-0.031444572,0.0098014325
OrientationDeg,1676597704259,34761081539695,79.0,0.0,0.0
UncalGyro,1676597704263,34761085781435,-0.00061086525,-0.0013744468,-0.00045814895,-0.0010803987,-0.001336456,-0.00036562036
UncalMag,1676597704266,34761088075340,-195.98079,750.45856,362.9378,550.38293,613.60535,598.6976
UncalAccel,1676597704268,34761090014172,-0.12622139,-0.008374879,9.776475,0.037048545,-0.031444572,0.0098014325
OrientationDeg,1676597704268,34761090014172,79.0,0.0,0.0
UncalGyro,1676597704272,34761094245556,-0.00045814895,-0.0016798794,-0.00045814895,-0.0010803987,-0.001336456,-0.00036562036
UncalMag,1676597704276,34761098075299,-195.48059,750.1048,362.4864,550.38293,613.60535,598.6976
UncalAccel,1676597704276,34761098489819,-0.13100705,-0.022731815,9.781859,0.037048545,-0.031444572,0.0098014325
OrientationDeg,1676597704276,34761098489819,79.0,0.0,0.0
UncalGyro,1676597704280,34761102725446,-0.0009162979,-0.0016798794,-0.00076358154,-0.0010803987,-0.001336456,-0.00036562036
UncalAccel,1676597704284,34761106976556,-0.13100705,-0.013160525,9.772287,0.037048545,-0.031444572,0.0098014325
UncalMag,1676597704286,34761108065086,-195.749,750.78796,362.2912,550.38293,613.60535,598.6976
OrientationDeg,1676597704284,34761106976556,79.0,0.0,0.0
UncalGyro,1676597704289,34761111215009,-0.0010690142,-0.00061086525,-0.00076358154,-0.0010803987,-0.001336456,-0.00036562036
UncalAccel,1676597704293,34761115456119,-0.13100705,-0.022731815,9.772287,0.037048545,-0.031444572,0.0098014325
OrientationDeg,1676597704293,34761115456119,79.0,0.0,0.0
UncalMag,1676597704296,34761118075422,-196.2248,749.8974,361.974,550.38293,613.60535,598.6976
UncalGyro,1676597704297,34761119692538,-0.0013744468,-0.0015271631,-0.00076358154,-0.0010803987,-0.001336456,-0.00036562036
UncalAccel,1676597704301,34761123928104,-0.13579269,-0.02751746,9.777073,0.037048545,-0.031444572,0.0098014325
OrientationDeg,1676597704301,34761123928104,79.0,0.0,0.0
UncalMag,1676597704306,34761128075544,-196.2858,750.6172,362.6206,550.38293,613.60535,598.6976
UncalGyro,1676597704306,34761128159152,-0.00061086525,-0.0016798794,-0.00076358154,-0.0010803987,-0.001336456,-0.00036562036
UncalAccel,1676597704310,34761132405154,-0.13579269,-0.01794617,9.786046,0.037048545,-0.031444572,0.0098014325
OrientationDeg,1676597704310,34761132405154,79.0,0.0,0.0
UncalGyro,1676597704314,34761136649305,-0.0012217305,-0.0016798794,-0.00076358154,-0.0010803987,-0.001336456,-0.00036562036
UncalMag,1676597704316,34761138075341,-195.98079,750.5074,361.8642,550.38293,613.60535,598.6976
UncalAccel,1676597704318,34761140890211,-0.13100705,-0.01794617,9.777073,0.037048545,-0.031444572,0.0098014325
OrientationDeg,1676597704318,34761140890211,79.0,0.0,0.0
UncalGyro,1676597704323,34761145132613,-0.0013744468,-0.0016798794,0.0,-0.0010803987,-0.001336456,-0.00036562036
UncalMag,1676597704326,34761148075463,-195.34639,750.6294,362.6084,550.38293,613.60535,598.6976
UncalAccel,1676597704327,34761149377445,-0.12622139,-0.01794617,9.772287,0.037048545,-0.031444572,0.0098014325
OrientationDeg,1676597704327,34761149377445,79.0,0.0,0.0
UncalGyro,1676597704331,34761153606337,-0.0013744468,-0.0012217305,-0.0009162979,-0.0010803987,-0.001336456,-0.00036562036
UncalAccel,1676597704335,34761157844058,-0.13100705,-0.01794617,9.772287,0.037048545,-0.031444572,0.0098014325
UncalMag,1676597704336,34761158067244,-195.66359,750.5318,362.2302,550.38293,613.60535,598.6976
OrientationDeg,1676597704335,34761157844058,79.0,0.0,0.0
UncalGyro,1676597704340,34761162080763,-0.0009162979,-0.0009162979,-0.00076358154,-0.0010803987,-0.001336456,-0.00036562036
UncalAccel,1676597704344,34761166319320,-0.12622139,-0.022731815,9.777073,0.037048545,-0.031444572,0.0098014325
UncalMag,1676597704346,34761168064884,-195.7856,750.178,362.26678,550.38293,613.60535,598.6976
OrientationDeg,1676597704344,34761166319320,79.0,0.0,0.0
UncalGyro,1676597704348,34761170562972,-0.0013744468,-0.0015271631,-0.00045814895,-0.0010803987,-0.001336456,-0.00036562036
UncalAccel,1676597704352,34761174801030,-0.13579269,-0.022731815,9.786046,0.037048545,-0.031444572,0.0098014325
OrientationDeg,1676597704352,34761174801030,79.0,0.0,0.0
UncalMag,1676597704356,34761178064885,-196.40779,750.3366,362.1936,550.38293,613.60535,598.6976
UncalGyro,1676597704357,34761179042312,-0.00061086525,-0.0016798794,-0.00045814895,-0.0010803987,-0.001336456,-0.00036562036
UncalAccel,1676597704361,34761183280278,-0.13100705,-0.01794617,9.786046,0.037048545,-0.031444572,0.0098014325
OrientationDeg,1676597704361,34761183280278,79.0,0.0,0.0
UncalGyro,1676597704365,34761187519679,-0.0012217305,-0.0016798794,-0.00045814895,-0.0010803987,-0.001336456,-0.00036562036
UncalMag,1676597704366,34761188064600,-196.3102,750.1658,362.401,550.38293,613.60535,598.6976
UncalAccel,1676597704369,34761191758112,-0.14057833,-0.01794617,9.771689,0.037048545,-0.031444572,0.0098014325
OrientationDeg,1676597704369,34761191758112,79.0,0.0,0.0
UncalGyro,1676597704373,34761195998092,-0.0013744468,-0.0013744468,-0.00076358154,-0.0010803987,-0.001336456,-0.00036562036
UncalMag,1676597704376,34761198075302,-196.11499,749.995,362.2302,550.38293,613.60535,598.6976
UncalAccel,1676597704378,34761200235275,-0.14057833,-0.01794617,9.7812605,0.037048545,-0.031444572,0.0098014325
OrientationDeg,1676597704378,34761200235275,79.0,0.0,0.0
UncalGyro,1676597704382,34761204471634,-0.0013744468,-0.0016798794,-0.00076358154,-0.0010803987,-0.001336456,-0.00036562036
UncalMag,1676597704386,34761208075302,-195.7002,749.9828,361.608,550.38293,613.60535,598.6976
UncalAccel,1676597704386,34761208714899,-0.14057833,-0.013160525,9.776475,0.037048545,-0.031444572,0.0098014325
OrientationDeg,1676597704387,34761208714899,79.0,0.0,0.0
UncalGyro,1676597704390,34761212956284,-0.0013744468,-0.0016798794,-0.00045814895,-0.0010803987,-0.001336456,-0.00036562036
UncalAccel,1676597704395,34761217195308,-0.14057833,-0.01794617,9.776475,0.037048545,-0.031444572,0.0098014325
UncalMag,1676597704396,34761218065048,-195.8954,750.1902,362.7548,550.38293,613.60535,598.6976
OrientationDeg,1676597704395,34761217195308,79.0,0.0,0.0
UncalGyro,1676597704399,34761221432388,-0.0021380284,-0.002443461,0.00030543262,-0.0010803987,-0.001336456,-0.00036562036
UncalAccel,1676597704403,34761225668076,-0.12622139,-0.008374879,9.786046,0.037048545,-0.031444572,0.0098014325
OrientationDeg,1676597704403,34761225668076,79.0,0.0,0.0
UncalMag,1676597704406,34761228075465,-195.7002,749.9096,361.9618,550.38293,613.60535,598.6976
UncalGyro,1676597704407,34761229911433,-0.0022907446,-0.0021380284,0.00045814895,-0.0010803987,-0.001336456,-0.00036562036
UncalAccel,1676597704412,34761234147528,-0.13100705,-0.013160525,9.776475,0.037048545,-0.031444572,0.0098014325
OrientationDeg,1676597704412,34761234147528,79.0,0.0,0.0
UncalMag,1676597704416,34761238075465,-195.3586,750.3488,362.0594,550.38293,613.60535,598.6976
UncalGyro,1676597704416,34761238377559,-0.0015271631,-0.0013744468,0.00045814895,-0.0010803987,-0.001336456,-0.00036562036
UncalAccel,1676597704420,34761242617692,-0.13100705,-0.022731815,9.781859,0.037048545,-0.031444572,0.0098014325
OrientationDeg,1676597704420,34761242617692,79.0,0.0,0.0
UncalGyro,1676597704424,34761246868862,-0.002443461,-0.0027488936,-0.00030543262,-0.0010803987,-0.001336456,-0.00036562036
UncalMag,1676597704427,34761248085272,-195.3708,750.2024,362.9866,550.38293,613.60535,598.6976
UncalAccel,1676597704429,34761251110642,-0.12622139,-0.02751746,9.777073,0.037048545,-0.031444572,0.0098014325
OrientationDeg,1676597704429,34761251110642,79.0,0.0,0.0
UncalGyro,1676597704433,34761255349870,-0.00076358154,-0.0021380284,0.00030543262,-0.0010803987,-0.001336456,-0.00036562036
UncalMag,1676597704437,34761258075466,-195.77339,750.4464,362.5718,550.38293,613.60535,598.6976
UncalAccel,1676597704437,34761259584855,-0.13100705,-0.022731815,9.781859,0.037048545,-0.031444572,0.0098014325
OrientationDeg,1676597704437,34761259584855,79.0,0.0,0.0
UncalGyro,1676597704441,34761263823015,-0.0012217305,-0.0016798794,0.00015271631,-0.0010803987,-0.001336456,-0.00036562036
UncalAccel,1676597704446,34761268060828,-0.13100705,-0.01794617,9.786046,0.037048545,-0.031444572,0.0098014325
OrientationDeg,1676597704446,34761268060828,79.0,0.0,0.0
UncalMag,1676597704446,34761268066636,-195.95639,750.9466,361.974,550.38293,613.60535,598.6976
UncalGyro,1676597704450,34761272293393,-0.0010690142,-0.0016798794,-0.00061086525,-0.0010803987,-0.001336456,-0.00036562036
UncalAccel,1676597704454,34761276542630,-0.12622139,-0.01794617,9.786046,0.037048545,-0.031444572,0.0098014325
UncalMag,1676597704456,34761278066759,-195.48059,750.1902,362.6206,550.38293,613.60535,598.6976
OrientationDeg,1676597704454,34761276542630,79.0,0.0,0.0
UncalGyro,1676597704458,34761280782609,-0.0013744468,-0.0016798794,-0.00015271631,-0.0010803987,-0.001336456,-0.00036562036
UncalAccel,1676597704463,34761285020749,-0.13100705,-0.01794617,9.776475,0.037048545,-0.031444572,0.0098014325
OrientationDeg,1676597704463,34761285020749,79.0,0.0,0.0
UncalMag,1676597704466,34761288075467,-195.8832,750.3366,361.8276,550.38293,613.60535,598.6976
UncalGyro,1676597704467,34761289264035,-0.0013744468,-0.00061086525,-0.00045814895,-0.0010803987,-0.001336456,-0.00036562036
UncalAccel,1676597704471,34761293512093,-0.13579269,-0.022731815,9.7812605,0.037048545,-0.031444572,0.0098014325
OrientationDeg,1676597704471,34761293512093,79.0,0.0,0.0
UncalGyro,1676597704475,34761297737830,-0.00030543262,-0.00045814895,-0.00076358154,-0.0010803987,-0.001336456,-0.00036562036
UncalMag,1676597704476,34761298080553,-195.45619,750.45856,362.8158,550.38293,613.60535,598.6976
UncalAccel,1676597704479,34761301969876,-0.12622139,-0.01794617,9.7812605,0.037048545,-0.031444572,0.0098014325
OrientationDeg,1676597704479,34761301969876,79.0,0.0,0.0
UncalGyro,1676597704484,34761306214159,-0.00015271631,-0.00045814895,-0.00045814895,-0.0010803987,-0.001336456,-0.00036562036
UncalMag,1676597704486,34761308075467,-196.11499,750.0682,361.6446,550.38293,613.60535,598.6976
UncalAccel,1676597704488,34761310455767,-0.13579269,-0.02751746,9.776475,0.037048545,-0.031444572,0.0098014325
OrientationDeg,1676597704488,34761310455767,79.0,0.0,0.0
UncalGyro,1676597704492,34761314695503,-0.00015271631,0.00030543262,-0.00076358154,-0.0010803987,-0.001336456,-0.00036562036
UncalMag,1676597704496,34761318075305,-195.871,750.544,362.84018,550.38293,613.60535,598.6976
UncalAccel,1676597704496,34761318922066,-0.13579269,-0.022731815,9.7812605,0.037048545,-0.031444572,0.0098014325
OrientationDeg,1676597704496,34761318922066,79.0,0.0,0.0
UncalGyro,1676597704501,34761323164345,-0.00015271631,-0.00030543262,-0.00045814895,-0.0010803987,-0.001336456,-0.00036562036
UncalAccel,1676597704505,34761327413380,-0.14057833,-0.022731815,9.771689,0.037048545,-0.031444572,0.0098014325
UncalMag,1676597704506,34761328074166,-196.3956,750.5196,362.4864,550.38293,613.60535,598.6976
OrientationDeg,1676597704505,34761327413380,79.0,0.0,0.0
UncalGyro,1676597704509,34761331654905,-0.0012217305,-0.0022907446,0.00030543262,-0.0010803987,-0.001336456,-0.00036562036
UncalAccel,1676597704513,34761335893655,-0.12622139,-0.008374879,9.786046,0.037048545,-0.031444572,0.0098014325
OrientationDeg,1676597704513,34761335893655,79.0,0.0,0.0
UncalMag,1676597704516,34761338075590,-196.176,750.77576,362.0594,550.38293,613.60535,598.6976
UncalGyro,1676597704518,34761340130776,-0.00061086525,-0.0018325958,0.00015271631,-0.0010803987,-0.001336456,-0.00036562036
UncalAccel,1676597704522,34761344370268,-0.13100705,-0.022731815,9.786645,0.037048545,-0.031444572,0.0098014325
OrientationDeg,1676597704522,34761344370268,79.0,0.0,0.0
UncalMag,1676597704526,34761348075428,-195.48059,750.1658,361.7666,550.38293,613.60535,598.6976
UncalGyro,1676597704526,34761348615496,-0.00045814895,-0.0013744468,-0.00061086525,-0.0010803987,-0.001336456,-0.00036562036
UncalAccel,1676597704530,34761352855447,-0.13100705,-0.013160525,9.772287,0.037048545,-0.031444572,0.0098014325
OrientationDeg,1676597704530,34761352855447,79.0,0.0,0.0
UncalGyro,1676597704535,34761357084665,-0.0012217305,-0.0016798794,-0.00045814895,-0.0010803987,-0.001336456,-0.00036562036
UncalMag,1676597704536,34761358067493,-196.0662,750.78796,362.4132,550.38293,613.60535,598.6976
UncalAccel,1676597704539,34761361325316,-0.12143575,-0.022731815,9.777073,0.037048545,-0.031444572,0.0098014325
OrientationDeg,1676597704539,34761361325316,79.0,0.0,0.0
UncalGyro,1676597704543,34761365564229,-0.00030543262,-0.00061086525,0.0,-0.0010803987,-0.001336456,-0.00036562036
UncalMag,1676597704547,34761368075509,-195.3586,750.4464,362.0716,550.38293,613.60535,598.6976
UncalAccel,1676597704547,34761369805154,-0.13100705,-0.013160525,9.772287,0.037048545,-0.031444572,0.0098014325
OrientationDeg,1676597704547,34761369805154,79.0,0.0,0.0
UncalGyro,1676597704552,34761374044860,-0.0012217305,-0.0015271631,-0.00030543262,-0.0010803987,-0.001336456,-0.00036562036
UncalMag,1676597704556,34761378061472,-195.4318,750.88556,362.5474,550.38293,613.60535,598.6976
UncalAccel,1676597704556,34761378282307,-0.13100705,-0.013160525,9.777073,0.037048545,-0.031444572,0.0098014325
OrientationDeg,1676597704556,34761378282307,79.0,0.0,0.0
UncalGyro,1676597704560,34761382520426,-0.0013744468,-0.001985312,0.00061086525,-0.0010803987,-0.001336456,-0.00036562036
UncalAccel,1676597704564,34761386762461,-0.13100705,-0.01794617,9.781859,0.037048545,-0.031444572,0.0098014325
UncalMag,1676597704566,34761388064768,-195.77339,750.45856,362.9378,550.38293,613.60535,598.6976
OrientationDeg,1676597704564,34761386762461,79.0,0.0,0.0
UncalGyro,1676597704569,34761391001474,-0.00061086525,-0.0009162979,0.00015271631,-0.0010803987,-0.001336456,-0.00036562036
UncalAccel,1676597704573,34761395240631,-0.13100705,-0.013160525,9.777073,0.037048545,-0.031444572,0.0098014325
OrientationDeg,1676597704573,34761395240631,79.0,0.0,0.0
UncalMag,1676597704576,34761398075266,-196.0052,750.178,362.5108,550.38293,613.60535,598.6976
UncalGyro,1676597704577,34761399479593,-0.0012217305,-0.0015271631,-0.0013744468,-0.0010803987,-0.001336456,-0.00036562036
UncalAccel,1676597704581,34761403718241,-0.13100705,-0.01794617,9.777073,0.037048545,-0.031444572,0.0098014325
OrientationDeg,1676597704581,34761403718241,79.0,0.0,0.0
UncalGyro,1676597704585,34761407958465,-0.00061086525,-0.0013744468,-0.00061086525,-0.0010803987,-0.001336456,-0.00036562036
UncalMag,1676597704586,34761408064646,-196.2248,749.82416,362.31558,550.38293,613.60535,598.6976
UncalAccel,1676597704590,34761412194356,-0.13100705,-0.01794617,9.772287,0.037048545,-0.031444572,0.0098014325
OrientationDeg,1676597704590,34761412194356,79.0,0.0,0.0
UncalGyro,1676597704594,34761416427633,-0.00015271631,-0.0009162979,0.0,-0.0010803987,-0.001336456,-0.00036562036
UncalMag,1676597704596,34761418075389,-196.0784,750.5318,362.47418,550.38293,613.60535,598.6976
UncalAccel,1676597704598,34761420675812,-0.13100705,-0.013160525,9.777073,0.037048545,-0.031444572,0.0098014325
OrientationDeg,1676597704599,34761420675812,79.0,0.0,0.0
UncalGyro,1676597704602,34761424915192,-0.0012217305,-0.0015271631,-0.00030543262,-0.0010803987,-0.001336456,-0.00036562036
UncalMag,1676597704606,34761428075348,-195.5904,750.1048,362.4864,550.38293,613.60535,598.6976
UncalAccel,1676597704607,34761429155935,-0.13579269,-0.01794617,9.777073,0.037048545,-0.031444572,0.0098014325
OrientationDeg,1676597704607,34761429155935,79.0,0.0,0.0
UncalGyro,1676597704611,34761433390941,-0.0013744468,-0.0009162979,-0.00045814895,-0.0010803987,-0.001336456,-0.00036562036
UncalAccel,1676597704615,34761437621156,-0.13579269,-0.013160525,9.7908325,0.037048545,-0.031444572,0.0098014325
UncalMag,1676597704616,34761438083649,-195.66359,750.6294,362.6084,550.38293,613.60535,598.6976
OrientationDeg,1676597704615,34761437621156,79.0,0.0,0.0
UncalGyro,1676597704619,34761441871980,-0.00030543262,-0.00045814895,-0.00045814895,-0.0010803987,-0.001336456,-0.00036562036
UncalAccel,1676597704624,34761446111655,-0.13579269,-0.013160525,9.771689,0.037048545,-0.031444572,0.0098014325
UncalMag,1676597704626,34761448075471,-195.8954,750.1658,361.77878,550.38293,613.60535,598.6976
OrientationDeg,1676597704624,34761446111655,79.0,0.0,0.0
UncalGyro,1676597704628,34761450359223,-0.0009162979,-0.0015271631,-0.00076358154,-0.0010803987,-0.001336456,-0.00036562036
UncalAccel,1676597704632,34761454589794,-0.12622139,-0.022731815,9.777073,0.037048545,-0.031444572,0.0098014325
OrientationDeg,1676597704632,34761454589794,79.0,0.0,0.0
UncalMag,1676597704636,34761458075512,-195.688,750.0926,362.36438,550.38293,613.60535,598.6976
UncalGyro,1676597704636,34761458828696,-0.0013744468,-0.0016798794,-0.00045814895,-0.0010803987,-0.001336456,-0.00036562036
UncalAccel,1676597704641,34761463065512,-0.13100705,-0.022731815,9.777073,0.037048545,-0.031444572,0.0098014325
OrientationDeg,1676597704641,34761463065512,79.0,0.0,0.0
UncalGyro,1676597704645,34761467304110,-0.00061086525,-0.00061086525,-0.00076358154,-0.0010803987,-0.001336456,-0.00036562036
UncalMag,1676597704646,34761468064892,-195.2244,750.88556,362.1814,550.38293,613.60535,598.6976
UncalAccel,1676597704649,34761471534578,-0.13100705,-0.013160525,9.781859,0.037048545,-0.031444572,0.0098014325
OrientationDeg,1676597704649,34761471534578,79.0,0.0,0.0
UncalGyro,1676597704653,34761475785942,-0.00015271631,-0.0015271631,-0.00076358154,-0.0010803987,-0.001336456,-0.00036562036
UncalMag,1676597704656,34761478088085,-196.09059,750.3488,362.4376,550.38293,613.60535,598.6976
UncalAccel,1676597704658,34761480023438,-0.13100705,-0.022731815,9.777073,0.037048545,-0.031444572,0.0098014325
OrientationDeg,1676597704658,34761480023438,79.0,0.0,0.0
UncalGyro,1676597704662,34761484264141,-0.00045814895,-0.0013744468,-0.00076358154,-0.0010803987,-0.001336456,-0.00036562036
UncalMag,1676597704666,34761488075309,-196.2004,750.3366,362.1936,550.38293,613.60535,598.6976
UncalAccel,1676597704666,34761488497407,-0.13100705,-0.01794617,9.7908325,0.037048545,-0.031444572,0.0098014325
OrientationDeg,1676597704666,34761488497407,79.0,0.0,0.0
UncalGyro,1676597704670,34761492731946,-0.0009162979,-0.0009162979,-0.00076358154,-0.0010803987,-0.001336456,-0.00036562036
UncalAccel,1676597704674,34761496981245,-0.12622139,-0.022731815,9.781859,0.037048545,-0.031444572,0.0098014325
UncalMag,1676597704676,34761498065096,-195.66359,750.6172,362.4864,550.38293,613.60535,598.6976
OrientationDeg,1676597704674,34761496981245,79.0,0.0,0.0
UncalGyro,1676597704679,34761501221356,-0.00030543262,-0.0022907446,-0.00076358154,-0.0010803987,-0.001336456,-0.00036562036
UncalAccel,1676597704683,34761505461754,-0.13100705,-0.022731815,9.777073,0.037048545,-0.031444572,0.0098014325
OrientationDeg,1676597704683,34761505461754,79.0,0.0,0.0
UncalMag,1676597704686,34761508075635,-195.98079,750.5196,362.2302,550.38293,613.60535,598.6976
UncalGyro,1676597704687,34761509699302,-0.00045814895,-0.0018325958,-0.00015271631,-0.0010803987,-0.001336456,-0.00036562036
UncalAccel,1676597704691,34761513937716,-0.13100705,-0.01794617,9.776475,0.037048545,-0.031444572,0.0098014325
OrientationDeg,1676597704691,34761513937716,79.0,0.0,0.0
UncalMag,1676597704696,34761518075310,-196.2858,750.7148,362.889,550.38293,613.60535,598.6976
UncalGyro,1676597704696,34761518178153,-0.00045814895,-0.0016798794,-0.00015271631,-0.0010803987,-0.001336456,-0.00036562036
UncalAccel,1676597704700,34761522413119,-0.13100705,-0.01794617,9.786046,0.037048545,-0.031444572,0.0098014325
OrientationDeg,1676597704700,34761522413119,79.0,0.0,0.0
UncalGyro,1676597704704,34761526641025,-0.00045814895,-0.0013744468,-0.00061086525,-0.0010803987,-0.001336456,-0.00036562036
UncalMag,1676597704706,34761528075351,-196.09059,750.4342,362.462,550.38293,613.60535,598.6976
UncalAccel,1676597704708,34761530894513,-0.13100705,-0.022731815,9.781859,0.037048545,-0.031444572,0.0098014325
OrientationDeg,1676597704708,34761530894513,79.0,0.0,0.0
UncalGyro,1676597704713,34761535134484,-0.00015271631,-0.0013744468,0.0,-0.0010803987,-0.001336456,-0.00036562036
UncalMag,1676597704716,34761538075351,-195.98079,750.5196,361.9862,550.38293,613.60535,598.6976
UncalAccel,1676597704717,34761539376437,-0.13100705,-0.01794617,9.7908325,0.037048545,-0.031444572,0.0098014325
OrientationDeg,1676597704717,34761539376437,79.0,0.0,0.0
UncalGyro,1676597704721,34761543612054,-0.0012217305,-0.0016798794,-0.00061086525,-0.0010803987,-0.001336456,-0.00036562036
UncalAccel,1676597704725,34761547848045,-0.13100705,-0.013160525,9.786046,0.037048545,-0.031444572,0.0098014325
UncalMag,1676597704726,34761548059156,-195.77339,750.4342,362.20578,550.38293,613.60535,598.6976
OrientationDeg,1676597704725,34761547848045,79.0,0.0,0.0
UncalGyro,1676597704730,34761552092889,-0.0009162979,-0.00061086525,-0.00076358154,-0.0010803987,-0.001336456,-0.00036562036
UncalAccel,1676597704734,34761556328221,-0.13579269,-0.008374879,9.776475,0.037048545,-0.031444572,0.0098014325
UncalMag,1676597704736,34761558075433,-195.77339,750.4342,362.20578,550.38293,613.60535,598.6976
OrientationDeg,1676597704734,34761556328221,79.0,0.0,0.0
UncalGyro,1676597704737,34761560560164,-0.0010690142,-0.0015271631,-0.00045814895,-0.0010803987,-0.001336456,-0.00036562036
UncalAccel,1676597704742,34761564806502,-0.13100705,-0.01794617,9.781859,0.037048545,-0.031444572,0.0098014325
OrientationDeg,1676597704742,34761564806502,79.0,0.0,0.0
UncalMag,1676597704746,34761568075596,-195.5782,750.26337,361.913,550.38293,613.60535,598.6976
UncalGyro,1676597704747,34761569042921,-0.0010690142,-0.0009162979,-0.00076358154,-0.0010803987,-0.001336456,-0.00036562036
UncalAccel,1676597704751,34761573289158,-0.13579269,-0.022731815,9.7812605,0.037048545,-0.031444572,0.0098014325
OrientationDeg,1676597704751,34761573289158,79.0,0.0,0.0
UncalGyro,1676597704755,34761577526443,-0.0009162979,-0.0012217305,0.0,-0.0010803987,-0.001336456,-0.00036562036
UncalMag,1676597704756,34761578069655,-196.2004,750.3244,361.7056,550.38293,613.60535,598.6976
UncalAccel,1676597704759,34761581765842,-0.12622139,-0.022731815,9.777073,0.037048545,-0.031444572,0.0098014325
OrientationDeg,1676597704759,34761581765842,79.0,0.0,0.0
UncalGyro,1676597704764,34761586005274,-0.00061086525,-0.0016798794,-0.00061086525,-0.0010803987,-0.001336456,-0.00036562036
UncalMag,1676597704766,34761588075393,-195.66359,750.5562,363.3282,550.38293,613.60535,598.6976
UncalAccel,1676597704768,34761590244388,-0.12622139,-0.01794617,9.772287,0.037048545,-0.031444572,0.0098014325
OrientationDeg,1676597704768,34761590244388,79.0,0.0,0.0
UncalGyro,1676597704772,34761594483505,-0.00015271631,-0.0016798794,0.00030543262,-0.0010803987,-0.001336456,-0.00036562036
UncalMag,1676597704776,34761598075352,-195.8954,750.26337,362.4132,550.38293,613.60535,598.6976
UncalAccel,1676597704776,34761598721755,-0.13579269,-0.01794617,9.776475,0.037048545,-0.031444572,0.0098014325
OrientationDeg,1676597704776,34761598721755,79.0,0.0,0.0
UncalGyro,1676597704780,34761602960840,-0.0012217305,-0.0013744468,0.00015271631,-0.0010803987,-0.001336456,-0.00036562036
UncalAccel,1676597704785,34761607197007,-0.13100705,-0.013160525,9.776475,0.037048545,-0.031444572,0.0098014325
OrientationDeg,1676597704785,34761607197007,79.0,0.0,0.0
UncalMag,1676597704786,34761608064895,-196.09059,750.3488,362.1936,550.38293,613.60535,598.6976
UncalGyro,1676597704789,34761611437678,-0.00030543262,-0.0013744468,-0.00061086525,-0.0010803987,-0.001336456,-0.00036562036
UncalAccel,1676597704793,34761615667893,-0.13579269,-0.013160525,9.776475,0.037048545,-0.031444572,0.0098014325
