# 
# Header Description:
# 
# Version: v3.0.5.6 Platform: 13 Manufacturer: Google Model: Pixel 7
# 
# Raw,utcTimeMillis,TimeNanos,LeapSecond,TimeUncertaintyNanos,FullBiasNanos,BiasNanos,BiasUncertaintyNanos,DriftNanosPerSecond,DriftUncertaintyNanosPerSecond,HardwareClockDiscontinuityCount,Svid,TimeOffsetNanos,State,ReceivedSvTimeNanos,ReceivedSvTimeUncertaintyNanos,Cn0DbHz,PseudorangeRateMetersPerSecond,PseudorangeRateUncertaintyMetersPerSecond,AccumulatedDeltaRangeState,AccumulatedDeltaRangeMeters,AccumulatedDeltaRangeUncertaintyMeters,CarrierFrequencyHz,CarrierCycles,CarrierPhase,CarrierPhaseUncertainty,MultipathIndicator,SnrInDb,ConstellationType,AgcDb,BasebandCn0DbHz,FullInterSignalBiasNanos,FullInterSignalBiasUncertaintyNanos,SatelliteInterSignalBiasNanos,SatelliteInterSignalBiasUncertaintyNanos,CodeType,ChipsetElapsedRealtimeNanos
# 
# UncalAccel,utcTimeMillis,elapsedRealtimeNanos,UncalAccelXMps2,UncalAccelYMps2,UncalAccelZMps2,BiasXMps2,BiasYMps2,BiasZMps2
# 
# Accel,utcTimeMillis,elapsedRealtimeNanos,AccelXMps2,AccelYMps2,AccelZMps2
# 
# UncalGyro,utcTimeMillis,elapsedRealtimeNanos,UncalGyroXRadPerSec,UncalGyroYRadPerSec,UncalGyroZRadPerSec,DriftXRadPerSec,DriftYRadPerSec,DriftZRadPerSec
# 
# Gyro,utcTimeMillis,elapsedRealtimeNanos,GyroXRadPerSec,GyroYRadPerSec,GyroZRadPerSec
# 
# UncalMag,utcTimeMillis,elapsedRealtimeNanos,UncalMagXMicroT,UncalMagYMicroT,UncalMagZMicroT,BiasXMicroT,BiasYMicroT,BiasZMicroT
# 
# Mag,utcTimeMillis,elapsedRealtimeNanos,MagXMicroT,MagYMicroT,MagZMicroT
# 
# OrientationDeg,utcTimeMillis,elapsedRealtimeNanos,yawDeg,rollDeg,pitchDeg
# 
# Fix,Provider,LatitudeDegrees,LongitudeDegrees,AltitudeMeters,SpeedMps,AccuracyMeters,BearingDegrees,UnixTimeMillis,SpeedAccuracyMps,BearingAccuracyDegrees,elapsedRealtimeNanos,VerticalAccuracyMeters
# 
# Nav,Svid,Type,Status,MessageId,Sub-messageId,Data(Bytes)
# 
# Status,UnixTimeMillis,SignalCount,SignalIndex,ConstellationType,Svid,CarrierFrequencyHz,Cn0DbHz,AzimuthDegrees,ElevationDegrees,UsedInFix,HasAlmanacData,HasEphemerisData,BasebandCn0DbHz
# 
UncalAccel,1676593473014,30529836384924,-2.0518453,0.76331043,12.984054,0.037048545,-0.031444572,0.0098014325
UncalGyro,1676593473018,30529840620977,-0.3707952,0.023518313,0.2779437,0.00061732216,-0.0016944893,-0.00032312877
UncalGyro,1676593473027,30529849099168,-0.43799037,-0.112399206,0.22907446,0.00061732216,-0.0016944893,-0.00032312877
UncalAccel,1676593473022,30529844854813,-2.0195422,0.63888365,13.232907,0.037048545,-0.031444572,0.0098014325
UncalAccel,1676593473031,30529853334947,-1.9094725,0.46181476,13.382459,0.037048545,-0.031444572,0.0098014325
UncalGyro,1676593473035,30529857579605,-0.45372015,-0.25320363,0.17928895,0.00061732216,-0.0016944893,-0.00032312877
UncalAccel,1676593473039,30529861816687,-1.7617157,0.2757728,13.551751,0.037048545,-0.031444572,0.0098014325
OrientationDeg,1676593473022,30529844854813,43.0,6.0,-3.0
OrientationDeg,1676593473031,30529853334947,43.0,6.0,-3.0
UncalMag,1676593473022,30529844582851,-184.1102,785.3384,387.4476,-174.57417,771.0116,430.86337
UncalMag,1676593473032,30529854582730,-183.8662,785.802,388.15518,-174.57417,771.0116,430.86337
UncalMag,1676593473042,30529864582771,-184.159,786.15576,388.8628,-174.57417,771.0116,430.86337
UncalGyro,1676593473044,30529866062822,-0.41645738,-0.3651447,0.12935072,0.00061732216,-0.0016944893,-0.00032312877
UncalAccel,1676593473048,30529870299119,-1.6133606,0.10887343,13.648661,0.037048545,-0.031444572,0.0098014325
UncalGyro,1676593473052,30529874543423,-0.3399465,-0.43860126,0.08246681,0.00061732216,-0.0016944893,-0.00032312877
UncalMag,1676593473052,30529874585375,-184.14679,786.3388,388.7774,-174.57417,771.0116,430.86337
UncalAccel,1676593473056,30529878778408,-1.6115661,-0.08733802,13.606786,0.037048545,-0.031444572,0.0098014325
OrientationDeg,1676593473048,30529870299119,43.0,6.0,-3.0
OrientationDeg,1676593473056,30529878778408,43.0,6.0,-3.0
UncalGyro,1676593473061,30529883023923,-0.24113905,-0.48716503,0.03970624,0.00061732216,-0.0016944893,-0.00032312877
UncalMag,1676593473062,30529884583015,-184.7934,786.14355,388.509,-174.57417,771.0116,430.86337
UncalAccel,1676593473065,30529887259437,-1.762912,-0.3278167,13.516457,0.037048545,-0.031444572,0.0098014325
OrientationDeg,1676593473065,30529887259437,43.0,5.0,-2.0
UncalGyro,1676593473069,30529891501910,-0.12996158,-0.51893,-0.0033597588,0.00061732216,-0.0016944893,-0.00032312877
UncalMag,1676593473072,30529894583056,-184.9886,786.29,387.8136,-174.57417,771.0116,430.86337
UncalAccel,1676593473073,30529895742815,-2.0632114,-0.52163535,13.4967165,0.037048545,-0.031444572,0.0098014325
OrientationDeg,1676593473073,30529895742815,43.0,5.0,-2.0
UncalGyro,1676593473077,30529899983354,-0.011759156,-0.5308419,-0.05390886,0.00061732216,-0.0016944893,-0.00032312877
UncalAccel,1676593473082,30529904225136,-2.3868406,-0.69571316,13.399807,0.037048545,-0.031444572,0.0098014325
UncalMag,1676593473082,30529904587410,-185.1716,786.7658,389.26538,-174.57417,771.0116,430.86337
UncalGyro,1676593473086,30529908466722,0.122783914,-0.54061574,-0.118202426,0.00061732216,-0.0016944893,-0.00032312877
OrientationDeg,1676593473082,30529904225136,43.0,5.0,-2.0
Status,0,29,0,6,2,1176450050,41.30,74.0,79.0,1,1,1,37.698734
Status,0,29,1,6,2,1575420030,41.66,74.0,79.0,1,1,1,38.06476
Status,0,29,2,3,17,1604249980,41.49,279.0,74.0,1,1,1,37.893497
Status,0,29,3,1,11,1575420030,43.08,150.0,70.0,1,1,1,39.48131
Status,0,29,4,1,11,1176450050,41.83,150.0,70.0,1,1,1,38.233734
Status,0,29,5,6,36,1575420030,43.17,63.0,68.0,1,1,1,39.568695
Status,0,29,6,6,36,1176450050,39.17,63.0,68.0,1,1,1,35.566505
Status,0,29,7,3,15,1602000000,43.29,329.0,66.0,1,1,1,39.69335
Status,0,29,8,1,12,1575420030,44.86,322.0,56.0,1,1,1,41.261795
Status,0,29,9,3,14,1598062460,43.42,145.0,55.0,1,1,1,39.823063
Status,0,29,10,1,6,1176450050,40.34,54.0,52.0,1,1,1,36.743523
Status,0,29,11,1,6,1575420030,46.36,54.0,52.0,1,1,1,42.764862
Status,0,29,12,6,34,1575420030,40.96,201.0,51.0,1,1,1,37.363987
Status,0,29,13,6,34,1176450050,41.04,201.0,51.0,1,1,1,37.44302
Status,0,29,14,1,24,1575420030,41.55,226.0,45.0,1,1,1,37.947624
Status,0,29,15,1,24,1176450050,42.88,226.0,45.0,1,1,1,39.280468
Status,0,29,16,6,30,1575420030,41.59,314.0,40.0,1,1,1,37.988567
Status,0,29,17,6,30,1176450050,38.91,314.0,40.0,1,1,1,35.314877
Status,0,29,18,3,24,1603124990,46.55,30.0,39.0,1,1,1,42.952194
Status,0,29,19,1,19,1575420030,46.86,55.0,32.0,1,1,1,43.25684
Status,0,29,20,6,25,1176450050,38.03,121.0,31.0,1,1,1,34.425194
Status,0,29,21,6,25,1575420030,44.77,121.0,31.0,1,1,1,41.169224
Status,0,29,22,3,18,1600312450,42.35,230.0,28.0,1,1,1,38.747097
Status,0,29,23,1,25,1176450050,39.14,310.0,27.0,1,1,1,35.544304
Status,0,29,24,1,25,1575420030,42.14,310.0,27.0,1,1,1,38.538296
Status,0,29,25,6,11,1575420030,40.19,41.0,20.0,1,1,1,36.59488
Status,0,29,26,6,11,1176450050,28.87,41.0,20.0,1,1,1,25.27467
Status,0,29,27,1,20,1575420030,44.43,147.0,20.0,1,1,1,40.82611
Status,0,29,28,3,16,1601437440,43.38,327.0,13.0,1,1,1,39.775417
UncalAccel,1676593473090,30529912702064,-2.6841488,-0.9409775,13.036696,0.037048545,-0.031444572,0.0098014325
UncalMag,1676593473092,30529914583138,-185.0984,786.2412,389.26538,-174.57417,771.0116,430.86337
OrientationDeg,1676593473090,30529912702064,43.0,5.0,-3.0
Fix,GPS,37.4313067786,-122.1550331623,-7.9683133972585,0.21280238,3.1073234,344.83698,1676593472999,0.102327265,180.0,30529812584000,3.0
UncalGyro,1676593473094,30529916944159,0.2667954,-0.58246,-0.18524489,0.00061732216,-0.0016944893,-0.00032312877
Raw,1676593472999,229043000000,,,-1360628461956777053,0.0,7.172811739690712,169.0,1.0,56,6,0.0,16431,433490929286270,14,41.84270095825195,406.32879722281496,0.15,16,90254.49134077693,340282346638528860000000000000000000000,1575420030,,,,0,,1,,38.24270248413086,0.320142130558394,1.0,0.320142130558394,1.0,C,30529812584000
Raw,1676593472999,229043000000,,,-1360628461956777053,0.0,7.172811739690712,169.0,1.0,56,11,0.0,16431,433490931283825,17,39.196502685546875,-148.76063525266488,0.15,16,-37185.77987949828,340282346638528860000000000000000000000,1575420030,,,,0,,1,,35.59650421142578,-0.20372681261465636,1.0,-0.20372681261465636,1.0,C,30529812584000
Raw,1676593472999,229043000000,,,-1360628461956777053,0.0,7.172811739690712,169.0,1.0,56,12,0.0,16431,433490930066830,13,44.861793518066406,-294.38752495788344,0.15,16,-68989.1777374612,340282346638528860000000000000000000000,1575420030,,,,0,,1,,41.26179504394531,-0.6984919076624261,1.0,-0.6984919076624261,1.0,C,30529812584000
Raw,1676593472999,229043000000,,,-1360628461956777053,0.0,7.172811739690712,169.0,1.0,56,19,0.0,16431,433490925229053,15,43.340431213378906,536.7330474230007,0.15,16,122176.65266596316,340282346638528860000000000000000000000,1575420030,,,,0,,1,,39.74043273925781,0.0,1.0,0.0,1.0,C,30529812584000
Raw,1676593472999,229043000000,,,-1360628461956777053,0.0,7.172811739690712,169.0,1.0,56,20,0.0,16431,433490920727607,18,38.784339904785156,-519.3128222450619,0.15,16,-119251.702949143,340282346638528860000000000000000000000,1575420030,,,,1,,1,,35.18434143066406,0.0,1.0,0.0,1.0,C,30529812584000
Raw,1676593472999,229043000000,,,-1360628461956777053,0.0,7.172811739690712,169.0,1.0,56,24,0.0,16431,433490926898535,30,32.23326110839844,475.9019292070452,0.6622863676806756,16,106593.16722730707,340282346638528860000000000000000000000,1575420030,,,,1,,1,,28.633262634277344,-0.20372681261465636,1.0,-0.20372681261465636,1.0,C,30529812584000
Raw,1676593472999,229043000000,,,-1360628461956777053,0.0,7.172811739690712,169.0,1.0,56,25,0.0,16431,433490924299837,13,42.1382942199707,-520.8611200799801,0.15,16,-120076.1231391042,340282346638528860000000000000000000000,1575420030,,,,0,,1,,38.53829574584961,-2.0372682255564105,1.0,-2.0372682255564105,1.0,C,30529812584000
Raw,1676593472999,229043000000,,,-1360628461956777053,0.0,7.172811739690712,169.0,1.0,56,6,0.0,81921,433490929286760,9,39.30516052246094,406.1812542685277,0.15,16,91431.70332482214,340282346638528860000000000000000000000,1176450050,,,,0,,1,,35.705162048339844,1.9208527336454408,1.6193427815631325,1.9208527336454408,1.0,Q,30529812584000
Raw,1676593472999,229043000000,,,-1360628461956777053,0.0,7.172811739690712,169.0,1.0,56,11,0.0,81921,433490931284354,13,38.73524856567383,-148.75213167976244,0.15,16,-37729.58381737305,340282346638528860000000000000000000000,1176450050,,,,0,,1,,35.135250091552734,0.0,1.6193427815631325,0.0,1.0,Q,30529812584000
Raw,1676593472999,229043000000,,,-1360628461956777053,0.0,7.172811739690712,169.0,1.0,56,24,0.0,81921,433490926899060,9,36.86305618286133,476.90722534464203,0.15,16,106569.77393003117,340282346638528860000000000000000000000,1176450050,,,,0,,1,,33.263057708740234,3.5215636101095664,1.6193427815631325,3.5215636101095664,1.0,Q,30529812584000
Raw,1676593472999,229043000000,,,-1360628461956777053,0.0,7.172811739690712,169.0,1.0,56,25,0.0,81921,433490924300344,10,39.14430236816406,-521.25995298621,0.15,16,-121681.43756547033,340282346638528860000000000000000000000,1176450050,,,,0,,1,,35.54430389404297,1.0186341127782053,1.6193427815631325,1.0186341127782053,1.0,Q,30529812584000
Raw,1676593472999,229043000000,,,-1360628461956777053,0.0,7.172811739690712,169.0,1.0,56,14,0.0,32995,12272933122770,33,40.547637939453125,486.9743991049802,0.15,16,107934.80780595048,340282346638528860000000000000000000000,1598062460,,,,0,,3,,36.94763946533203,52.1540641784668,2.0000000474974513,52.1540641784668,2.0000000474974513,C,30529812584000
Raw,1676593472999,229043000000,,,-1360628461956777053,0.0,7.172811739690712,169.0,1.0,56,18,0.0,32995,12272927031454,42,36.7140998840332,-543.1502286669415,0.15,16,-125822.19837823712,340282346638528860000000000000000000000,1600312450,,,,0,,3,,33.11410140991211,52.1540641784668,2.0000000474974513,52.1540641784668,2.0000000474974513,C,30529812584000
Raw,1676593472999,229043000000,,,-1360628461956777053,0.0,7.172811739690712,169.0,1.0,56,16,0.0,32867,12272921937320,33,43.37541580200195,-717.7381575243421,0.15,16,-164344.6151485348,340282346638528860000000000000000000000,1601437440,,,,0,,3,,39.77541732788086,52.1540641784668,2.0000000474974513,52.1540641784668,2.0000000474974513,C,30529812584000
Raw,1676593472999,229043000000,,,-1360628461956777053,0.0,7.172811739690712,169.0,1.0,56,15,0.0,32995,12272934609070,33,42.227725982666016,-272.8342054835647,0.15,16,-65698.04428588854,340282346638528860000000000000000000000,1602000000,,,,0,,3,,38.62772750854492,52.1540641784668,2.0000000474974513,52.1540641784668,2.0000000474974513,C,30529812584000
Raw,1676593472999,229043000000,,,-1360628461956777053,0.0,7.172811739690712,169.0,1.0,56,24,0.0,32995,12272929784458,33,46.55219268798828,644.748122943874,0.15,16,146665.87273545325,340282346638528860000000000000000000000,1603124990,,,,0,,3,,42.95219421386719,52.1540641784668,2.0000000474974513,52.1540641784668,2.0000000474974513,C,30529812584000
Raw,1676593472999,229043000000,,,-1360628461956777053,0.0,7.172811739690712,169.0,1.0,56,17,0.0,32995,12272935860054,36,38.72510528564453,10.140490449702561,0.15,16,-1110.6025280753995,340282346638528860000000000000000000000,1604249980,,,,0,,3,,35.12510681152344,52.1540641784668,2.0000000474974513,52.1540641784668,2.0000000474974513,C,30529812584000
Raw,1676593472999,229043000000,,,-1360628461956777053,0.0,7.172811739690712,169.0,1.0,56,2,0.0,85026,433490922007697,14,41.664756774902344,74.70895771335364,0.15,16,15610.530270110872,340282346638528860000000000000000000000,1575420030,,,,0,,6,,38.06475830078125,-5.878973752260207,1.5000000237487257,-5.878973752260207,1.5000000237487257,C,30529812584000
Raw,1676593472999,229043000000,,,-1360628461956777053,0.0,7.172811739690712,169.0,1.0,56,11,0.0,85026,433490911165050,19,37.746612548828125,558.8233189586081,0.15,16,127587.0624808757,340282346638528860000000000000000000000,1575420030,,,,0,,6,,34.14661407470703,-5.878973752260207,1.5000000237487257,-5.878973752260207,1.5000000237487257,C,30529812584000
Raw,1676593472999,229043000000,,,-1360628461956777053,0.0,7.172811739690712,169.0,1.0,56,25,0.0,85026,433490913037448,17,39.219390869140625,446.71943929360623,0.15,16,101256.80647553336,340282346638528860000000000000000000000,1575420030,,,,0,,6,,35.61939239501953,-5.878973752260207,1.5000000237487257,-5.878973752260207,1.5000000237487257,C,30529812584000
Raw,1676593472999,229043000000,,,-1360628461956777053,0.0,7.172811739690712,169.0,1.0,56,30,0.0,85026,433490914724171,14,41.45267868041992,-342.695419431554,0.15,16,-79382.22972874242,340282346638528860000000000000000000000,1575420030,,,,0,,6,,37.85268020629883,-5.878973752260207,1.5000000237487257,-5.878973752260207,1.5000000237487257,C,30529812584000
Raw,1676593472999,229043000000,,,-1360628461956777053,0.0,7.172811739690712,169.0,1.0,56,34,0.0,85026,433490918557931,22,35.916160583496094,-336.0738797783024,0.4958897905958557,16,-78639.20265618722,340282346638528860000000000000000000000,1575420030,,,,0,,6,,32.316162109375,-5.878973752260207,1.5000000237487257,-5.878973752260207,1.5000000237487257,C,30529812584000
Raw,1676593472999,229043000000,,,-1360628461956777053,0.0,7.172811739690712,169.0,1.0,56,36,0.0,85026,433490921048778,14,41.93989562988281,190.09292447349662,0.15,16,41429.331374120186,340282346638528860000000000000000000000,1575420030,,,,0,,6,,38.33989715576172,-5.878973752260207,1.5000000237487257,-5.878973752260207,1.5000000237487257,C,30529812584000
Raw,1676593472999,229043000000,,,-1360628461956777053,0.0,7.172811739690712,169.0,1.0,56,2,0.0,84003,433490922008222,6,41.29873275756836,74.54919619840297,0.15,16,15667.828536948271,340282346638528860000000000000000000000,1176450050,,,,0,,6,,37.698734283447266,-4.216632805764675,2.119342805311858,-4.216632805764675,1.5000000237487257,Q,30529812584000
Raw,1676593472999,229043000000,,,-1360628461956777053,0.0,7.172811739690712,169.0,1.0,56,11,0.0,84003,433490911165567,29,27.83616065979004,558.7447929787795,0.860786655074695,16,130518.90669228547,340282346638528860000000000000000000000,1176450050,,,,0,,6,,24.236160278320312,4.279776476323602,2.119342805311858,4.279776476323602,1.5000000237487257,Q,30529812584000
Raw,1676593472999,229043000000,,,-1360628461956777053,0.0,7.172811739690712,169.0,1.0,56,25,0.0,84003,433490913037953,8,35.57027816772461,446.5190003667956,0.513328858313137,16,101998.71446143057,340282346638528860000000000000000000000,1176450050,,,,0,,6,,31.970279693603516,-8.649541996419428,2.119342805311858,-8.649541996419428,1.5000000237487257,Q,30529812584000
Raw,1676593472999,229043000000,,,-1360628461956777053,0.0,7.172811739690712,169.0,1.0,56,30,0.0,84003,433490914724686,13,38.91487503051758,-342.9900281857372,0.15,16,-79843.42894569195,340282346638528860000000000000000000000,1176450050,,,,0,,6,,35.314876556396484,-8.2801328971982,2.119342805311858,-8.2801328971982,1.5000000237487257,Q,30529812584000
Raw,1676593472999,229043000000,,,-1360628461956777053,0.0,7.172811739690712,169.0,1.0,56,34,0.0,84003,433490918558467,6,41.04301834106445,-336.11266561382536,0.15,16,-79470.85096010247,340282346638528860000000000000000000000,1176450050,,,,0,,6,,37.44301986694336,-9.942473843693731,2.119342805311858,-9.942473843693731,1.5000000237487257,Q,30529812584000
Raw,1676593472999,229043000000,,,-1360628461956777053,0.0,7.172811739690712,169.0,1.0,56,36,0.0,84003,433490921049285,7,36.87468338012695,190.17831806831452,0.15,16,41649.51539849357,340282346638528860000000000000000000000,1176450050,,,,0,,6,,33.27468490600586,-10.865996591746804,2.119342805311858,-10.865996591746804,1.5000000237487257,Q,30529812584000
UncalAccel,1676593473099,30529921182909,-2.9240294,-1.1623136,12.654443,0.037048545,-0.031444572,0.0098014325
UncalMag,1676593473102,30529924589445,-184.9276,785.558,389.4606,-174.57417,771.0116,430.86337
UncalGyro,1676593473103,30529925430724,0.39767328,-0.6426302,-0.2509129,0.00061732216,-0.0016944893,-0.00032312877
OrientationDeg,1676593473099,30529921182909,43.0,4.0,-3.0
UncalAccel,1676593473107,30529929663542,-3.1028929,-1.378864,12.410973,0.037048545,-0.031444572,0.0098014325
OrientationDeg,1676593473107,30529929663542,43.0,4.0,-3.0
Fix,FLP,37.4313010000,-122.1550350000,-15.700000762939453,0.30703947,4.102,346.00415,1676593473052,,,30529874543423,2.3519082
UncalGyro,1676593473111,30529933906553,0.50671273,-0.68584895,-0.30634892,0.00061732216,-0.0016944893,-0.00032312877
UncalMag,1676593473112,30529934582854,-185.5864,785.1798,389.0214,-174.57417,771.0116,430.86337
UncalAccel,1676593473116,30529938143553,-3.0897322,-1.6223338,12.102299,0.037048545,-0.031444572,0.0098014325
OrientationDeg,1676593473116,30529938143553,44.0,4.0,-3.0
UncalGyro,1676593473120,30529942387429,0.5983425,-0.70921457,-0.34804046,0.00061732216,-0.0016944893,-0.00032312877
UncalMag,1676593473122,30529944585946,-185.6108,784.6552,389.1434,-174.57417,771.0116,430.86337
UncalAccel,1676593473124,30529946627644,-3.0005996,-1.817947,11.836097,0.037048545,-0.031444572,0.0098014325
OrientationDeg,1676593473124,30529946627644,44.0,3.0,-3.0
UncalGyro,1676593473128,30529950866473,0.6785186,-0.7160868,-0.38988474,0.00061732216,-0.0016944893,-0.00032312877
UncalMag,1676593473132,30529954585662,-185.84259,784.277,388.326,-174.57417,771.0116,430.86337
UncalAccel,1676593473133,30529955105864,-2.9682965,-1.9944177,11.517852,0.037048545,-0.031444572,0.0098014325
OrientationDeg,1676593473133,30529955105864,44.0,3.0,-4.0
UncalGyro,1676593473137,30529959348875,0.763887,-0.7102836,-0.45952338,0.00061732216,-0.0016944893,-0.00032312877
UncalAccel,1676593473141,30529963596556,-2.961118,-2.1661026,11.294123,0.037048545,-0.031444572,0.0098014325
OrientationDeg,1676593473141,30529963596556,44.0,3.0,-4.0
UncalMag,1676593473142,30529964583017,-186.66,784.7528,389.912,-174.57417,771.0116,430.86337
UncalGyro,1676593473145,30529967832833,0.85154617,-0.68783426,-0.5713117,0.00061732216,-0.0016944893,-0.00032312877
UncalAccel,1676593473150,30529972067901,-2.89711,-2.3192434,11.157134,0.037048545,-0.031444572,0.0098014325
OrientationDeg,1676593473150,30529972067901,45.0,3.0,-4.0
UncalMag,1676593473152,30529974583587,-187.1236,783.85,389.3508,-174.57417,771.0116,430.86337
UncalGyro,1676593473154,30529976308807,0.9210321,-0.65377855,-0.714865,0.00061732216,-0.0016944893,-0.00032312877
UncalAccel,1676593473158,30529980551380,-2.809772,-2.4143581,11.072188,0.037048545,-0.031444572,0.0098014325
OrientationDeg,1676593473158,30529980551380,45.0,2.0,-5.0
UncalMag,1676593473162,30529984583262,-187.7336,784.24036,388.1186,-174.57417,771.0116,430.86337
UncalGyro,1676593473162,30529984793721,0.9616546,-0.61850107,-0.88254756,0.00061732216,-0.0016944893,-0.00032312877
UncalAccel,1676593473167,30529989025379,-2.7074788,-2.4993033,10.896317,0.037048545,-0.031444572,0.0098014325
OrientationDeg,1676593473167,30529989025379,46.0,2.0,-5.0
UncalGyro,1676593473171,30529993274587,0.9796751,-0.6030767,-1.0667235,0.00061732216,-0.0016944893,-0.00032312877
UncalMag,1676593473172,30529994583669,-188.51439,783.4596,388.9238,-174.57417,771.0116,430.86337
UncalAccel,1676593473176,30529997512236,-2.5339992,-2.4837499,10.7019,0.037048545,-0.031444572,0.0098014325
OrientationDeg,1676593473175,30529997512236,46.0,2.0,-6.0
UncalGyro,1676593473179,30530001756714,0.9766208,-0.6017023,-1.263422,0.00061732216,-0.0016944893,-0.00032312877
UncalMag,1676593473182,30530004585867,-188.4412,782.8496,388.89938,-174.57417,771.0116,430.86337
UncalAccel,1676593473183,30530005990733,-2.2815564,-2.295315,10.735997,0.037048545,-0.031444572,0.0098014325
OrientationDeg,1676593473183,30530005990733,47.0,2.0,-6.0
UncalGyro,1676593473188,30530010231720,0.95386606,-0.57604593,-1.4698945,0.00061732216,-0.0016944893,-0.00032312877
UncalAccel,1676593473192,30530014479970,-2.2181466,-2.1661026,11.060225,0.037048545,-0.031444572,0.0098014325
UncalMag,1676593473192,30530014582774,-188.67299,782.4104,388.9238,-174.57417,771.0116,430.86337
OrientationDeg,1676593473192,30530014479970,48.0,1.0,-6.0
UncalGyro,1676593473196,30530018716674,0.9271407,-0.5035057,-1.6794213,0.00061732216,-0.0016944893,-0.00032312877
UncalAccel,1676593473200,30530022956136,-2.3718855,-2.1768703,11.22174,0.037048545,-0.031444572,0.0098014325
UncalMag,1676593473202,30530024583019,-189.6612,781.59296,388.26498,-174.57417,771.0116,430.86337
UncalGyro,1676593473205,30530027194519,0.91522884,-0.44715336,-1.8869628,0.00061732216,-0.0016944893,-0.00032312877
UncalAccel,1676593473209,30530031433381,-2.57707,-2.1637099,11.105688,0.037048545,-0.031444572,0.0098014325
UncalMag,1676593473212,30530034586193,-189.6246,780.44617,387.99658,-174.57417,771.0116,430.86337
UncalGyro,1676593473213,30530035678814,0.9326385,-0.4636467,-2.0920608,0.00061732216,-0.0016944893,-0.00032312877
OrientationDeg,1676593473200,30530022956136,49.0,1.0,-7.0
OrientationDeg,1676593473209,30530031433381,50.0,1.0,-7.0
UncalAccel,1676593473217,30530039914622,-2.809772,-2.184049,10.908878,0.037048545,-0.031444572,0.0098014325
UncalGyro,1676593473222,30530044158662,0.97203934,-0.5545129,-2.2899811,0.00061732216,-0.0016944893,-0.00032312877
UncalMag,1676593473222,30530044583182,-189.55139,780.1534,389.4972,-174.57417,771.0116,430.86337
OrientationDeg,1676593473217,30530039914622,51.0,1.0,-8.0
UncalAccel,1676593473226,30530048400360,-2.9084759,-2.2558336,10.717453,0.037048545,-0.031444572,0.0098014325
OrientationDeg,1676593473226,30530048400360,52.0,1.0,-8.0
UncalGyro,1676593473230,30530052637859,1.0183123,-0.6942484,-2.4631615,0.00061732216,-0.0016944893,-0.00032312877
UncalMag,1676593473232,30530054583142,-190.747,779.3238,388.83838,-174.57417,771.0116,430.86337
UncalAccel,1676593473234,30530056877981,-2.8965118,-2.3228326,10.43151,0.037048545,-0.031444572,0.0098014325
OrientationDeg,1676593473234,30530056877981,53.0,1.0,-8.0
UncalGyro,1676593473239,30530061117971,1.0514518,-0.8561276,-2.6019804,0.00061732216,-0.0016944893,-0.00032312877
UncalMag,1676593473242,30530064585095,-191.3082,778.62836,389.4118,-174.57417,771.0116,430.86337
UncalAccel,1676593473243,30530065357016,-2.774478,-2.393421,10.14138,0.037048545,-0.031444572,0.0098014325
OrientationDeg,1676593473243,30530065357016,55.0,1.0,-9.0
UncalGyro,1676593473247,30530069600191,1.0581713,-1.0041097,-2.7076602,0.00061732216,-0.0016944893,-0.00032312877
UncalAccel,1676593473251,30530073841442,-2.5710878,-2.4538395,9.894919,0.037048545,-0.031444572,0.0098014325
OrientationDeg,1676593473251,30530073841442,56.0,1.0,-9.0
UncalMag,1676593473252,30530074582898,-191.784,777.8476,389.9608,-174.57417,771.0116,430.86337
UncalGyro,1676593473256,30530078080628,1.0351112,-1.1082623,-2.784629,0.00061732216,-0.0016944893,-0.00032312877
UncalAccel,1676593473260,30530082322623,-2.2235305,-2.5178475,9.5348,0.037048545,-0.031444572,0.0098014325
OrientationDeg,1676593473260,30530082322623,57.0,0.0,-10.0
UncalMag,1676593473262,30530084582410,-192.76,777.1278,389.5704,-174.57417,771.0116,430.86337
UncalGyro,1676593473264,30530086560549,0.9767735,-1.183246,-2.8345675,0.00061732216,-0.0016944893,-0.00032312877
UncalAccel,1676593473268,30530090803702,-1.8765712,-2.44367,9.145369,0.037048545,-0.031444572,0.0098014325
OrientationDeg,1676593473268,30530090803702,59.0,0.0,-10.0
UncalMag,1676593473272,30530094584526,-192.7478,775.56616,389.8022,-174.57417,771.0116,430.86337
UncalGyro,1676593473273,30530095042238,0.87979865,-1.2417363,-2.8732047,0.00061732216,-0.0016944893,-0.00032312877
UncalAccel,1676593473277,30530099281771,-1.5643078,-2.254039,8.793025,0.037048545,-0.031444572,0.0098014325
OrientationDeg,1676593473277,30530099281771,60.0,0.0,-11.0
UncalGyro,1676593473281,30530103526461,0.75625116,-1.2675453,-2.9245174,0.00061732216,-0.0016944893,-0.00032312877
UncalMag,1676593473282,30530104582777,-193.62619,774.944,390.2902,-174.57417,771.0116,430.86337
UncalAccel,1676593473285,30530107763399,-1.3070793,-1.96032,8.711669,0.037048545,-0.031444572,0.0098014325
OrientationDeg,1676593473285,30530107763399,62.0,0.0,-11.0
UncalGyro,1676593473290,30530112008487,0.622319,-1.2276864,-3.0072896,0.00061732216,-0.0016944893,-0.00032312877
UncalMag,1676593473292,30530114586032,-194.1996,774.1632,390.7172,-174.57417,771.0116,430.86337
UncalAccel,1676593473294,30530116243991,-0.9846465,-1.541576,8.816954,0.037048545,-0.031444572,0.0098014325
OrientationDeg,1676593473294,30530116243991,63.0,0.0,-11.0
UncalGyro,1676593473298,30530120483014,0.49754974,-1.1081096,-3.1204524,0.00061732216,-0.0016944893,-0.00032312877
UncalMag,1676593473302,30530124593438,-194.6022,772.7724,390.8758,-174.57417,771.0116,430.86337
UncalAccel,1676593473302,30530124724155,-0.7304091,-0.97507524,8.9108715,0.037048545,-0.031444572,0.0098014325
OrientationDeg,1676593473302,30530124724155,65.0,0.0,-11.0
UncalGyro,1676593473306,30530128971957,0.4109596,-0.93508196,-3.254079,0.00061732216,-0.0016944893,-0.00032312877
UncalAccel,1676593473311,30530133199303,-0.68494546,-0.46181476,8.903693,0.037048545,-0.031444572,0.0098014325
OrientationDeg,1676593473311,30530133199303,66.0,0.0,-11.0
UncalMag,1676593473312,30530134582981,-194.773,771.64996,391.3394,-174.57417,771.0116,430.86337
UncalGyro,1676593473315,30530137459282,0.37720928,-0.7286095,-3.3800702,0.00061732216,-0.0016944893,-0.00032312877
UncalAccel,1676593473319,30530141695082,-0.80159557,-0.1369891,8.925228,0.037048545,-0.031444572,0.0098014325
UncalMag,1676593473322,30530144593601,-195.627,771.3816,391.6566,-174.57417,771.0116,430.86337
OrientationDeg,1676593473319,30530141695082,68.0,0.0,-12.0
UncalGyro,1676593473323,30530145940962,0.39095375,-0.5174029,-3.4593298,0.00061732216,-0.0016944893,-0.00032312877
UncalAccel,1676593473328,30530150173394,-1.1371889,0.09092726,8.874381,0.037048545,-0.031444572,0.0098014325
OrientationDeg,1676593473328,30530150173394,70.0,0.0,-12.0
UncalGyro,1676593473332,30530154408492,0.43172902,-0.34009922,-3.4637587,0.00061732216,-0.0016944893,-0.00032312877
UncalMag,1676593473332,30530154583307,-195.3586,770.49097,390.8392,-174.57417,771.0116,430.86337
UncalAccel,1676593473336,30530158656966,-1.5870396,0.31345975,8.741579,0.037048545,-0.031444572,0.0098014325
OrientationDeg,1676593473336,30530158656966,72.0,0.0,-12.0
UncalGyro,1676593473340,30530162899143,0.472657,-0.24297164,-3.3815973,0.00061732216,-0.0016944893,-0.00032312877
UncalMag,1676593473342,30530164593439,-195.1268,769.271,390.6562,-174.57417,771.0116,430.86337
UncalAccel,1676593473345,30530167140038,-2.0638096,0.46899325,8.456235,0.037048545,-0.031444572,0.0098014325
OrientationDeg,1676593473345,30530167140038,73.0,0.0,-12.0
UncalGyro,1676593473349,30530171379114,0.48380527,-0.2593123,-3.2171218,0.00061732216,-0.0016944893,-0.00032312877
UncalMag,1676593473352,30530174593317,-196.2248,768.36816,390.3512,-174.57417,771.0116,430.86337
UncalAccel,1676593473353,30530175615371,-2.4580271,0.6448657,7.975278,0.037048545,-0.031444572,0.0098014325
OrientationDeg,1676593473353,30530175615371,75.0,0.0,-12.0
UncalGyro,1676593473357,30530179860904,0.44303003,-0.39187005,-2.9897273,0.00061732216,-0.0016944893,-0.00032312877
UncalAccel,1676593473362,30530184099145,-2.6961129,0.88354975,7.6145597,0.037048545,-0.031444572,0.0098014325
OrientationDeg,1676593473363,30530184099145,76.0,0.0,-13.0
UncalMag,1676593473362,30530184604019,-195.8344,767.8802,391.315,-174.57417,771.0116,430.86337
UncalGyro,1676593473366,30530188341292,0.33215797,-0.5766568,-2.7279716,0.00061732216,-0.0016944893,-0.00032312877
UncalAccel,1676593473370,30530192579768,-2.7308087,1.1659029,7.5846496,0.037048545,-0.031444572,0.0098014325
OrientationDeg,1676593473370,30530192579768,77.0,0.0,-13.0
UncalMag,1676593473372,30530194600642,-195.4684,767.1238,392.0958,-174.57417,771.0116,430.86337
UncalGyro,1676593473374,30530196821273,0.15424347,-0.7284568,-2.4578164,0.00061732216,-0.0016944893,-0.00032312877
UncalAccel,1676593473379,30530201061121,-2.6141586,1.5541383,7.726424,0.037048545,-0.031444572,0.0098014325
OrientationDeg,1676593473379,30530201061121,79.0,0.0,-13.0
UncalMag,1676593473382,30530204593562,-195.9442,766.1722,392.8522,-174.57417,771.0116,430.86337
UncalGyro,1676593473383,30530205303146,-0.051159963,-0.79626286,-2.21851,0.00061732216,-0.0016944893,-0.00032312877
UncalAccel,1676593473387,30530209541529,-2.411367,2.1062822,7.7389865,0.037048545,-0.031444572,0.0098014325
OrientationDeg,1676593473387,30530209541529,80.0,0.0,-13.0
UncalGyro,1676593473391,30530213783290,-0.23655757,-0.782213,-2.048384,0.00061732216,-0.0016944893,-0.00032312877
UncalMag,1676593473392,30530214583023,-195.993,765.367,392.169,-174.57417,771.0116,430.86337
UncalAccel,1676593473396,30530218022394,-2.263012,2.6865416,7.9567337,0.037048545,-0.031444572,0.0098014325
OrientationDeg,1676593473396,30530218022394,81.0,0.0,-12.0
UncalGyro,1676593473400,30530222264266,-0.3911065,-0.66874474,-1.9631681,0.00061732216,-0.0016944893,-0.00032312877
UncalMag,1676593473402,30530224593481,-196.38339,765.72076,392.5106,-174.57417,771.0116,430.86337
UncalAccel,1676593473404,30530226503545,-2.2797618,3.068795,8.603992,0.037048545,-0.031444572,0.0098014325
OrientationDeg,1676593473404,30530226503545,82.0,0.0,-12.0
UncalGyro,1676593473408,30530230743993,-0.5122105,-0.4738787,-1.9398025,0.00061732216,-0.0016944893,-0.00032312877
UncalMag,1676593473412,30530234593481,-196.7372,765.08636,391.8762,-174.57417,771.0116,430.86337
UncalAccel,1676593473412,30530234978511,-2.536392,3.3876386,8.810373,0.037048545,-0.031444572,0.0098014325
OrientationDeg,1676593473412,30530234978511,83.0,0.0,-12.0
UncalGyro,1676593473417,30530239213527,-0.57910025,-0.31108314,-1.9457586,0.00061732216,-0.0016944893,-0.00032312877
UncalAccel,1676593473421,30530243454698,-2.7858438,3.5826538,8.732008,0.037048545,-0.031444572,0.0098014325
UncalMag,1676593473423,30530244584774,-196.8348,765.245,391.43698,-174.57417,771.0116,430.86337
OrientationDeg,1676593473421,30530243454698,84.0,0.0,-12.0
UncalGyro,1676593473425,30530247704972,-0.5899431,-0.22739458,-1.9459113,0.00061732216,-0.0016944893,-0.00032312877
UncalAccel,1676593473429,30530251935095,-3.0496526,3.6861434,8.777472,0.037048545,-0.031444572,0.0098014325
OrientationDeg,1676593473430,30530251935095,84.0,0.0,-11.0
UncalMag,1676593473432,30530254593563,-196.603,765.6476,392.97418,-174.57417,771.0116,430.86337
UncalGyro,1676593473434,30530256189928,-0.5465717,-0.17898351,-1.9208658,0.00061732216,-0.0016944893,-0.00032312877
UncalAccel,1676593473438,30530260425391,-3.3230324,3.7369907,8.846864,0.037048545,-0.031444572,0.0098014325
OrientationDeg,1676593473438,30530260425391,85.0,0.0,-11.0
UncalMag,1676593473442,30530264593930,-196.6518,764.9278,392.2056,-174.57417,771.0116,430.86337
UncalGyro,1676593473442,30530264665280,-0.45799622,-0.14523321,-1.8574885,0.00061732216,-0.0016944893,-0.00032312877
UncalAccel,1676593473446,30530268897273,-3.6005998,3.792624,8.811569,0.037048545,-0.031444572,0.0098014325
OrientationDeg,1676593473447,30530268897273,86.0,0.0,-11.0
UncalGyro,1676593473451,30530273150153,-0.35201108,-0.1421789,-1.7518088,0.00061732216,-0.0016944893,-0.00032312877
UncalMag,1676593473452,30530274593482,-196.56639,764.5008,392.70578,-174.57417,771.0116,430.86337
UncalAccel,1676593473455,30530277389441,-3.8913279,3.839284,8.647063,0.037048545,-0.031444572,0.0098014325
OrientationDeg,1676593473455,30530277389441,87.0,0.0,-11.0
UncalGyro,1676593473459,30530281632534,-0.25411993,-0.17638734,-1.6076446,0.00061732216,-0.0016944893,-0.00032312877
UncalMag,1676593473462,30530284593442,-196.45659,764.6716,392.49838,-174.57417,771.0116,430.86337
UncalAccel,1676593473463,30530285869056,-4.104887,3.842873,8.459825,0.037048545,-0.031444572,0.0098014325
OrientationDeg,1676593473463,30530285869056,88.0,0.0,-11.0
UncalGyro,1676593473468,30530290110734,-0.18493946,-0.25167647,-1.4338534,0.00061732216,-0.0016944893,-0.00032312877
UncalAccel,1676593473472,30530294347643,-4.217948,3.8285162,8.230113,0.037048545,-0.031444572,0.0098014325
UncalMag,1676593473472,30530294585385,-196.237,763.1344,393.0962,-174.57417,771.0116,430.86337
OrientationDeg,1676593473472,30530294347643,89.0,0.0,-11.0
UncalGyro,1676593473476,30530298581600,-0.16584991,-0.37797287,-1.235475,0.00061732216,-0.0016944893,-0.00032312877
UncalAccel,1676593473480,30530302830482,-4.1724844,3.7764723,7.9680996,0.037048545,-0.031444572,0.0098014325
OrientationDeg,1676593473480,30530302830482,89.0,0.0,-11.0
UncalMag,1676593473482,30530304582863,-197.2862,763.0856,392.38858,-174.57417,771.0116,430.86337
UncalGyro,1676593473485,30530307067736,-0.21074851,-0.5360342,-1.0137309,0.00061732216,-0.0016944893,-0.00032312877
UncalAccel,1676593473489,30530311304949,-4.028317,3.7680974,7.830512,0.037048545,-0.031444572,0.0098014325
OrientationDeg,1676593473489,30530311304949,90.0,0.0,-11.0
UncalMag,1676593473492,30530314593524,-197.2862,763.0856,392.38858,-174.57417,771.0116,430.86337
UncalGyro,1676593473493,30530315554380,-0.311694,-0.6835582,-0.78038037,0.00061732216,-0.0016944893,-0.00032312877
UncalAccel,1676593473497,30530319793241,-3.8464625,3.8554354,7.8071823,0.037048545,-0.031444572,0.0098014325
OrientationDeg,1676593473497,30530319793241,90.0,0.0,-10.0
UncalGyro,1676593473502,30530324036659,-0.44883323,-0.7912232,-0.5468771,0.00061732216,-0.0016944893,-0.00032312877
UncalMag,1676593473502,30530324582823,-197.1398,763.70776,392.5228,-174.57417,771.0116,430.86337
UncalAccel,1676593473506,30530328270688,-3.6406796,3.8901315,7.750951,0.037048545,-0.031444572,0.0098014325
OrientationDeg,1676593473506,30530328270688,90.0,0.0,-10.0
UncalGyro,1676593473510,30530332504463,-0.5896377,-0.8384125,-0.32788193,0.00061732216,-0.0016944893,-0.00032312877
UncalMag,1676593473512,30530334593362,-197.1398,763.70776,392.5228,-174.57417,771.0116,430.86337
UncalAccel,1676593473514,30530336754657,-3.4097722,3.772285,7.6719875,0.037048545,-0.031444572,0.0098014325
OrientationDeg,1676593473514,30530336754657,90.0,0.0,-10.0
UncalGyro,1676593473519,30530340996794,-0.70081514,-0.80680025,-0.13041973,0.00061732216,-0.0016944893,-0.00032312877
UncalMag,1676593473522,30530344593403,-197.5302,764.208,392.169,-174.57417,771.0116,430.86337
UncalAccel,1676593473523,30530345235360,-3.117848,3.5676985,7.7557364,0.037048545,-0.031444572,0.0098014325
OrientationDeg,1676593473523,30530345235360,90.0,0.0,-10.0
UncalGyro,1676593473527,30530349466215,-0.7611381,-0.68477994,0.048258353,0.00061732216,-0.0016944893,-0.00032312877
UncalAccel,1676593473531,30530353715504,-2.845066,3.3631122,7.9016986,0.037048545,-0.031444572,0.0098014325
OrientationDeg,1676593473531,30530353715504,90.0,0.0,-9.0
UncalMag,1676593473532,30530354583108,-198.0304,764.574,392.9986,-174.57417,771.0116,430.86337
UncalGyro,1676593473535,30530357957447,-0.77457714,-0.48838675,0.20570888,0.00061732216,-0.0016944893,-0.00032312877
UncalAccel,1676593473540,30530362198485,-2.653042,3.2303107,7.9184484,0.037048545,-0.031444572,0.0098014325
OrientationDeg,1676593473540,30530362198485,90.0,0.0,-9.0
UncalMag,1676593473542,30530364584126,-198.31099,765.0986,393.2548,-174.57417,771.0116,430.86337
UncalGyro,1676593473544,30530366435230,-0.73853606,-0.26068676,0.3359759,0.00061732216,-0.0016944893,-0.00032312877
UncalAccel,1676593473548,30530370677957,-2.5375884,3.1830523,7.795218,0.037048545,-0.031444572,0.0098014325
OrientationDeg,1676593473548,30530370677957,90.0,-1.0,-9.0
UncalMag,1676593473552,30530374593566,-198.189,765.428,392.7302,-174.57417,771.0116,430.86337
UncalGyro,1676593473552,30530374917316,-0.67073005,-0.036957346,0.4476115,0.00061732216,-0.0016944893,-0.00032312877
UncalAccel,1676593473557,30530379148965,-2.5172493,3.1016963,7.7623167,0.037048545,-0.031444572,0.0098014325
OrientationDeg,1676593473557,30530379148965,90.0,0.0,-8.0
UncalGyro,1676593473561,30530383397856,-0.6209445,0.15790866,0.549626,0.00061732216,-0.0016944893,-0.00032312877
UncalMag,1676593473562,30530384593770,-198.2744,765.62317,393.49878,-174.57417,771.0116,430.86337
UncalAccel,1676593473565,30530387627104,-2.5507488,3.0490541,7.743174,0.037048545,-0.031444572,0.0098014325
OrientationDeg,1676593473565,30530387627104,89.0,0.0,-8.0
UncalGyro,1676593473569,30530391881784,-0.6238461,0.3016147,0.65148777,0.00061732216,-0.0016944893,-0.00032312877
UncalMag,1676593473572,30530394582947,-198.555,766.13556,393.02298,-174.57417,771.0116,430.86337
UncalAccel,1676593473574,30530396114257,-2.597409,2.986841,7.6713896,0.037048545,-0.031444572,0.0098014325
OrientationDeg,1676593473574,30530396114257,89.0,0.0,-8.0
UncalGyro,1676593473578,30530400364756,-0.64568454,0.45845437,0.76052725,0.00061732216,-0.0016944893,-0.00032312877
UncalMag,1676593473582,30530404584941,-198.42079,766.7334,392.5594,-174.57417,771.0116,430.86337
UncalAccel,1676593473582,30530404604268,-2.2073789,3.1154552,12.293725,0.037048545,-0.031444572,0.0098014325
OrientationDeg,1676593473582,30530404604268,89.0,0.0,-7.0
UncalGyro,1676593473586,30530408856302,-0.36972618,1.1016954,0.88422745,0.00061732216,-0.0016944893,-0.00032312877
UncalAccel,1676593473591,30530413081837,-2.050649,3.2327034,8.547162,0.037048545,-0.031444572,0.0098014325
UncalMag,1676593473592,30530414582703,-197.85959,767.2458,391.8152,-174.57417,771.0116,430.86337
OrientationDeg,1676593473591,30530413081837,88.0,0.0,-7.0
UncalGyro,1676593473595,30530417323109,-0.18784106,1.086882,0.99112886,0.00061732216,-0.0016944893,-0.00032312877
UncalAccel,1676593473599,30530421559580,-2.3353949,2.981457,9.038289,0.037048545,-0.031444572,0.0098014325
OrientationDeg,1676593473599,30530421559580,88.0,0.0,-7.0
UncalMag,1676593473602,30530424593567,-198.1646,767.51416,392.2544,-174.57417,771.0116,430.86337
UncalGyro,1676593473603,30530425803853,-0.106901415,1.1293371,1.0421361,0.00061732216,-0.0016944893,-0.00032312877
UncalAccel,1676593473608,30530430040944,-2.2815564,2.9300113,8.318049,0.037048545,-0.031444572,0.0098014325
OrientationDeg,1676593473608,30530430040944,87.0,1.0,-7.0
UncalGyro,1676593473612,30530434274618,-0.1518,1.0424415,1.0506883,0.00061732216,-0.0016944893,-0.00032312877
UncalMag,1676593473612,30530434578756,-196.5786,767.6972,391.5346,-174.57417,771.0116,430.86337
UncalAccel,1676593473616,30530438522715,-2.9623144,1.6540387,12.587443,0.037048545,-0.031444572,0.0098014325
OrientationDeg,1676593473616,30530438522715,86.0,1.0,-7.0
UncalGyro,1676593473620,30530442758128,-0.024892759,1.658041,1.2333369,0.00061732216,-0.0016944893,-0.00032312877
UncalMag,1676593473622,30530444593487,-196.664,768.0144,390.64398,-174.57417,771.0116,430.86337
UncalAccel,1676593473625,30530447005534,-2.4717858,1.1359925,11.94856,0.037048545,-0.031444572,0.0098014325
OrientationDeg,1676593473625,30530447005534,86.0,2.0,-7.0
UncalGyro,1676593473629,30530451237183,-0.08475755,2.1946862,1.41904,0.00061732216,-0.0016944893,-0.00032312877
UncalMag,1676593473632,30530454593446,-195.627,767.9778,391.6932,-174.57417,771.0116,430.86337
UncalAccel,1676593473633,30530455485078,-2.0937197,1.2400804,11.225329,0.037048545,-0.031444572,0.0098014325
OrientationDeg,1676593473633,30530455485078,85.0,3.0,-7.0
UncalGyro,1676593473637,30530459715729,-0.24510968,2.6439774,1.5234979,0.00061732216,-0.0016944893,-0.00032312877
UncalAccel,1676593473641,30530463969270,-2.4646072,0.6155536,8.195417,0.037048545,-0.031444572,0.0098014325
OrientationDeg,1676593473641,30530463969270,84.0,4.0,-7.0
UncalMag,1676593473642,30530464570172,-194.3216,768.6488,389.8876,-174.57417,771.0116,430.86337
UncalGyro,1676593473646,30530468208284,-0.061086524,2.0641136,1.7721201,0.00061732216,-0.0016944893,-0.00032312877
UncalAccel,1676593473650,30530472450929,-2.8109684,0.70169526,3.9308095,0.037048545,-0.031444572,0.0098014325
OrientationDeg,1676593473650,30530472450929,83.0,5.0,-7.0
UncalMag,1676593473652,30530474593609,-193.9068,768.6488,389.63138,-174.57417,771.0116,430.86337
UncalGyro,1676593473654,30530476690258,0.3005457,0.7076874,1.9781344,0.00061732216,-0.0016944893,-0.00032312877
UncalAccel,1676593473658,30530480928519,-1.6654046,1.8466609,5.340182,0.037048545,-0.031444572,0.0098014325
OrientationDeg,1676593473658,30530480928519,82.0,5.0,-8.0
UncalMag,1676593473662,30530484593447,-193.4066,769.9908,390.42438,-174.57417,771.0116,430.86337
UncalGyro,1676593473663,30530485169832,0.1966986,-0.08582657,1.8112154,0.00061732216,-0.0016944893,-0.00032312877
UncalAccel,1676593473667,30530489408306,-1.2819548,2.4215364,6.719046,0.037048545,-0.031444572,0.0098014325
OrientationDeg,1676593473667,30530489408306,82.0,5.0,-8.0
UncalGyro,1676593473671,30530493646924,-0.13683382,-0.43279803,1.4523321,0.00061732216,-0.0016944893,-0.00032312877
UncalMag,1676593473672,30530494582908,-194.26059,769.7102,390.2536,-174.57417,771.0116,430.86337
UncalAccel,1676593473675,30530497886801,-1.1084751,2.5896323,7.119844,0.037048545,-0.031444572,0.0098014325
OrientationDeg,1676593473675,30530497886801,81.0,4.0,-8.0
UncalGyro,1676593473680,30530502131654,-0.4633413,-0.64904433,1.087951,0.00061732216,-0.0016944893,-0.00032312877
UncalMag,1676593473682,30530504593285,-194.4314,770.2104,389.89978,-174.57417,771.0116,430.86337
UncalAccel,1676593473684,30530506371971,-0.8955139,3.0795627,7.033104,0.037048545,-0.031444572,0.0098014325
OrientationDeg,1676593473684,30530506371971,81.0,4.0,-7.0
UncalGyro,1676593473688,30530510614433,-0.63529986,-0.8126035,0.74021596,0.00061732216,-0.0016944893,-0.00032312877
UncalMag,1676593473692,30530514593488,-194.9438,770.5642,390.3634,-174.57417,771.0116,430.86337
UncalAccel,1676593473692,30530514853894,-0.8237292,3.367898,6.8410797,0.037048545,-0.031444572,0.0098014325
OrientationDeg,1676593473692,30530514853894,80.0,3.0,-7.0
UncalGyro,1676593473697,30530519102083,-0.62858033,-0.91919947,0.39400807,0.00061732216,-0.0016944893,-0.00032312877
UncalAccel,1676593473701,30530523332583,-0.8237292,3.1663027,6.9852476,0.037048545,-0.031444572,0.0098014325
OrientationDeg,1676593473701,30530523332583,80.0,3.0,-7.0
UncalMag,1676593473702,30530524587182,-195.2732,770.3202,390.91238,-174.57417,771.0116,430.86337
UncalGyro,1676593473706,30530527572715,-0.56596667,-0.7874053,0.13362677,0.00061732216,-0.0016944893,-0.00032312877
UncalAccel,1676593473709,30530531805829,-2.0757737,1.8017955,7.8430743,0.037048545,-0.031444572,0.0098014325
OrientationDeg,1676593473709,30530531805829,80.0,3.0,-7.0
UncalMag,1676593473712,30530534593611,-195.2244,771.0888,390.6196,-174.57417,771.0116,430.86337
UncalGyro,1676593473714,30530536054853,-0.528093,-0.40759984,0.12110403,0.00061732216,-0.0016944893,-0.00032312877
UncalAccel,1676593473718,30530540294691,-0.5461618,2.4059832,7.4823565,0.037048545,-0.031444572,0.0098014325
OrientationDeg,1676593473718,30530540294691,80.0,3.0,-6.0
UncalGyro,1676593473722,30530544538312,-0.21288654,-0.007941248,-0.06765333,0.00061732216,-0.0016944893,-0.00032312877
UncalMag,1676593473722,30530544582828,-194.9316,770.6618,390.5098,-174.57417,771.0116,430.86337
UncalAccel,1676593473726,30530548772657,0.9421739,0.93619186,9.675379,0.037048545,-0.031444572,0.0098014325
OrientationDeg,1676593473726,30530548772657,80.0,3.0,-6.0
UncalGyro,1676593473731,30530553005181,-0.03772093,0.22922719,-0.10567969,0.00061732216,-0.0016944893,-0.00032312877
UncalMag,1676593473732,30530554593286,-195.2366,770.857,391.5224,-174.57417,771.0116,430.86337
UncalAccel,1676593473735,30530557252709,1.079163,-0.35234314,7.0343003,0.037048545,-0.031444572,0.0098014325
OrientationDeg,1676593473735,30530557252709,80.0,3.0,-6.0
UncalGyro,1676593473739,30530561497349,-0.05207626,0.16233744,0.029932396,0.00061732216,-0.0016944893,-0.00032312877
UncalMag,1676593473742,30530564590478,-194.41919,770.5032,390.8148,-174.57417,771.0116,430.86337
UncalAccel,1676593473743,30530565739649,2.440081,-0.18185452,7.8484583,0.037048545,-0.031444572,0.0098014325
OrientationDeg,1676593473743,30530565739649,80.0,3.0,-6.0
UncalGyro,1676593473747,30530569979129,-0.045662176,0.043218717,0.2454151,0.00061732216,-0.0016944893,-0.00032312877
UncalAccel,1676593473752,30530574217706,2.7397819,-0.37627137,7.4979095,0.037048545,-0.031444572,0.0098014325
UncalMag,1676593473752,30530574588729,-195.2,771.528,390.59518,-174.57417,771.0116,430.86337
OrientationDeg,1676593473752,30530574217706,80.0,3.0,-6.0
UncalGyro,1676593473756,30530578460066,0.1067487,-0.0030543262,0.48380527,0.00061732216,-0.0016944893,-0.00032312877
UncalAccel,1676593473760,30530582694950,2.5172493,-0.14416756,8.312068,0.037048545,-0.031444572,0.0098014325
OrientationDeg,1676593473760,30530582694950,80.0,3.0,-6.0
UncalMag,1676593473762,30530584577499,-194.5046,770.8326,390.2902,-174.57417,771.0116,430.86337
UncalGyro,1676593473764,30530586925225,0.2733622,0.08552113,0.6239988,0.00061732216,-0.0016944893,-0.00032312877
UncalAccel,1676593473769,30530591179254,2.2061825,0.8356933,8.333603,0.037048545,-0.031444572,0.0098014325
OrientationDeg,1676593473769,30530591179254,79.0,3.0,-7.0
UncalMag,1676593473772,30530594593612,-195.02919,770.7472,390.522,-174.57417,771.0116,430.86337
UncalGyro,1676593473773,30530595420760,0.3743077,0.16875152,0.6656904,0.00061732216,-0.0016944893,-0.00032312877
UncalAccel,1676593473777,30530599663975,1.6671991,1.9280169,9.245867,0.037048545,-0.031444572,0.0098014325
OrientationDeg,1676593473777,30530599663975,79.0,3.0,-7.0
UncalGyro,1676593473781,30530603901586,0.3764457,0.30497447,0.61712664,0.00061732216,-0.0016944893,-0.00032312877
UncalMag,1676593473782,30530604586044,-195.3098,771.2596,390.2902,-174.57417,771.0116,430.86337
UncalAccel,1676593473786,30530608140446,1.0971092,2.7589245,8.760722,0.037048545,-0.031444572,0.0098014325
OrientationDeg,1676593473786,30530608140446,79.0,3.0,-7.0
UncalGyro,1676593473790,30530612379379,0.24388795,0.29978213,0.47952923,0.00061732216,-0.0016944893,-0.00032312877
UncalMag,1676593473792,30530614593409,-195.1146,771.0888,390.6074,-174.57417,771.0116,430.86337
UncalAccel,1676593473794,30530616621760,0.9601201,3.611966,7.9680996,0.037048545,-0.031444572,0.0098014325
Fix,FLP,37.4313008000,-122.1550336000,-15.700000762939453,0.24688148,3.903,345.42276,1676593473561,,,30530383397856,2.3519082
OrientationDeg,1676593473794,30530616621760,78.0,3.0,-7.0
UncalGyro,1676593473798,30530620862564,-0.0016798794,0.14126259,0.27030787,0.00061732216,-0.0016944893,-0.00032312877
UncalMag,1676593473802,30530624593572,-194.7852,771.345,389.9364,-174.57417,771.0116,430.86337
UncalAccel,1676593473803,30530625099879,0.9170493,4.2927237,7.4679995,0.037048545,-0.031444572,0.0098014325
OrientationDeg,1676593473803,30530625099879,78.0,3.0,-7.0
UncalGyro,1676593473807,30530629343318,-0.29031372,-0.093767814,0.02321288,0.00061732216,-0.0016944893,-0.00032312877
UncalAccel,1676593473811,30530633583369,0.97806627,4.5708895,7.452446,0.037048545,-0.031444572,0.0098014325
UncalMag,1676593473812,30530634583034,-194.59,771.101,390.48538,-174.57417,771.0116,430.86337
OrientationDeg,1676593473811,30530633583369,78.0,3.0,-7.0
UncalGyro,1676593473815,30530637823105,-0.5928447,-0.29611692,-0.2322815,0.00061732216,-0.0016944893,-0.00032312877
UncalAccel,1676593473820,30530642054245,1.1521441,4.604987,7.820941,0.037048545,-0.031444572,0.0098014325
OrientationDeg,1676593473820,30530642054245,79.0,3.0,-7.0
UncalMag,1676593473822,30530644593532,-194.773,771.528,390.461,-174.57417,771.0116,430.86337
UncalGyro,1676593473824,30530646306972,-0.8765916,-0.4129449,-0.48502702,0.00061732216,-0.0016944893,-0.00032312877
UncalAccel,1676593473828,30530650545558,1.250848,4.336393,8.266604,0.037048545,-0.031444572,0.0098014325
OrientationDeg,1676593473828,30530650545558,79.0,2.0,-6.0
UncalMag,1676593473832,30530654593573,-195.2488,772.321,390.7904,-174.57417,771.0116,430.86337
UncalGyro,1676593473832,30530654787695,-1.0945178,-0.4897612,-0.71593404,0.00061732216,-0.0016944893,-0.00032312877
UncalAccel,1676593473837,30530659014715,1.2753744,3.502494,8.71466,0.037048545,-0.031444572,0.0098014325
OrientationDeg,1676593473837,30530659014715,79.0,2.0,-6.0
UncalGyro,1676593473841,30530663267554,-1.2012665,-0.56184334,-0.89843005,0.00061732216,-0.0016944893,-0.00032312877
UncalMag,1676593473842,30530664582750,-194.834,772.321,390.53418,-174.57417,771.0116,430.86337
UncalAccel,1676593473845,30530667506648,1.4793626,2.7888348,9.440284,0.037048545,-0.031444572,0.0098014325
OrientationDeg,1676593473845,30530667506648,80.0,2.0,-5.0
UncalGyro,1676593473849,30530671748012,-1.2110404,-0.54199016,-1.0428997,0.00061732216,-0.0016944893,-0.00032312877
UncalMag,1676593473852,30530674593370,-195.5416,772.748,390.6562,-174.57417,771.0116,430.86337
UncalAccel,1676593473853,30530675976111,1.9220347,2.1529422,10.195817,0.037048545,-0.031444572,0.0098014325
OrientationDeg,1676593473853,30530675976111,80.0,2.0,-4.0
UncalGyro,1676593473858,30530680227697,-1.1662945,-0.41034874,-1.1294898,0.00061732216,-0.0016944893,-0.00032312877
UncalAccel,1676593473862,30530684458208,2.4975085,1.4476577,10.456037,0.037048545,-0.031444572,0.0098014325
OrientationDeg,1676593473862,30530684458208,81.0,2.0,-4.0
UncalMag,1676593473862,30530684603665,-196.1028,772.0404,390.7416,-174.57417,771.0116,430.86337
UncalGyro,1676593473866,30530688712154,-1.0928379,-0.23701571,-1.128879,0.00061732216,-0.0016944893,-0.00032312877
UncalAccel,1676593473870,30530692945777,2.984448,0.76989067,10.472188,0.037048545,-0.031444572,0.0098014325
OrientationDeg,1676593473870,30530692945777,81.0,1.0,-3.0
UncalMag,1676593473872,30530694581489,-195.95639,772.8456,391.5346,-174.57417,771.0116,430.86337
UncalGyro,1676593473875,30530697193386,-1.0059423,-0.07849618,-1.0432051,0.00061732216,-0.0016944893,-0.00032312877
UncalAccel,1676593473879,30530701430487,3.225525,0.33080772,10.504492,0.037048545,-0.031444572,0.0098014325
OrientationDeg,1676593473879,30530701430487,82.0,1.0,-3.0
UncalMag,1676593473882,30530704582792,-196.1272,773.4312,390.8392,-174.57417,771.0116,430.86337
UncalGyro,1676593473883,30530705669787,-0.92255926,0.048716504,-0.9083566,0.00061732216,-0.0016944893,-0.00032312877
UncalAccel,1676593473887,30530709900794,3.2590244,0.1585245,10.65823,0.037048545,-0.031444572,0.0098014325
OrientationDeg,1676593473887,30530709900794,82.0,1.0,-2.0
UncalGyro,1676593473892,30530714153450,-0.84956086,0.16294831,-0.7538077,0.00061732216,-0.0016944893,-0.00032312877
UncalMag,1676593473892,30530714603055,-196.2614,772.9432,391.80298,-174.57417,771.0116,430.86337
UncalAccel,1676593473896,30530718392331,3.0412776,0.15194423,10.929217,0.037048545,-0.031444572,0.0098014325
OrientationDeg,1676593473896,30530718392331,82.0,2.0,-2.0
UncalGyro,1676593473900,30530722637204,-0.7877107,0.2750421,-0.59941155,0.00061732216,-0.0016944893,-0.00032312877
UncalMag,1676593473902,30530724593371,-196.2248,773.5288,391.2174,-174.57417,771.0116,430.86337
UncalAccel,1676593473904,30530726872596,2.5543382,0.36370903,11.297114,0.037048545,-0.031444572,0.0098014325
OrientationDeg,1676593473904,30530726872596,83.0,2.0,-2.0
UncalGyro,1676593473909,30530731114001,-0.7359399,0.3857614,-0.4888449,0.00061732216,-0.0016944893,-0.00032312877
UncalMag,1676593473912,30530734593412,-195.627,772.992,390.3512,-174.57417,771.0116,430.86337
UncalAccel,1676593473913,30530735353503,1.841277,0.7082755,11.763715,0.037048545,-0.031444572,0.0098014325
OrientationDeg,1676593473913,30530735353503,83.0,2.0,-1.0
UncalGyro,1676593473917,30530739595120,-0.70829827,0.49571714,-0.4531093,0.00061732216,-0.0016944893,-0.00032312877
UncalAccel,1676593473921,30530743834786,1.1533405,0.9667004,12.101701,0.037048545,-0.031444572,0.0098014325
OrientationDeg,1676593473921,30530743834786,83.0,2.0,-1.0
UncalMag,1676593473922,30530744592395,-195.3586,773.98016,391.193,-174.57417,771.0116,430.86337
UncalGyro,1676593473926,30530748076790,-0.71944654,0.58368176,-0.47876564,0.00061732216,-0.0016944893,-0.00032312877
UncalAccel,1676593473930,30530752314319,0.6119644,1.0109676,12.231511,0.037048545,-0.031444572,0.0098014325
OrientationDeg,1676593473930,30530752314319,83.0,3.0,0.0
UncalMag,1676593473932,30530754593576,-194.7486,773.6386,390.85138,-174.57417,771.0116,430.86337
UncalGyro,1676593473934,30530756553578,-0.7770206,0.63194007,-0.5300783,0.00061732216,-0.0016944893,-0.00032312877
UncalAccel,1676593473938,30530760795683,0.24466611,0.90807617,12.201003,0.037048545,-0.031444572,0.0098014325
OrientationDeg,1676593473938,30530760795683,84.0,3.0,0.0
UncalMag,1676593473942,30530764582956,-194.5412,773.724,390.6196,-174.57417,771.0116,430.86337
UncalGyro,1676593473943,30530765035032,-0.86742866,0.62964934,-0.5907067,0.00061732216,-0.0016944893,-0.00032312877
UncalAccel,1676593473947,30530769267057,0.04007978,0.72502524,12.171691,0.037048545,-0.031444572,0.0098014325
OrientationDeg,1676593473947,30530769267057,84.0,3.0,0.0
UncalGyro,1676593473951,30530773518299,-0.9671524,0.59559363,-0.6414085,0.00061732216,-0.0016944893,-0.00032312877
UncalMag,1676593473952,30530774584177,-194.5168,774.1632,390.7294,-174.57417,771.0116,430.86337
UncalAccel,1676593473955,30530777758075,-0.050249275,0.49950173,12.201003,0.037048545,-0.031444572,0.0098014325
OrientationDeg,1676593473955,30530777758075,84.0,3.0,0.0
UncalGyro,1676593473960,30530782002827,-1.0548116,0.56306505,-0.67271537,0.00061732216,-0.0016944893,-0.00032312877
UncalMag,1676593473962,30530784593414,-194.26059,774.7488,389.7656,-174.57417,771.0116,430.86337
UncalAccel,1676593473964,30530786238260,-0.096909314,0.2111666,12.32184,0.037048545,-0.031444572,0.0098014325
OrientationDeg,1676593473964,30530786238260,84.0,4.0,0.0
UncalGyro,1676593473968,30530790481098,-1.1160508,0.5357288,-0.68676525,0.00061732216,-0.0016944893,-0.00032312877
UncalMag,1676593473972,30530794593658,-194.8584,775.371,390.7782,-174.57417,771.0116,430.86337
UncalAccel,1676593473972,30530794719248,-0.08554341,-0.20518455,12.333206,0.037048545,-0.031444572,0.0098014325
OrientationDeg,1676593473972,30530794719248,85.0,4.0,1.0
UncalGyro,1676593473976,30530798961058,-1.1522446,0.49770245,-0.6750061,0.00061732216,-0.0016944893,-0.00032312877
UncalAccel,1676593473981,30530803200114,-0.00059820566,-0.7076773,12.202797,0.037048545,-0.031444572,0.0098014325
OrientationDeg,1676593473982,30530803200114,85.0,4.0,2.0
UncalMag,1676593473982,30530804581655,-193.98,775.9688,389.69238,-174.57417,771.0116,430.86337
UncalGyro,1676593473985,30530807441008,-1.1594223,0.4298964,-0.626595,0.00061732216,-0.0016944893,-0.00032312877
UncalAccel,1676593473989,30530811678435,0.13100705,-1.1234303,12.167503,0.037048545,-0.031444572,0.0098014325
OrientationDeg,1676593473989,30530811678435,85.0,4.0,2.0
UncalMag,1676593473992,30530814593659,-193.98,775.9688,389.69238,-174.57417,771.0116,430.86337
UncalGyro,1676593473993,30530815919535,-1.1343768,0.34468073,-0.5502369,0.00061732216,-0.0016944893,-0.00032312877
UncalAccel,1676593473998,30530820157898,0.24646074,-1.4057833,12.308082,0.037048545,-0.031444572,0.0098014325
OrientationDeg,1676593473998,30530820157898,85.0,4.0,3.0
UncalGyro,1676593474002,30530824403920,-1.069625,0.2706133,-0.46181414,0.00061732216,-0.0016944893,-0.00032312877
UncalMag,1676593474002,30530824600047,-194.1508,776.6642,389.8632,-174.57417,771.0116,430.86337
UncalAccel,1676593474006,30530828643574,0.32662028,-1.5493526,12.504891,0.037048545,-0.031444572,0.0098014325
OrientationDeg,1676593474006,30530828643574,86.0,4.0,3.0
UncalGyro,1676593474010,30530832885121,-0.97310835,0.22296582,-0.3642284,0.00061732216,-0.0016944893,-0.00032312877
UncalMag,1676593474012,30530834593415,-194.1508,776.6642,389.8632,-174.57417,771.0116,430.86337
UncalAccel,1676593474015,30530837123718,0.41694933,-1.66361,12.672987,0.037048545,-0.031444572,0.0098014325
OrientationDeg,1676593474015,30530837123718,86.0,5.0,4.0
UncalGyro,1676593474019,30530841364940,-0.8542951,0.21212296,-0.26068676,0.00061732216,-0.0016944893,-0.00032312877
UncalMag,1676593474022,30530844593415,-193.4066,776.8594,390.00958,-174.57417,771.0116,430.86337
UncalAccel,1676593474023,30530845602326,0.51266223,-1.783251,12.736397,0.037048545,-0.031444572,0.0098014325
OrientationDeg,1676593474023,30530845602326,86.0,5.0,4.0
UncalGyro,1676593474027,30530849834218,-0.7287622,0.23105977,-0.14676037,0.00061732216,-0.0016944893,-0.00032312877
UncalAccel,1676593474032,30530854074982,0.63230336,-1.7922242,12.803994,0.037048545,-0.031444572,0.0098014325
UncalMag,1676593474032,30530854591015,-193.5896,777.37177,389.53378,-174.57417,771.0116,430.86337
OrientationDeg,1676593474032,30530854074982,86.0,5.0,4.0
UncalGyro,1676593474036,30530858327780,-0.6009387,0.28023443,-0.027183503,0.00061732216,-0.0016944893,-0.00032312877
UncalAccel,1676593474040,30530862568696,0.7040881,-1.7288144,12.704094,0.037048545,-0.031444572,0.0098014325
OrientationDeg,1676593474040,30530862568696,86.0,5.0,5.0
UncalMag,1676593474042,30530864583162,-193.5408,778.0794,389.8266,-174.57417,771.0116,430.86337
UncalGyro,1676593474044,30530866810324,-0.47708577,0.34681875,0.10140363,0.00061732216,-0.0016944893,-0.00032312877
UncalAccel,1676593474049,30530871045919,0.6520442,-1.5804594,12.502499,0.037048545,-0.031444572,0.0098014325
OrientationDeg,1676593474049,30530871045919,86.0,5.0,5.0
UncalMag,1676593474052,30530874593619,-192.40619,777.9208,389.7534,-174.57417,771.0116,430.86337
UncalGyro,1676593474053,30530875284984,-0.3651447,0.4166101,0.226631,0.00061732216,-0.0016944893,-0.00032312877
UncalAccel,1676593474057,30530879528056,0.50488555,-1.2981063,12.208779,0.037048545,-0.031444572,0.0098014325
OrientationDeg,1676593474057,30530879528056,85.0,5.0,5.0
UncalGyro,1676593474061,30530883770173,-0.2680171,0.47235155,0.32925636,0.00061732216,-0.0016944893,-0.00032312877
UncalMag,1676593474062,30530884583081,-193.15039,777.6646,390.5586,-174.57417,771.0116,430.86337
UncalAccel,1676593474066,30530888004823,0.29012975,-0.95413804,11.876775,0.037048545,-0.031444572,0.0098014325
OrientationDeg,1676593474066,30530888004823,85.0,6.0,5.0
UncalGyro,1676593474070,30530892231640,-0.19013181,0.50991976,0.40653083,0.00061732216,-0.0016944893,-0.00032312877
UncalMag,1676593474072,30530894593620,-192.7112,777.9208,390.00958,-174.57417,771.0116,430.86337
UncalAccel,1676593474074,30530896489382,0.08015956,-0.6436693,11.568101,0.037048545,-0.031444572,0.0098014325
OrientationDeg,1676593474074,30530896489382,85.0,6.0,5.0
UncalGyro,1676593474078,30530900731071,-0.12690726,0.5320636,0.45937067,0.00061732216,-0.0016944893,-0.00032312877
