# 
# Header Description:
# 
# Version: v3.0.5.6 Platform: 13 Manufacturer: Google Model: Pixel 7
# 
# Raw,utcTimeMillis,TimeNanos,LeapSecond,TimeUncertaintyNanos,FullBiasNanos,BiasNanos,BiasUncertaintyNanos,DriftNanosPerSecond,DriftUncertaintyNanosPerSecond,HardwareClockDiscontinuityCount,Svid,TimeOffsetNanos,State,ReceivedSvTimeNanos,ReceivedSvTimeUncertaintyNanos,Cn0DbHz,PseudorangeRateMetersPerSecond,PseudorangeRateUncertaintyMetersPerSecond,AccumulatedDeltaRangeState,AccumulatedDeltaRangeMeters,AccumulatedDeltaRangeUncertaintyMeters,CarrierFrequencyHz,CarrierCycles,CarrierPhase,CarrierPhaseUncertainty,MultipathIndicator,SnrInDb,ConstellationType,AgcDb,BasebandCn0DbHz,FullInterSignalBiasNanos,FullInterSignalBiasUncertaintyNanos,SatelliteInterSignalBiasNanos,SatelliteInterSignalBiasUncertaintyNanos,CodeType,ChipsetElapsedRealtimeNanos
# 
# UncalAccel,utcTimeMillis,elapsedRealtimeNanos,UncalAccelXMps2,UncalAccelYMps2,UncalAccelZMps2,BiasXMps2,BiasYMps2,BiasZMps2
# 
# Accel,utcTimeMillis,elapsedRealtimeNanos,AccelXMps2,AccelYMps2,AccelZMps2
# 
# UncalGyro,utcTimeMillis,elapsedRealtimeNanos,UncalGyroXRadPerSec,UncalGyroYRadPerSec,UncalGyroZRadPerSec,DriftXRadPerSec,DriftYRadPerSec,DriftZRadPerSec
# 
# Gyro,utcTimeMillis,elapsedRealtimeNanos,GyroXRadPerSec,GyroYRadPerSec,GyroZRadPerSec
# 
# UncalMag,utcTimeMillis,elapsedRealtimeNanos,UncalMagXMicroT,UncalMagYMicroT,UncalMagZMicroT,BiasXMicroT,BiasYMicroT,BiasZMicroT
# 
# Mag,utcTimeMillis,elapsedRealtimeNanos,MagXMicroT,MagYMicroT,MagZMicroT
# 
# OrientationDeg,utcTimeMillis,elapsedRealtimeNanos,yawDeg,rollDeg,pitchDeg
# 
# Fix,Provider,LatitudeDegrees,LongitudeDegrees,AltitudeMeters,SpeedMps,AccuracyMeters,BearingDegrees,UnixTimeMillis,SpeedAccuracyMps,BearingAccuracyDegrees,elapsedRealtimeNanos,VerticalAccuracyMeters
# 
# Nav,Svid,Type,Status,MessageId,Sub-messageId,Data(Bytes)
# 
# Status,UnixTimeMillis,SignalCount,SignalIndex,ConstellationType,Svid,CarrierFrequencyHz,Cn0DbHz,AzimuthDegrees,ElevationDegrees,UsedInFix,HasAlmanacData,HasEphemerisData,BasebandCn0DbHz
# 
UncalAccel,1676594569266,31626088596941,0.5982057,1.2993027,16.05883,0.037048545,-0.031444572,0.0098014325
UncalGyro,1676594569270,31626092837216,-0.40866885,0.7368562,-0.12675454,-0.00038485642,-0.0017173458,-0.00033888634
UncalAccel,1676594569275,31626097077490,0.40977088,0.91525465,15.940386,0.037048545,-0.031444572,0.0098014325
UncalGyro,1676594569279,31626101307706,-0.38056904,0.4007276,-0.08170322,-0.00038485642,-0.0017173458,-0.00033888634
UncalGyro,1676594569287,31626109788868,-0.27763826,0.07574729,0.0,-0.00038485642,-0.0017173458,-0.00033888634
UncalAccel,1676594569283,31626105550616,0.39541394,0.3786642,15.64248,0.037048545,-0.031444572,0.0098014325
UncalMag,1676594569272,31626094932962,-161.9916,752.1422,393.4744,-174.57417,771.0116,430.86337
UncalMag,1676594569282,31626104939757,-161.7476,752.6546,393.1084,-174.57417,771.0116,430.86337
Fix,FLP,37.4311267000,-122.1551581000,-16.100000381469727,0.22612415,4.172,244.71953,1676594568812,,,31625634887967,2.7265003
OrientationDeg,1676594569283,31626105550616,228.0,-6.0,-6.0
UncalAccel,1676594569293,31626114029103,0.44985065,-0.12263216,15.120246,0.037048545,-0.031444572,0.0098014325
OrientationDeg,1676594569292,31626114029103,228.0,-6.0,-6.0
UncalMag,1676594569292,31626114933450,-161.4426,752.4472,391.8396,-174.57417,771.0116,430.86337
UncalMag,1676594569302,31626124932922,-161.2108,752.91077,392.5594,-174.57417,771.0116,430.86337
UncalGyro,1676594569296,31626118270537,-0.105068825,-0.2125811,0.09743301,-0.00038485642,-0.0017173458,-0.00033888634
UncalGyro,1676594569304,31626126753741,0.10980303,-0.43203443,0.18448131,-0.00038485642,-0.0017173458,-0.00033888634
UncalAccel,1676594569300,31626122509785,0.590429,-0.50428736,14.512469,0.037048545,-0.031444572,0.0098014325
UncalMag,1676594569312,31626134934753,-161.4426,752.6302,392.0104,-174.57417,771.0116,430.86337
UncalGyro,1676594569313,31626135230539,0.33108896,-0.5493206,0.24648413,-0.00038485642,-0.0017173458,-0.00033888634
UncalAccel,1676594569308,31626130989226,0.8446664,-0.8177471,13.975879,0.037048545,-0.031444572,0.0098014325
UncalAccel,1676594569317,31626139468881,1.1856437,-1.0396814,13.330415,0.037048545,-0.031444572,0.0098014325
OrientationDeg,1676594569300,31626122509785,228.0,-6.0,-6.0
OrientationDeg,1676594569308,31626130989226,228.0,-7.0,-6.0
OrientationDeg,1676594569317,31626139468881,228.0,-7.0,-7.0
UncalGyro,1676594569321,31626143711812,0.54305923,-0.5671884,0.269697,-0.00038485642,-0.0017173458,-0.00033888634
UncalMag,1676594569322,31626144932800,-162.4064,752.15436,391.43698,-174.57417,771.0116,430.86337
UncalAccel,1676594569325,31626147953806,1.5804594,-1.2562319,12.498311,0.037048545,-0.031444572,0.0098014325
OrientationDeg,1676594569325,31626147953806,228.0,-7.0,-7.0
UncalGyro,1676594569330,31626152197214,0.72509706,-0.51083606,0.25137106,-0.00038485642,-0.0017173458,-0.00033888634
UncalMag,1676594569332,31626154935811,-162.6138,752.1788,392.413,-174.57417,771.0116,430.86337
UncalAccel,1676594569334,31626156432921,2.0841484,-1.4338989,11.767901,0.037048545,-0.031444572,0.0098014325
OrientationDeg,1676594569334,31626156432921,228.0,-8.0,-7.0
UncalGyro,1676594569338,31626160673898,0.8425359,-0.3848451,0.19608775,-0.00038485642,-0.0017173458,-0.00033888634
UncalAccel,1676594569342,31626164913045,2.585445,-1.5403795,11.370693,0.037048545,-0.031444572,0.0098014325
OrientationDeg,1676594569342,31626164913045,227.0,-8.0,-8.0
UncalMag,1676594569342,31626164946350,-162.80899,750.7148,392.91318,-174.57417,771.0116,430.86337
UncalGyro,1676594569347,31626169156157,0.883922,-0.18768835,0.11209377,-0.00038485642,-0.0017173458,-0.00033888634
UncalAccel,1676594569351,31626173397094,3.0089746,-1.6618153,11.106286,0.037048545,-0.031444572,0.0098014325
UncalMag,1676594569352,31626174932882,-162.80899,750.7148,392.91318,-174.57417,771.0116,430.86337
OrientationDeg,1676594569351,31626173397094,227.0,-8.0,-8.0
UncalGyro,1676594569355,31626177636128,0.860251,0.038331795,0.0067195175,-0.00038485642,-0.0017173458,-0.00033888634
UncalAccel,1676594569359,31626181874227,3.260819,-1.7461623,10.707881,0.037048545,-0.031444572,0.0098014325
OrientationDeg,1676594569359,31626181874227,227.0,-8.0,-8.0
UncalMag,1676594569362,31626184933167,-162.4064,750.56836,393.8404,-174.57417,771.0116,430.86337
UncalGyro,1676594569364,31626186114624,0.7974846,0.22785273,-0.114689946,-0.00038485642,-0.0017173458,-0.00033888634
UncalAccel,1676594569368,31626190353882,3.2937205,-1.8550358,10.231112,0.037048545,-0.031444572,0.0098014325
OrientationDeg,1676594569368,31626190353882,227.0,-8.0,-9.0
UncalGyro,1676594569372,31626194596355,0.7160868,0.34468073,-0.24495697,-0.00038485642,-0.0017173458,-0.00033888634
UncalMag,1676594569372,31626194932883,-162.49179,750.7514,393.8892,-174.57417,771.0116,430.86337
UncalAccel,1676594569376,31626198834931,3.1812577,-2.0422742,10.054641,0.037048545,-0.031444572,0.0098014325
OrientationDeg,1676594569376,31626198834931,228.0,-8.0,-9.0
UncalGyro,1676594569381,31626203078472,0.6262896,0.40943244,-0.37507126,-0.00038485642,-0.0017173458,-0.00033888634
UncalMag,1676594569382,31626204935894,-162.49179,750.7514,393.8892,-174.57417,771.0116,430.86337
UncalAccel,1676594569385,31626207318115,2.9006991,-2.312065,10.054043,0.037048545,-0.031444572,0.0098014325
OrientationDeg,1676594569385,31626207318115,228.0,-7.0,-9.0
UncalGyro,1676594569389,31626211558269,0.5381723,0.42562035,-0.5164866,-0.00038485642,-0.0017173458,-0.00033888634
UncalMag,1676594569392,31626214933127,-162.2356,749.7876,393.76718,-174.57417,771.0116,430.86337
UncalAccel,1676594569393,31626215794840,2.7014968,-2.452045,9.88176,0.037048545,-0.031444572,0.0098014325
OrientationDeg,1676594569393,31626215794840,228.0,-7.0,-10.0
UncalGyro,1676594569398,31626220037150,0.45631635,0.38637227,-0.65668017,-0.00038485642,-0.0017173458,-0.00033888634
UncalAccel,1676594569402,31626224276999,2.6165516,-2.5004997,9.7812605,0.037048545,-0.031444572,0.0098014325
UncalMag,1676594569402,31626224932680,-162.1136,750.117,392.9986,-174.57417,771.0116,430.86337
OrientationDeg,1676594569402,31626224276999,228.0,-7.0,-10.0
OrientationDeg,1676594569410,31626232757386,229.0,-7.0,-10.0
UncalGyro,1676594569406,31626228517050,0.38240165,0.30695978,-0.7835874,-0.00038485642,-0.0017173458,-0.00033888634
UncalAccel,1676594569410,31626232757386,2.6991038,-2.5860431,9.672387,0.037048545,-0.031444572,0.0098014325
UncalMag,1676594569412,31626234932924,-160.9912,749.82416,393.9868,-174.57417,771.0116,430.86337
UncalGyro,1676594569415,31626237000215,0.31444287,0.19715676,-0.8856019,-0.00038485642,-0.0017173458,-0.00033888634
UncalAccel,1676594569419,31626241237581,2.8486555,-2.6853452,9.597611,0.037048545,-0.031444572,0.0098014325
OrientationDeg,1676594569419,31626241237581,229.0,-7.0,-10.0
UncalMag,1676594569422,31626244936383,-161.5158,749.7388,394.4626,-174.57417,771.0116,430.86337
UncalGyro,1676594569423,31626245481153,0.24740042,0.07895433,-0.9595166,-0.00038485642,-0.0017173458,-0.00033888634
UncalAccel,1676594569427,31626249717490,2.9922247,-2.737389,9.613165,0.037048545,-0.031444572,0.0098014325
OrientationDeg,1676594569427,31626249717490,230.0,-6.0,-10.0
UncalGyro,1676594569431,31626253962730,0.17486018,-0.02397646,-1.014189,-0.00038485642,-0.0017173458,-0.00033888634
UncalMag,1676594569432,31626254932721,-161.58899,750.15356,393.71838,-174.57417,771.0116,430.86337
UncalAccel,1676594569436,31626258197775,3.1537402,-2.7559335,9.771689,0.037048545,-0.031444572,0.0098014325
OrientationDeg,1676594569436,31626258197775,230.0,-6.0,-10.0
UncalGyro,1676594569440,31626262437045,0.09758572,-0.098807454,-1.0618365,-0.00038485642,-0.0017173458,-0.00033888634
UncalMag,1676594569442,31626264935773,-161.0522,750.5318,394.40158,-174.57417,771.0116,430.86337
UncalAccel,1676594569445,31626266679923,3.286542,-2.6829524,9.862617,0.037048545,-0.031444572,0.0098014325
OrientationDeg,1676594569444,31626266679923,231.0,-6.0,-10.0
UncalGyro,1676594569448,31626270921155,0.026267206,-0.16554448,-1.1236867,-0.00038485642,-0.0017173458,-0.00033888634
UncalMag,1676594569452,31626274933902,-160.9424,750.5196,393.9136,-174.57417,771.0116,430.86337
UncalAccel,1676594569453,31626275159050,3.3003006,-2.6015964,9.88176,0.037048545,-0.031444572,0.0098014325
OrientationDeg,1676594569453,31626275159050,231.0,-6.0,-10.0
UncalGyro,1676594569457,31626279396832,-0.032528576,-0.24281894,-1.2116512,-0.00038485642,-0.0017173458,-0.00033888634
UncalAccel,1676594569461,31626283644117,3.1806595,-2.626123,9.909875,0.037048545,-0.031444572,0.0098014325
UncalMag,1676594569462,31626284932885,-160.125,750.178,393.81598,-174.57417,771.0116,430.86337
OrientationDeg,1676594569461,31626283644117,232.0,-6.0,-10.0
UncalGyro,1676594569465,31626287888817,-0.079107046,-0.33001995,-1.3211488,-0.00038485642,-0.0017173458,-0.00033888634
UncalAccel,1676594569470,31626292123661,3.042474,-2.6225336,9.870394,0.037048545,-0.031444572,0.0098014325
OrientationDeg,1676594569470,31626292123661,232.0,-7.0,-10.0
UncalMag,1676594569472,31626294934024,-159.9908,750.8002,394.0722,-174.57417,771.0116,430.86337
UncalGyro,1676594569474,31626296361178,-0.12522738,-0.44150287,-1.4430164,-0.00038485642,-0.0017173458,-0.00033888634
UncalAccel,1676594569478,31626300601922,2.9760733,-2.5411777,9.717253,0.037048545,-0.031444572,0.0098014325
OrientationDeg,1676594569478,31626300601922,233.0,-7.0,-10.0
UncalGyro,1676594569482,31626304846388,-0.1731803,-0.593761,-1.5647314,-0.00038485642,-0.0017173458,-0.00033888634
UncalMag,1676594569482,31626304939477,-160.18599,750.9588,393.511,-174.57417,771.0116,430.86337
UncalAccel,1676594569488,31626309083011,2.885744,-2.5513473,9.616156,0.037048545,-0.031444572,0.0098014325
OrientationDeg,1676594569487,31626309083011,234.0,-7.0,-10.0
UncalGyro,1676594569491,31626313323114,-0.22311853,-0.75670934,-1.6798794,-0.00038485642,-0.0017173458,-0.00033888634
UncalMag,1676594569492,31626314930729,-160.2836,750.9588,393.633,-174.57417,771.0116,430.86337
UncalAccel,1676594569495,31626317563245,2.7762725,-2.5519454,9.610772,0.037048545,-0.031444572,0.0098014325
OrientationDeg,1676594569495,31626317563245,235.0,-7.0,-10.0
UncalGyro,1676594569499,31626321806308,-0.27015516,-0.90178984,-1.7852536,-0.00038485642,-0.0017173458,-0.00033888634
UncalMag,1676594569502,31626324935897,-159.9176,751.83716,393.5964,-174.57417,771.0116,430.86337
UncalAccel,1676594569504,31626326043938,2.6518457,-2.3461626,9.4229355,0.037048545,-0.031444572,0.0098014325
OrientationDeg,1676594569504,31626326043938,236.0,-7.0,-10.0
UncalGyro,1676594569508,31626330285037,-0.30115658,-1.0407617,-1.8889481,-0.00038485642,-0.0017173458,-0.00033888634
UncalAccel,1676594569512,31626334523797,2.528017,-2.082952,9.153145,0.037048545,-0.031444572,0.0098014325
UncalMag,1676594569512,31626334933334,-160.1006,752.3374,392.8766,-174.57417,771.0116,430.86337
OrientationDeg,1676594569512,31626334523797,237.0,-8.0,-10.0
UncalGyro,1676594569516,31626338767724,-0.32238412,-1.1687379,-1.9889772,-0.00038485642,-0.0017173458,-0.00033888634
UncalAccel,1676594569521,31626343006006,2.4939194,-1.8915263,9.114262,0.037048545,-0.031444572,0.0098014325
UncalMag,1676594569522,31626344932968,-160.2104,752.2398,392.7302,-174.57417,771.0116,430.86337
OrientationDeg,1676594569521,31626343006006,238.0,-8.0,-10.0
UncalGyro,1676594569525,31626347247847,-0.35323283,-1.2664764,-2.0705278,-0.00038485642,-0.0017173458,-0.00033888634
UncalAccel,1676594569529,31626351483861,2.455036,-1.7240287,9.11785,0.037048545,-0.031444572,0.0098014325
OrientationDeg,1676594569529,31626351483861,239.0,-9.0,-10.0
UncalMag,1676594569532,31626354940089,-160.5886,752.923,392.413,-174.57417,771.0116,430.86337
UncalGyro,1676594569533,31626355726322,-0.4025602,-1.3338243,-2.1343632,-0.00038485642,-0.0017173458,-0.00033888634
UncalAccel,1676594569537,31626359964227,2.2390838,-1.524228,9.014959,0.037048545,-0.031444572,0.0098014325
OrientationDeg,1676594569537,31626359964227,240.0,-9.0,-10.0
UncalGyro,1676594569542,31626364207189,-0.46120325,-1.3787229,-2.1913264,-0.00038485642,-0.0017173458,-0.00033888634
UncalMag,1676594569542,31626364932968,-160.77159,753.167,391.9982,-174.57417,771.0116,430.86337
UncalAccel,1676594569546,31626368447555,1.8658035,-1.3250256,8.930613,0.037048545,-0.031444572,0.0098014325
OrientationDeg,1676594569546,31626368447555,241.0,-10.0,-10.0
UncalGyro,1676594569550,31626372688777,-0.5196936,-1.4051428,-2.2449298,-0.00038485642,-0.0017173458,-0.00033888634
UncalMag,1676594569552,31626374924057,-160.857,753.5086,391.8396,-174.57417,771.0116,430.86337
UncalAccel,1676594569554,31626376927108,1.3244274,-1.0887343,8.882756,0.037048545,-0.031444572,0.0098014325
OrientationDeg,1676594569554,31626376927108,242.0,-10.0,-10.0
UncalGyro,1676594569559,31626381166977,-0.5693264,-1.420109,-2.2840252,-0.00038485642,-0.0017173458,-0.00033888634
UncalMag,1676594569562,31626384935044,-160.6862,754.631,391.498,-174.57417,771.0116,430.86337
UncalAccel,1676594569563,31626385406316,0.73100734,-0.81954175,8.734999,0.037048545,-0.031444572,0.0098014325
OrientationDeg,1676594569563,31626385406316,243.0,-11.0,-10.0
UncalGyro,1676594569567,31626389649185,-0.6020077,-1.4262177,-2.284636,-0.00038485642,-0.0017173458,-0.00033888634
UncalAccel,1676594569571,31626393890986,0.29192436,-0.56769717,8.492127,0.037048545,-0.031444572,0.0098014325
OrientationDeg,1676594569571,31626393890986,245.0,-11.0,-9.0
UncalMag,1676594569572,31626394933010,-160.8692,755.13116,390.9002,-174.57417,771.0116,430.86337
UncalGyro,1676594569576,31626398130590,-0.6224717,-1.4390458,-2.2215643,-0.00038485642,-0.0017173458,-0.00033888634
UncalAccel,1676594569580,31626402371150,0.029312078,-0.44925246,8.274979,0.037048545,-0.031444572,0.0098014325
OrientationDeg,1676594569580,31626402371150,246.0,-12.0,-9.0
UncalMag,1676594569582,31626404933132,-161.2596,755.4728,390.7416,-174.57417,771.0116,430.86337
UncalGyro,1676594569584,31626406609991,-0.64568454,-1.4564555,-2.0793853,-0.00038485642,-0.0017173458,-0.00033888634
UncalAccel,1676594569588,31626410851883,-0.09032906,-0.39720857,8.278568,0.037048545,-0.031444572,0.0098014325
OrientationDeg,1676594569588,31626410851883,247.0,-12.0,-9.0
UncalMag,1676594569592,31626414934272,-161.6256,756.339,390.7172,-174.57417,771.0116,430.86337
UncalGyro,1676594569593,31626415092566,-0.69043046,-1.472338,-1.8648189,-0.00038485642,-0.0017173458,-0.00033888634
UncalAccel,1676594569597,31626419329423,-0.12801601,-0.36909288,8.225926,0.037048545,-0.031444572,0.0098014325
OrientationDeg,1676594569597,31626419329423,248.0,-13.0,-9.0
UncalGyro,1676594569601,31626423575191,-0.75579304,-1.4839444,-1.596649,-0.00038485642,-0.0017173458,-0.00033888634
UncalMag,1676594569602,31626424938829,-161.833,756.4122,390.4976,-174.57417,771.0116,430.86337
UncalAccel,1676594569605,31626427811407,-0.046660043,-0.32482567,8.182856,0.037048545,-0.031444572,0.0098014325
OrientationDeg,1676594569605,31626427811407,248.0,-13.0,-9.0
UncalGyro,1676594569610,31626432051276,-0.82772243,-1.4648548,-1.3125967,-0.00038485642,-0.0017173458,-0.00033888634
UncalMag,1676594569612,31626434936022,-161.88179,757.193,390.4488,-174.57417,771.0116,430.86337
UncalAccel,1676594569614,31626436290289,-0.019740786,-0.17647067,8.297112,0.037048545,-0.031444572,0.0098014325
OrientationDeg,1676594569614,31626436290289,249.0,-14.0,-9.0
UncalGyro,1676594569618,31626440531103,-0.8866709,-1.3778065,-1.057255,-0.00038485642,-0.0017173458,-0.00033888634
UncalAccel,1676594569622,31626444775876,-0.09750752,0.12981063,8.242676,0.037048545,-0.031444572,0.0098014325
OrientationDeg,1676594569622,31626444775876,250.0,-14.0,-8.0
UncalMag,1676594569622,31626444937487,-162.8944,757.742,389.2776,-174.57417,771.0116,430.86337
UncalGyro,1676594569627,31626449024472,-0.9091202,-1.2428054,-0.86177814,-0.00038485642,-0.0017173458,-0.00033888634
UncalAccel,1676594569631,31626453264096,-0.30388847,0.39182472,8.149356,0.037048545,-0.031444572,0.0098014325
OrientationDeg,1676594569631,31626453264096,250.0,-15.0,-8.0
UncalMag,1676594569632,31626454950589,-163.1994,758.0226,389.94858,-174.57417,771.0116,430.86337
UncalGyro,1676594569635,31626457505448,-0.8846856,-1.0586295,-0.7257079,-0.00038485642,-0.0017173458,-0.00033888634
UncalAccel,1676594569639,31626461741940,-0.42891344,0.60658056,8.109276,0.037048545,-0.031444572,0.0098014325
OrientationDeg,1676594569639,31626461741940,251.0,-15.0,-8.0
UncalMag,1676594569642,31626464943469,-163.28479,758.2422,388.8018,-174.57417,771.0116,430.86337
UncalGyro,1676594569643,31626465984290,-0.829555,-0.83169305,-0.63300914,-0.00038485642,-0.0017173458,-0.00033888634
UncalAccel,1676594569648,31626470222165,-0.5401797,0.77347994,8.09791,0.037048545,-0.031444572,0.0098014325
OrientationDeg,1676594569648,31626470222165,251.0,-15.0,-7.0
UncalGyro,1676594569652,31626474463794,-0.7687739,-0.5832236,-0.5636759,-0.00038485642,-0.0017173458,-0.00033888634
UncalMag,1676594569652,31626474919381,-163.3458,758.93756,388.4846,-174.57417,771.0116,430.86337
UncalAccel,1676594569656,31626478702654,-0.6269195,0.92662054,8.087142,0.037048545,-0.031444572,0.0098014325
OrientationDeg,1676594569656,31626478702654,251.0,-15.0,-7.0
UncalGyro,1676594569660,31626482944374,-0.72250086,-0.34315357,-0.5002986,-0.00038485642,-0.0017173458,-0.00033888634
UncalMag,1676594569662,31626484943388,-163.0896,759.6452,388.8872,-174.57417,771.0116,430.86337
UncalAccel,1676594569665,31626487183835,-0.7082755,1.1276177,7.9423766,0.037048545,-0.031444572,0.0098014325
OrientationDeg,1676594569665,31626487183835,252.0,-15.0,-7.0
UncalGyro,1676594569669,31626491423388,-0.70448035,-0.13729197,-0.42623124,-0.00038485642,-0.0017173458,-0.00033888634
UncalMag,1676594569672,31626494943592,-163.6142,759.7062,388.31378,-174.57417,771.0116,430.86337
UncalAccel,1676594569673,31626495653328,-0.8045866,1.3998013,7.8400836,0.037048545,-0.031444572,0.0098014325
OrientationDeg,1676594569673,31626495653328,252.0,-15.0,-6.0
UncalGyro,1676594569677,31626499904641,-0.71593404,0.045356743,-0.33505958,-0.00038485642,-0.0017173458,-0.00033888634
UncalAccel,1676594569682,31626504140562,-0.8997013,1.6821543,7.6331043,0.037048545,-0.031444572,0.0098014325
OrientationDeg,1676594569682,31626504140562,252.0,-15.0,-6.0
UncalMag,1676594569682,31626504932809,-163.297,759.8038,388.448,-174.57417,771.0116,430.86337
UncalGyro,1676594569686,31626508387296,-0.7725918,0.19898935,-0.22036964,-0.00038485642,-0.0017173458,-0.00033888634
UncalAccel,1676594569691,31626512632740,-0.92482597,1.9411774,7.560123,0.037048545,-0.031444572,0.0098014325
OrientationDeg,1676594569690,31626512632740,252.0,-15.0,-6.0
UncalMag,1676594569692,31626514931263,-163.3824,760.0722,388.509,-174.57417,771.0116,430.86337
UncalGyro,1676594569694,31626516867155,-0.88438016,0.30405816,-0.0842994,-0.00038485642,-0.0017173458,-0.00033888634
UncalAccel,1676594569699,31626521106820,-0.95413804,2.027319,7.569096,0.037048545,-0.031444572,0.0098014325
OrientationDeg,1676594569699,31626521106820,252.0,-15.0,-5.0
UncalMag,1676594569702,31626524932810,-163.3336,760.8774,389.18,-174.57417,771.0116,430.86337
UncalGyro,1676594569703,31626525341450,-1.0520626,0.37659842,0.0729984,-0.00038485642,-0.0017173458,-0.00033888634
UncalAccel,1676594569707,31626529567534,-0.8853444,1.7120646,10.091131,0.037048545,-0.031444572,0.0098014325
OrientationDeg,1676594569707,31626529567534,252.0,-15.0,-5.0
UncalGyro,1676594569711,31626533826578,-1.2011138,0.79351395,0.25320363,-0.00038485642,-0.0017173458,-0.00033888634
UncalMag,1676594569712,31626534934071,-163.4922,761.6094,387.9112,-174.57417,771.0116,430.86337
UncalAccel,1676594569716,31626538066913,-1.3112668,2.1948166,9.169296,0.037048545,-0.031444572,0.0098014325
OrientationDeg,1676594569716,31626538066913,252.0,-14.0,-4.0
UncalGyro,1676594569720,31626542313069,-1.2730432,0.9682214,0.39202276,-0.00038485642,-0.0017173458,-0.00033888634
UncalMag,1676594569722,31626544943430,-162.8578,761.80457,388.1918,-174.57417,771.0116,430.86337
UncalAccel,1676594569724,31626546547911,-1.0959128,2.248655,14.883357,0.037048545,-0.031444572,0.0098014325
OrientationDeg,1676594569724,31626546547911,252.0,-13.0,-4.0
UncalGyro,1676594569728,31626550788655,-0.86208355,1.8898643,0.65270954,-0.00038485642,-0.0017173458,-0.00033888634
UncalMag,1676594569732,31626554943390,-162.5528,761.7314,388.3992,-174.57417,771.0116,430.86337
UncalAccel,1676594569733,31626555029153,-0.054436713,2.2007985,7.4159555,0.037048545,-0.031444572,0.0098014325
OrientationDeg,1676594569733,31626555029153,252.0,-12.0,-3.0
UncalGyro,1676594569737,31626559274464,-0.54076844,1.7550159,0.8782715,-0.00038485642,-0.0017173458,-0.00033888634
UncalAccel,1676594569741,31626563507863,-0.59342,2.1475582,8.544171,0.037048545,-0.031444572,0.0098014325
UncalMag,1676594569742,31626564932770,-161.772,762.42676,387.5818,-174.57417,771.0116,430.86337
OrientationDeg,1676594569741,31626563507863,252.0,-12.0,-3.0
UncalGyro,1676594569745,31626567746724,-0.2640465,1.6812539,1.075581,-0.00038485642,-0.0017173458,-0.00033888634
UncalAccel,1676594569749,31626571988047,-0.5024927,1.9130617,8.655437,0.037048545,-0.031444572,0.0098014325
OrientationDeg,1676594569749,31626571988047,251.0,-11.0,-3.0
UncalMag,1676594569752,31626574940298,-160.9424,762.3902,388.8872,-174.57417,771.0116,430.86337
UncalGyro,1676594569754,31626576230590,0.020005837,1.1586586,1.5436565,-0.00038485642,-0.0017173458,-0.00033888634
UncalAccel,1676594569758,31626580470397,-5.933602,0.23988047,6.4151573,0.037048545,-0.031444572,0.0098014325
OrientationDeg,1676594569758,31626580470397,250.0,-11.0,-3.0
UncalGyro,1676594569762,31626584710754,0.90209526,0.16355917,3.1192307,-0.00038485642,-0.0017173458,-0.00033888634
UncalMag,1676594569762,31626584931631,-160.3324,762.0364,388.3016,-174.57417,771.0116,430.86337
UncalAccel,1676594569766,31626588950368,-3.048456,3.7507496,20.328224,0.037048545,-0.031444572,0.0098014325
OrientationDeg,1676594569766,31626588950368,248.0,-10.0,-3.0
UncalGyro,1676594569771,31626593189871,1.3509285,1.1820242,3.7073412,-0.00038485642,-0.0017173458,-0.00033888634
UncalMag,1676594569772,31626594943472,-160.3934,761.1214,389.6558,-174.57417,771.0116,430.86337
UncalAccel,1676594569775,31626597418590,0.9876375,4.6815577,11.486147,0.037048545,-0.031444572,0.0098014325
OrientationDeg,1676594569775,31626597418590,246.0,-10.0,-3.0
UncalGyro,1676594569779,31626601664724,0.9624182,1.297936,3.5121698,-0.00038485642,-0.0017173458,-0.00033888634
UncalMag,1676594569782,31626604943432,-160.8448,760.52356,390.2536,-174.57417,771.0116,430.86337
UncalAccel,1676594569783,31626605911366,-0.16689938,3.685545,9.832706,0.037048545,-0.031444572,0.0098014325
OrientationDeg,1676594569783,31626605911366,244.0,-9.0,-3.0
UncalGyro,1676594569788,31626610155568,0.31627548,1.2565498,3.1366403,-0.00038485642,-0.0017173458,-0.00033888634
UncalAccel,1676594569792,31626614391409,-0.2428715,3.6161532,7.9040914,0.037048545,-0.031444572,0.0098014325
UncalMag,1676594569792,31626614932893,-160.79599,759.5476,389.6558,-174.57417,771.0116,430.86337
UncalGyro,1676594569796,31626618622742,-0.46868637,0.8933904,2.666885,-0.00038485642,-0.0017173458,-0.00033888634
OrientationDeg,1676594569792,31626614391409,243.0,-9.0,-3.0
UncalAccel,1676594569800,31626622872763,0.5479564,3.4259238,7.203593,0.037048545,-0.031444572,0.0098014325
OrientationDeg,1676594569800,31626622872763,242.0,-9.0,-3.0
UncalMag,1676594569802,31626624932690,-160.61299,759.1816,389.31418,-174.57417,771.0116,430.86337
UncalGyro,1676594569805,31626627114675,-1.2745703,0.51083606,2.2142339,-0.00038485642,-0.0017173458,-0.00033888634
UncalAccel,1676594569809,31626631354982,1.3250256,2.8205397,8.581859,0.037048545,-0.031444572,0.0098014325
OrientationDeg,1676594569809,31626631354982,241.0,-8.0,-2.0
UncalMag,1676594569813,31626634943595,-160.6008,759.36456,389.485,-174.57417,771.0116,430.86337
UncalGyro,1676594569813,31626635590740,-2.000431,0.3659083,1.8500054,-0.00038485642,-0.0017173458,-0.00033888634
UncalAccel,1676594569817,31626639832256,2.3306093,1.5643078,9.973883,0.037048545,-0.031444572,0.0098014325
OrientationDeg,1676594569817,31626639832256,240.0,-8.0,0.0
UncalGyro,1676594569822,31626644075115,-2.5216517,0.535118,1.5862644,-0.00038485642,-0.0017173458,-0.00033888634
UncalMag,1676594569822,31626644932975,-160.8692,760.1454,389.5582,-174.57417,771.0116,430.86337
UncalAccel,1676594569826,31626648315156,3.0029924,0.5623133,10.322039,0.037048545,-0.031444572,0.0098014325
OrientationDeg,1676594569826,31626648315156,240.0,-8.0,0.0
UncalGyro,1676594569830,31626652555839,-2.7878363,0.86162543,1.3464997,-0.00038485642,-0.0017173458,-0.00033888634
UncalMag,1676594569832,31626654943352,-160.6984,761.27997,389.58258,-174.57417,771.0116,430.86337
UncalAccel,1676594569834,31626656798392,2.949752,0.6299106,9.743574,0.037048545,-0.031444572,0.0098014325
OrientationDeg,1676594569834,31626656798392,240.0,-7.0,1.0
UncalGyro,1676594569839,31626661050143,-2.8644998,1.1629347,1.019076,-0.00038485642,-0.0017173458,-0.00033888634
UncalMag,1676594569842,31626664943433,-160.43,762.1706,389.912,-174.57417,771.0116,430.86337
UncalAccel,1676594569843,31626665273135,2.574079,1.5439688,8.810971,0.037048545,-0.031444572,0.0098014325
OrientationDeg,1676594569843,31626665273135,239.0,-7.0,3.0
UncalGyro,1676594569847,31626669506573,-2.787531,1.341002,0.52931476,-0.00038485642,-0.0017173458,-0.00033888634
UncalAccel,1676594569851,31626673750327,1.7563318,1.6444674,8.657232,0.037048545,-0.031444572,0.0098014325
OrientationDeg,1676594569851,31626673750327,239.0,-6.0,4.0
UncalMag,1676594569852,31626674932935,-160.0762,762.85376,389.21658,-174.57417,771.0116,430.86337
UncalGyro,1676594569855,31626677997112,-2.4706445,1.5219707,0.042760566,-0.00038485642,-0.0017173458,-0.00033888634
UncalAccel,1676594569860,31626682239088,-0.32063824,-1.3064811,9.661021,0.037048545,-0.031444572,0.0098014325
OrientationDeg,1676594569860,31626682239088,240.0,-5.0,5.0
UncalMag,1676594569862,31626684943637,-159.9908,764.3178,388.5944,-174.57417,771.0116,430.86337
UncalGyro,1676594569864,31626686478528,-1.5184582,1.1840096,-0.054367006,-0.00038485642,-0.0017173458,-0.00033888634
UncalAccel,1676594569868,31626690714795,0.18903299,-0.49112684,8.10449,0.037048545,-0.031444572,0.0098014325
OrientationDeg,1676594569868,31626690714795,240.0,-5.0,6.0
UncalGyro,1676594569872,31626694944583,-0.8136725,0.79275036,-0.27931812,-0.00038485642,-0.0017173458,-0.00033888634
UncalMag,1676594569872,31626694953281,-158.59999,764.7936,389.0336,-174.57417,771.0116,430.86337
UncalAccel,1676594569877,31626699180982,2.0237298,-2.6955147,9.85484,0.037048545,-0.031444572,0.0098014325
OrientationDeg,1676594569877,31626699180982,240.0,-5.0,6.0
UncalGyro,1676594569881,31626703438877,-0.4082107,0.8344419,-0.5222898,-0.00038485642,-0.0017173458,-0.00033888634
UncalMag,1676594569882,31626704943393,-158.59999,764.7936,389.0336,-174.57417,771.0116,430.86337
UncalAccel,1676594569885,31626707680463,3.1250265,-4.173083,9.506684,0.037048545,-0.031444572,0.0098014325
OrientationDeg,1676594569885,31626707680463,240.0,-4.0,6.0
UncalGyro,1676594569889,31626711923516,-0.0013744468,1.1029172,-0.7244862,-0.00038485642,-0.0017173458,-0.00033888634
UncalMag,1676594569892,31626714943597,-158.44139,765.7452,388.7774,-174.57417,771.0116,430.86337
UncalAccel,1676594569894,31626716158816,4.240082,-3.394219,8.846265,0.037048545,-0.031444572,0.0098014325
OrientationDeg,1676594569894,31626716158816,241.0,-4.0,6.0
UncalGyro,1676594569898,31626720397434,0.3483459,1.6333009,-0.7811439,-0.00038485642,-0.0017173458,-0.00033888634
UncalAccel,1676594569902,31626724626316,3.5688949,-4.080959,10.225129,0.037048545,-0.031444572,0.0098014325
OrientationDeg,1676594569902,31626724626316,241.0,-3.0,6.0
UncalMag,1676594569902,31626724934930,-156.5748,765.3548,388.99698,-174.57417,771.0116,430.86337
UncalGyro,1676594569906,31626728870955,0.20479257,2.2951734,0.12797627,-0.00038485642,-0.0017173458,-0.00033888634
UncalAccel,1676594569911,31626733120283,5.081159,-0.8554341,6.509674,0.037048545,-0.031444572,0.0098014325
OrientationDeg,1676594569911,31626733120283,241.0,-2.0,6.0
UncalMag,1676594569912,31626734943516,-155.9404,765.55,389.15558,-174.57417,771.0116,430.86337
UncalGyro,1676594569915,31626737364840,0.3662137,1.6360499,0.79000145,-0.00038485642,-0.0017173458,-0.00033888634
UncalAccel,1676594569919,31626741602939,5.444868,-0.2644069,6.704689,0.037048545,-0.031444572,0.0098014325
OrientationDeg,1676594569919,31626741602939,240.0,-1.0,5.0
UncalMag,1676594569922,31626744943435,-155.3548,764.97656,389.8388,-174.57417,771.0116,430.86337
UncalGyro,1676594569923,31626745841943,0.44944412,1.0522153,1.3655893,-0.00038485642,-0.0017173458,-0.00033888634
UncalAccel,1676594569928,31626750080815,5.087739,-0.40259242,7.8580294,0.037048545,-0.031444572,0.0098014325
OrientationDeg,1676594569928,31626750080815,239.0,-1.0,5.0
UncalGyro,1676594569932,31626754322219,0.5717699,0.9960158,1.5343407,-0.00038485642,-0.0017173458,-0.00033888634
UncalMag,1676594569932,31626754934199,-154.9766,764.2934,390.034,-174.57417,771.0116,430.86337
UncalAccel,1676594569936,31626758559299,3.9254255,0.29790643,11.240284,0.037048545,-0.031444572,0.0098014325
OrientationDeg,1676594569936,31626758559299,239.0,0.0,5.0
UncalGyro,1676594569940,31626762792567,0.6960809,1.3773484,1.4112514,-0.00038485642,-0.0017173458,-0.00033888634
UncalMag,1676594569942,31626764943476,-154.4886,763.80536,390.8758,-174.57417,771.0116,430.86337
UncalAccel,1676594569945,31626767039026,2.120639,1.3268201,8.207381,0.037048545,-0.031444572,0.0098014325
OrientationDeg,1676594569945,31626767039026,238.0,0.0,4.0
UncalGyro,1676594569949,31626771283482,0.81183994,1.3487904,1.1794281,-0.00038485642,-0.0017173458,-0.00033888634
UncalMag,1676594569952,31626774932816,-154.1104,763.0978,390.5708,-174.57417,771.0116,430.86337
UncalAccel,1676594569953,31626775522577,0.84347,2.2181466,8.867801,0.037048545,-0.031444572,0.0098014325
OrientationDeg,1676594569953,31626775522577,237.0,0.0,4.0
UncalGyro,1676594569957,31626779751612,0.82634795,1.3477215,0.79702646,-0.00038485642,-0.0017173458,-0.00033888634
UncalAccel,1676594569960,31626783992447,0.08793623,2.4825535,11.214561,0.037048545,-0.031444572,0.0098014325
UncalMag,1676594569962,31626784933101,-153.91519,762.7928,391.70538,-174.57417,771.0116,430.86337
OrientationDeg,1676594569961,31626783992447,237.0,1.0,4.0
UncalGyro,1676594569966,31626788241521,0.7104363,1.400714,0.35124752,-0.00038485642,-0.0017173458,-0.00033888634
UncalAccel,1676594569970,31626792476222,0.08973085,1.521237,10.345967,0.037048545,-0.031444572,0.0098014325
OrientationDeg,1676594569970,31626792476222,237.0,2.0,3.0
UncalMag,1676594569972,31626794943518,-152.8904,762.65857,392.2544,-174.57417,771.0116,430.86337
UncalGyro,1676594569974,31626796728927,0.42012256,1.2936599,-0.049021937,-0.00038485642,-0.0017173458,-0.00033888634
UncalAccel,1676594569978,31626800964615,1.0671989,1.2263216,9.661619,0.037048545,-0.031444572,0.0098014325
OrientationDeg,1676594569978,31626800964615,237.0,2.0,3.0
UncalMag,1676594569982,31626804943355,-152.8904,762.4756,391.9738,-174.57417,771.0116,430.86337
UncalGyro,1676594569983,31626805210912,0.057268616,1.0699304,-0.3538437,-0.00038485642,-0.0017173458,-0.00033888634
UncalAccel,1676594569987,31626809451126,2.0428724,0.46660042,9.591031,0.037048545,-0.031444572,0.0098014325
OrientationDeg,1676594569987,31626809451126,238.0,3.0,3.0
Fix,FLP,37.4311267000,-122.1551602000,-16.100000381469727,0.22882804,4.161,249.69104,1676594569830,,,31626652555839,2.7265003
UncalGyro,1676594569991,31626813682938,-0.29993483,0.88300574,-0.4830417,-0.00038485642,-0.0017173458,-0.00033888634
UncalMag,1676594569992,31626814943722,-152.3902,762.134,392.12018,-174.57417,771.0116,430.86337
UncalAccel,1676594569995,31626817911922,2.9365916,-0.60598236,9.763913,0.037048545,-0.031444572,0.0098014325
OrientationDeg,1676594569995,31626817911922,238.0,3.0,3.0
UncalGyro,1676594570000,31626822164323,-0.6093381,0.8089383,-0.45723262,-0.00038485642,-0.0017173458,-0.00033888634
UncalMag,1676594570002,31626824939979,-151.4386,762.4146,392.1568,-174.57417,771.0116,430.86337
UncalAccel,1676594570004,31626826403306,3.3900316,-1.4081762,9.847662,0.037048545,-0.031444572,0.0098014325
OrientationDeg,1676594570004,31626826403306,238.0,3.0,4.0
UncalGyro,1676594570008,31626830651963,-0.8332202,0.7823657,-0.34238997,-0.00038485642,-0.0017173458,-0.00033888634
UncalAccel,1676594570012,31626834888423,3.3882368,-1.8729819,9.77827,0.037048545,-0.031444572,0.0098014325
UncalMag,1676594570012,31626834932817,-151.3898,763.1222,392.2056,-174.57417,771.0116,430.86337
OrientationDeg,1676594570012,31626834888423,238.0,4.0,4.0
UncalGyro,1676594570017,31626839135209,-0.9592112,0.73899424,-0.1956296,-0.00038485642,-0.0017173458,-0.00033888634
UncalAccel,1676594570022,31626843366696,3.0065815,-2.0428724,9.743574,0.037048545,-0.031444572,0.0098014325
OrientationDeg,1676594570021,31626843366696,238.0,4.0,5.0
UncalMag,1676594570022,31626844932858,-150.95059,763.5736,392.54718,-174.57417,771.0116,430.86337
UncalGyro,1676594570025,31626847604498,-0.98792183,0.68203104,-0.061086524,-0.00038485642,-0.0017173458,-0.00033888634
UncalAccel,1676594570029,31626851830655,2.408376,-2.2145574,9.893126,0.037048545,-0.031444572,0.0098014325
OrientationDeg,1676594570029,31626851830655,238.0,4.0,5.0
UncalMag,1676594570032,31626854943519,-150.7066,763.9762,391.54678,-174.57417,771.0116,430.86337
UncalGyro,1676594570034,31626856089148,-0.89965177,0.6397286,0.04596761,-0.00038485642,-0.0017173458,-0.00033888634
UncalAccel,1676594570038,31626860328579,1.8185452,-2.103291,10.046266,0.037048545,-0.031444572,0.0098014325
OrientationDeg,1676594570038,31626860328579,238.0,5.0,6.0
UncalGyro,1676594570042,31626864574551,-0.73960507,0.636827,0.113162786,-0.00038485642,-0.0017173458,-0.00033888634
UncalMag,1676594570042,31626864937375,-150.5846,764.3544,392.2422,-174.57417,771.0116,430.86337
UncalAccel,1676594570046,31626868809180,1.3866407,-1.9722841,10.1288185,0.037048545,-0.031444572,0.0098014325
OrientationDeg,1676594570046,31626868809180,238.0,5.0,6.0
UncalGyro,1676594570051,31626873051450,-0.5543602,0.659429,0.16661349,-0.00038485642,-0.0017173458,-0.00033888634
UncalMag,1676594570052,31626874932981,-150.7066,764.0982,392.6692,-174.57417,771.0116,430.86337
UncalAccel,1676594570055,31626877289212,1.1240284,-2.021337,10.122238,0.037048545,-0.031444572,0.0098014325
OrientationDeg,1676594570055,31626877289212,238.0,5.0,6.0
UncalGyro,1676594570059,31626881529976,-0.35506544,0.6808093,0.21945333,-0.00038485642,-0.0017173458,-0.00033888634
UncalMag,1676594570062,31626884943479,-150.4504,764.818,393.07178,-174.57417,771.0116,430.86337
UncalAccel,1676594570063,31626885766568,0.91346,-2.0374885,10.192826,0.037048545,-0.031444572,0.0098014325
OrientationDeg,1676594570063,31626885766568,238.0,6.0,6.0
UncalGyro,1676594570068,31626890011462,-0.16401732,0.700357,0.27122417,-0.00038485642,-0.0017173458,-0.00033888634
UncalAccel,1676594570072,31626894250974,0.7196414,-1.9716859,10.410573,0.037048545,-0.031444572,0.0098014325
OrientationDeg,1676594570072,31626894250974,237.0,6.0,6.0
UncalMag,1676594570072,31626894956419,-149.938,764.7448,393.4134,-174.57417,771.0116,430.86337
UncalGyro,1676594570076,31626898493782,-0.010537425,0.73884153,0.32635477,-0.00038485642,-0.0017173458,-0.00033888634
UncalAccel,1676594570080,31626902728351,0.42532423,-1.8592232,10.680364,0.037048545,-0.031444572,0.0098014325
OrientationDeg,1676594570080,31626902728351,237.0,6.0,6.0
UncalMag,1676594570082,31626904943521,-150.1454,764.7204,392.43738,-174.57417,771.0116,430.86337
UncalGyro,1676594570084,31626906961626,0.0917825,0.80573124,0.37323865,-0.00038485642,-0.0017173458,-0.00033888634
UncalAccel,1676594570089,31626911211465,0.051445685,-1.7228323,10.758729,0.037048545,-0.031444572,0.0098014325
OrientationDeg,1676594570089,31626911211465,237.0,7.0,6.0
UncalMag,1676594570092,31626914943480,-149.9624,764.4032,393.328,-174.57417,771.0116,430.86337
UncalGyro,1676594570093,31626915452788,0.14813483,0.88270026,0.40317106,-0.00038485642,-0.0017173458,-0.00033888634
UncalAccel,1676594570097,31626919694822,-0.46181476,-1.515255,10.740185,0.037048545,-0.031444572,0.0098014325
OrientationDeg,1676594570097,31626919694822,237.0,7.0,6.0
Raw,1676594569999,89999000000,,,-1360629698000569485,0.0,7.385889191630892,214.0,1.0,58,2,0.0,16431,434587918109266,24,35.01820373535156,-584.7067634104651,0.5390672371792653,16,-52441.44612147142,340282346638528860000000000000000000000,1575420030,,,,0,,1,,31.418203353881836,0.0,1.0,0.0,1.0,C,31626827844000
Raw,1676594569999,89999000000,,,-1360629698000569485,0.0,7.385889191630892,214.0,1.0,58,6,0.0,16431,434587927587457,23,35.75069046020508,520.5827004926452,0.5042354991513363,16,46656.46708368508,340282346638528860000000000000000000000,1575420030,,,,0,,1,,32.150691986083984,0.320142130558394,1.0,0.320142130558394,1.0,C,31626827844000
Raw,1676594569999,89999000000,,,-1360629698000569485,0.0,7.385889191630892,214.0,1.0,58,11,0.0,16431,434587931565930,14,41.8425178527832,-3.588164277573039,0.15,16,-544.9475653994618,340282346638528860000000000000000000000,1575420030,,,,0,,1,,38.24251937866211,-0.20372681261465636,1.0,-0.20372681261465636,1.0,C,31626827844000
Raw,1676594569999,89999000000,,,-1360629698000569485,0.0,7.385889191630892,214.0,1.0,58,12,0.0,16431,434587930986515,13,42.345027923583984,-204.18840601763532,0.15,16,-18357.42765661198,340282346638528860000000000000000000000,1575420030,,,,0,,1,,38.74502944946289,-0.6984919076624261,1.0,-0.6984919076624261,1.0,C,31626827844000
Raw,1676594569999,89999000000,,,-1360629698000569485,0.0,7.385889191630892,214.0,1.0,58,19,0.0,16431,434587923202646,43,27.871063232421875,571.226981443411,0.8577847362087718,16,51392.550674006314,340282346638528860000000000000000000000,1575420030,,,,0,,1,,24.27106285095215,0.0,1.0,0.0,1.0,C,31626827844000
Raw,1676594569999,89999000000,,,-1360629698000569485,0.0,7.385889191630892,214.0,1.0,58,20,0.0,16431,434587922557426,20,37.51741027832031,-475.00249317940825,0.15,16,-42524.81499202549,340282346638528860000000000000000000000,1575420030,,,,0,,1,,33.91741180419922,0.0,1.0,0.0,1.0,C,31626827844000
Raw,1676594569999,89999000000,,,-1360629698000569485,0.0,7.385889191630892,214.0,1.0,58,24,0.0,16431,434587924971730,20,37.125579833984375,575.1330695381207,0.15,16,51585.04676019394,340282346638528860000000000000000000000,1575420030,,,,0,,1,,33.52558135986328,-0.20372681261465636,1.0,-0.20372681261465636,1.0,C,31626827844000
Raw,1676594569999,89999000000,,,-1360629698000569485,0.0,7.385889191630892,214.0,1.0,58,25,0.0,16431,434587926119556,14,41.813926696777344,-468.691546952449,0.15,16,-42042.20751642272,340282346638528860000000000000000000000,1575420030,,,,0,,1,,38.21392822265625,-2.0372682255564105,1.0,-2.0372682255564105,1.0,C,31626827844000
Raw,1676594569999,89999000000,,,-1360629698000569485,0.0,7.385889191630892,214.0,1.0,58,29,0.0,16431,434587918052590,12,46.3448600769043,-432.59693036144495,0.15,16,-38696.01039430919,340282346638528860000000000000000000000,1575420030,,,,0,,1,,42.7448616027832,-0.6984919076624261,1.0,-0.6984919076624261,1.0,C,31626827844000
Raw,1676594569999,89999000000,,,-1360629698000569485,0.0,7.385889191630892,214.0,1.0,58,6,0.0,81921,434587927587994,14,32.562931060791016,519.698567487987,0.647585512478702,16,48246.33574053001,340282346638528860000000000000000000000,1176450050,,,,0,,1,,28.962932586669922,1.9208527336454408,2.1129087453312168,1.9208527336454408,1.0,Q,31626827844000
Raw,1676594569999,89999000000,,,-1360629698000569485,0.0,7.385889191630892,214.0,1.0,58,11,0.0,81921,434587931566446,8,39.56269454956055,-4.004478022499677,0.15,16,-573.3887861090983,340282346638528860000000000000000000000,1176450050,,,,0,,1,,35.96269607543945,0.0,2.1129087453312168,0.0,1.0,Q,31626827844000
Raw,1676594569999,89999000000,,,-1360629698000569485,0.0,7.385889191630892,214.0,1.0,58,24,0.0,81921,434587924972226,10,33.10969924926758,574.7475969548477,0.6225275179643699,16,53354.7292305803,340282346638528860000000000000000000000,1176450050,,,,0,,1,,29.50969886779785,3.5215636101095664,2.1129087453312168,3.5215636101095664,1.0,Q,31626827844000
Raw,1676594569999,89999000000,,,-1360629698000569485,0.0,7.385889191630892,214.0,1.0,58,25,0.0,81921,434587926120057,11,37.01988220214844,-468.7367743722548,0.15,16,-43475.31947075982,340282346638528860000000000000000000000,1176450050,,,,0,,1,,33.419883728027344,1.0186341127782053,2.1129087453312168,1.0186341127782053,1.0,Q,31626827844000
Raw,1676594569999,89999000000,,,-1360629698000569485,0.0,7.385889191630892,214.0,1.0,58,14,0.0,32995,13369931077912,33,44.250572204589844,629.7241671191409,0.15,16,56909.474510051245,340282346638528860000000000000000000000,1598062460,,,,0,,3,,40.65057373046875,52.1540641784668,2.0000000474974513,52.1540641784668,2.0000000474974513,C,31626827844000
Raw,1676594569999,89999000000,,,-1360629698000569485,0.0,7.385889191630892,214.0,1.0,58,18,0.0,32995,13369928824721,39,37.75830841064453,-433.22445655094293,0.15,16,-39306.275655230726,340282346638528860000000000000000000000,1600312450,,,,0,,3,,34.15830993652344,52.1540641784668,2.0000000474974513,52.1540641784668,2.0000000474974513,C,31626827844000
Raw,1676594569999,89999000000,,,-1360629698000569485,0.0,7.385889191630892,214.0,1.0,58,16,0.0,32995,13369924496671,33,41.690345764160156,-674.8712886573426,0.15,16,-59846.529051623256,340282346638528860000000000000000000000,1601437440,,,,0,,3,,38.09034729003906,52.1540641784668,2.0000000474974513,52.1540641784668,2.0000000474974513,C,31626827844000
Raw,1676594569999,89999000000,,,-1360629698000569485,0.0,7.385889191630892,214.0,1.0,58,15,0.0,32995,13369935321122,33,40.51543426513672,-111.00714881716846,0.15,16,-10261.353141367852,340282346638528860000000000000000000000,1602000000,,,,0,,3,,36.915435791015625,52.1540641784668,2.0000000474974513,52.1540641784668,2.0000000474974513,C,31626827844000
Raw,1676594569999,89999000000,,,-1360629698000569485,0.0,7.385889191630892,214.0,1.0,58,24,0.0,32995,13369927316982,66,31.32038116455078,701.2728546132594,0.7034130422341507,16,63047.825664605916,340282346638528860000000000000000000000,1603124990,,,,0,,3,,27.720380783081055,52.1540641784668,2.0000000474974513,52.1540641784668,2.0000000474974513,C,31626827844000
Raw,1676594569999,89999000000,,,-1360629698000569485,0.0,7.385889191630892,214.0,1.0,58,17,0.0,32995,13369935558940,33,42.61070251464844,153.8125755356715,0.15,16,13750.473235746873,340282346638528860000000000000000000000,1604249980,,,,0,,3,,39.010704040527344,52.1540641784668,2.0000000474974513,52.1540641784668,2.0000000474974513,C,31626827844000
Raw,1676594569999,89999000000,,,-1360629698000569485,0.0,7.385889191630892,214.0,1.0,58,2,0.0,85026,434587921596067,16,39.833030700683594,152.86719635664178,0.15,16,14002.918384611074,340282346638528860000000000000000000000,1575420030,,,,0,,6,,36.2330322265625,-5.878973752260207,1.5000000237487257,-5.878973752260207,1.5000000237487257,C,31626827844000
Raw,1676594569999,89999000000,,,-1360629698000569485,0.0,7.385889191630892,214.0,1.0,58,11,0.0,85026,434587909052762,51,25.85714340209961,594.4510740601627,0.9486813164091492,16,52836.44037307045,340282346638528860000000000000000000000,1575420030,,,,1,,6,,22.257143020629883,-5.878973752260207,1.5000000237487257,-5.878973752260207,1.5000000237487257,C,31626827844000
Raw,1676594569999,89999000000,,,-1360629698000569485,0.0,7.385889191630892,214.0,1.0,58,25,0.0,85026,434587911301270,15,40.70652770996094,503.27222082470985,0.15,16,45398.59644814862,340282346638528860000000000000000000000,1575420030,,,,0,,6,,37.106529235839844,-5.878973752260207,1.5000000237487257,-5.878973752260207,1.5000000237487257,C,31626827844000
Raw,1676594569999,89999000000,,,-1360629698000569485,0.0,7.385889191630892,214.0,1.0,58,30,0.0,85026,434587915909978,15,40.826377868652344,-301.5740835753702,0.15,16,-26872.058350621253,340282346638528860000000000000000000000,1575420030,,,,0,,6,,37.22637939453125,-5.878973752260207,1.5000000237487257,-5.878973752260207,1.5000000237487257,C,31626827844000
Raw,1676594569999,89999000000,,,-1360629698000569485,0.0,7.385889191630892,214.0,1.0,58,34,0.0,85026,434587919629989,15,41.042781829833984,-247.2261813628685,0.15,16,-22714.659501964798,340282346638528860000000000000000000000,1575420030,,,,0,,6,,37.44278335571289,-5.878973752260207,1.5000000237487257,-5.878973752260207,1.5000000237487257,C,31626827844000
Raw,1676594569999,89999000000,,,-1360629698000569485,0.0,7.385889191630892,214.0,1.0,58,36,0.0,85026,434587920180389,23,35.83624267578125,284.7638321218201,0.4997754236249987,16,25786.175822838788,340282346638528860000000000000000000000,1575420030,,,,0,,6,,32.236244201660156,-5.878973752260207,1.5000000237487257,-5.878973752260207,1.5000000237487257,C,31626827844000
Raw,1676594569999,89999000000,,,-1360629698000569485,0.0,7.385889191630892,214.0,1.0,58,2,0.0,84003,434587921596588,8,34.66398620605469,152.46427355562912,0.5556232896899547,16,13921.46902944571,340282346638528860000000000000000000000,1176450050,,,,0,,6,,31.06398582458496,-4.216632805764675,2.6129087690799424,-4.216632805764675,1.5000000237487257,Q,31626827844000
Raw,1676594569999,89999000000,,,-1360629698000569485,0.0,7.385889191630892,214.0,1.0,58,11,0.0,84003,434587909053265,79,24.939401626586914,594.54568695947,0.9906707031433579,16,52234.63950858098,340282346638528860000000000000000000000,1176450050,,,,0,,6,,21.339401245117188,5.203299224376676,2.6129087690799424,5.203299224376676,1.5000000237487257,Q,31626827844000
Raw,1676594569999,89999000000,,,-1360629698000569485,0.0,7.385889191630892,214.0,1.0,58,25,0.0,84003,434587911301776,8,40.27951431274414,503.15450001988006,0.15,16,46893.106310228555,340282346638528860000000000000000000000,1176450050,,,,0,,6,,36.67951583862305,-8.649541996419428,2.6129087690799424,-8.649541996419428,1.5000000237487257,Q,31626827844000
Raw,1676594569999,89999000000,,,-1360629698000569485,0.0,7.385889191630892,214.0,1.0,58,30,0.0,84003,434587915910483,19,31.001842498779297,-301.48437854980216,0.7192830188890738,16,-26583.652629425276,340282346638528860000000000000000000000,1176450050,,,,0,,6,,27.40184211730957,-8.2801328971982,2.6129087690799424,-8.2801328971982,1.5000000237487257,Q,31626827844000
Raw,1676594569999,89999000000,,,-1360629698000569485,0.0,7.385889191630892,214.0,1.0,58,34,0.0,84003,434587919630513,6,36.51402282714844,-247.27069305108728,0.15,16,-22732.062729705507,340282346638528860000000000000000000000,1176450050,,,,0,,6,,32.914024353027344,-9.942473843693731,2.6129087690799424,-9.942473843693731,1.5000000237487257,Q,31626827844000
Raw,1676594569999,89999000000,,,-1360629698000569485,0.0,7.385889191630892,214.0,1.0,58,36,0.0,84003,434587920180911,7,35.65009307861328,284.03560931452546,0.5110244648782183,16,26076.679764470624,340282346638528860000000000000000000000,1176450050,,,,0,,6,,32.05009460449219,-10.865996591746804,2.6129087690799424,-10.865996591746804,1.5000000237487257,Q,31626827844000
OrientationDeg,1676594570106,31626928172870,237.0,8.0,6.0
OrientationDeg,1676594570114,31626936653634,237.0,8.0,6.0
UncalGyro,1676594570101,31626923933379,0.1600467,0.95462966,0.409127,-0.00038485642,-0.0017173458,-0.00033888634
UncalMag,1676594570102,31626924932779,-149.54759,764.23236,393.40118,-174.57417,771.0116,430.86337
UncalAccel,1676594570106,31626928172870,-1.0486546,-1.3220345,10.434502,0.037048545,-0.031444572,0.0098014325
UncalGyro,1676594570110,31626932415312,0.14065172,0.98975444,0.40118575,-0.00038485642,-0.0017173458,-0.00033888634
UncalMag,1676594570112,31626934943318,-148.8522,763.8298,394.0112,-174.57417,771.0116,430.86337
UncalAccel,1676594570114,31626936653634,-1.6911274,-1.1718849,9.952348,0.037048545,-0.031444572,0.0098014325
Status,0,31,0,3,15,1602000000,42.29,318.0,76.0,1,1,1,38.686783
Status,0,31,1,1,11,1176450050,40.98,125.0,76.0,1,1,1,37.38239
Status,0,31,2,1,11,1575420030,42.85,125.0,76.0,1,1,1,39.25362
Status,0,31,3,6,2,1176450050,36.06,106.0,76.0,1,1,1,32.460117
Status,0,31,4,6,2,1575420030,40.71,106.0,76.0,1,1,1,37.10547
Status,0,31,5,3,17,1604249980,43.56,318.0,73.0,1,1,1,39.96016
Status,0,31,6,1,12,1575420030,43.50,327.0,65.0,1,1,1,39.895706
Status,0,31,7,6,36,1575420030,36.96,51.0,63.0,1,1,1,33.363155
Status,0,31,8,6,36,1176450050,36.98,51.0,63.0,1,1,1,33.376934
Status,0,31,9,6,34,1575420030,43.35,206.0,59.0,1,1,1,39.74663
Status,0,31,10,6,34,1176450050,38.83,206.0,59.0,1,1,1,35.227642
Status,0,31,11,6,30,1176450050,38.12,315.0,46.0,1,1,1,34.519695
Status,0,31,12,6,30,1575420030,40.89,315.0,46.0,1,1,1,37.285995
Status,0,31,13,3,14,1598062460,45.05,152.0,46.0,1,1,1,41.446728
Status,0,31,14,1,6,1176450050,36.58,48.0,45.0,1,1,1,32.976364
Status,0,31,15,1,6,1575420030,37.52,48.0,45.0,1,1,1,33.917213
Status,0,31,16,1,24,1176450050,41.39,219.0,38.0,1,1,1,37.785797
Status,0,31,17,1,24,1575420030,43.94,219.0,38.0,1,1,1,40.341846
Status,0,31,18,3,18,1600312450,43.26,239.0,36.0,1,1,1,39.66021
Status,0,31,19,1,25,1176450050,38.96,312.0,35.0,1,1,1,35.358692
Status,0,31,20,1,25,1575420030,41.81,312.0,35.0,1,1,1,38.21393
Status,0,31,21,3,24,1603124990,35.72,34.0,31.0,1,1,1,32.119194
Status,0,31,22,1,20,1575420030,43.33,142.0,26.0,1,1,1,39.731693
Status,0,31,23,6,25,1575420030,42.08,126.0,26.0,1,1,1,38.47579
Status,0,31,24,6,25,1176450050,42.12,126.0,26.0,1,1,1,38.52285
Status,0,31,25,1,19,1575420030,37.33,60.0,25.0,1,1,1,33.72596
Status,0,31,26,3,16,1601437440,42.79,328.0,21.0,1,1,1,39.19435
Status,0,31,27,1,29,1575420030,46.90,264.0,15.0,1,1,1,43.302666
Status,0,31,28,6,11,1176450050,27.84,41.0,14.0,1,1,1,24.235207
Status,0,31,29,6,11,1575420030,29.40,41.0,14.0,1,1,1,25.799969
Status,0,31,30,1,2,1575420030,46.55,217.0,11.0,1,1,1,42.94693
Fix,GPS,37.4311249287,-122.1551621995,-17.058886833352783,0.2837901,3.1061058,232.6581,1676594569999,0.15372904,117.62165,31626827844000,3.0
UncalGyro,1676594570118,31626940895679,0.111635625,0.9663888,0.38637227,-0.00038485642,-0.0017173458,-0.00033888634
UncalMag,1676594570122,31626944943522,-148.23,763.5858,393.938,-174.57417,771.0116,430.86337
UncalAccel,1676594570123,31626945130716,-2.3772693,-1.026521,9.474979,0.037048545,-0.031444572,0.0098014325
OrientationDeg,1676594570123,31626945130716,236.0,9.0,6.0
UncalGyro,1676594570127,31626949364603,0.08582657,0.8846856,0.3642284,-0.00038485642,-0.0017173458,-0.00033888634
UncalAccel,1676594570131,31626953613464,-3.0317063,-0.8817552,9.245867,0.037048545,-0.031444572,0.0098014325
UncalMag,1676594570132,31626954932739,-147.986,764.23236,395.1702,-174.57417,771.0116,430.86337
OrientationDeg,1676594570131,31626953613464,236.0,9.0,6.0
UncalGyro,1676594570135,31626957851978,0.058948494,0.7658723,0.3303254,-0.00038485642,-0.0017173458,-0.00033888634
UncalAccel,1676594570140,31626962095763,-3.6394832,-0.77587277,9.269794,0.037048545,-0.031444572,0.0098014325
UncalMag,1676594570142,31626964943522,-147.925,763.5126,394.51138,-174.57417,771.0116,430.86337
UncalGyro,1676594570144,31626966337258,0.016340645,0.6123924,0.27672195,-0.00038485642,-0.0017173458,-0.00033888634
UncalAccel,1676594570148,31626970573628,-4.1330028,-0.70229346,9.2997055,0.037048545,-0.031444572,0.0098014325
UncalGyro,1676594570152,31626974807026,-0.0364992,0.39599338,0.20372356,-0.00038485642,-0.0017173458,-0.00033888634
UncalMag,1676594570153,31626974937907,-147.8274,763.4272,394.487,-174.57417,771.0116,430.86337
UncalAccel,1676594570157,31626979055897,-4.4596233,-0.63230336,9.416355,0.037048545,-0.031444572,0.0098014325
OrientationDeg,1676594570140,31626962095763,236.0,10.0,6.0
OrientationDeg,1676594570148,31626970573628,236.0,10.0,6.0
OrientationDeg,1676594570157,31626979055897,236.0,10.0,6.0
UncalGyro,1676594570161,31626983297475,-0.09117164,0.1282817,0.10567969,-0.00038485642,-0.0017173458,-0.00033888634
UncalMag,1676594570162,31626984943400,-147.8884,764.1104,394.0478,-174.57417,771.0116,430.86337
UncalAccel,1676594570165,31626987538319,-4.610371,-0.5766702,9.759128,0.037048545,-0.031444572,0.0098014325
OrientationDeg,1676594570165,31626987538319,236.0,10.0,6.0
UncalGyro,1676594570169,31626991773722,-0.14889841,-0.14828753,-0.01450805,-0.00038485642,-0.0017173458,-0.00033888634
UncalMag,1676594570172,31626994943360,-147.71759,763.5248,394.7554,-174.57417,771.0116,430.86337
UncalAccel,1676594570174,31626996017506,-4.523033,-0.61016977,10.179666,0.037048545,-0.031444572,0.0098014325
OrientationDeg,1676594570174,31626996017506,236.0,10.0,6.0
UncalGyro,1676594570178,31627000259531,-0.20158553,-0.40653083,-0.1432479,-0.00038485642,-0.0017173458,-0.00033888634
UncalAccel,1676594570182,31627004499227,-4.210171,-0.7573284,10.679168,0.037048545,-0.031444572,0.0098014325
OrientationDeg,1676594570182,31627004499227,236.0,10.0,6.0
UncalMag,1676594570182,31627004950969,-148.0226,763.6712,393.8282,-174.57417,771.0116,430.86337
UncalGyro,1676594570186,31627008740072,-0.24236079,-0.61391956,-0.26648995,-0.00038485642,-0.0017173458,-0.00033888634
UncalAccel,1676594570190,31627012977438,-3.6729827,-1.0570294,11.304293,0.037048545,-0.031444572,0.0098014325
OrientationDeg,1676594570190,31627012977438,236.0,9.0,6.0
UncalMag,1676594570192,31627014932903,-148.1202,763.781,394.5846,-174.57417,771.0116,430.86337
UncalGyro,1676594570195,31627017216268,-0.25442538,-0.7296785,-0.36102137,-0.00038485642,-0.0017173458,-0.00033888634
UncalAccel,1676594570199,31627021458599,-3.07717,-1.4518452,11.8588295,0.037048545,-0.031444572,0.0098014325
OrientationDeg,1676594570199,31627021458599,236.0,9.0,6.0
UncalMag,1676594570202,31627024955120,-148.2178,763.92737,394.0112,-174.57417,771.0116,430.86337
UncalGyro,1676594570203,31627025700063,-0.23732115,-0.74036866,-0.4092797,-0.00038485642,-0.0017173458,-0.00033888634
UncalAccel,1676594570207,31627029940655,-2.5040889,-1.884946,12.27518,0.037048545,-0.031444572,0.0098014325
OrientationDeg,1676594570207,31627029940655,236.0,9.0,6.0
UncalGyro,1676594570212,31627034181774,-0.20891592,-0.66737026,-0.39492437,-0.00038485642,-0.0017173458,-0.00033888634
UncalMag,1676594570212,31627034932904,-148.32759,763.6468,393.34018,-174.57417,771.0116,430.86337
UncalAccel,1676594570217,31627038420249,-1.9298115,-2.2791636,12.534204,0.037048545,-0.031444572,0.0098014325
OrientationDeg,1676594570216,31627038420249,237.0,8.0,7.0
UncalGyro,1676594570220,31627042661490,-0.18784106,-0.538325,-0.31627548,-0.00038485642,-0.0017173458,-0.00033888634
UncalMag,1676594570222,31627044943402,-148.51059,764.2568,393.6208,-174.57417,771.0116,430.86337
UncalAccel,1676594570224,31627046903280,-1.4362918,-2.5639095,12.600604,0.037048545,-0.031444572,0.0098014325
OrientationDeg,1676594570224,31627046903280,237.0,8.0,7.0
UncalGyro,1676594570229,31627051153393,-0.18875736,-0.3885103,-0.19165897,-0.00038485642,-0.0017173458,-0.00033888634
UncalMag,1676594570232,31627054943402,-148.9254,764.1836,393.97458,-174.57417,771.0116,430.86337
UncalAccel,1676594570233,31627055378613,-1.1485549,-2.6338995,12.5551405,0.037048545,-0.031444572,0.0098014325
OrientationDeg,1676594570233,31627055378613,237.0,8.0,7.0
UncalGyro,1676594570237,31627059611340,-0.21166481,-0.22693644,-0.03940081,-0.00038485642,-0.0017173458,-0.00033888634
UncalAccel,1676594570241,31627063855887,-1.0480564,-2.4939194,12.44507,0.037048545,-0.031444572,0.0098014325
OrientationDeg,1676594570241,31627063855887,237.0,8.0,7.0
UncalMag,1676594570242,31627064933596,-149.023,764.2568,393.633,-174.57417,771.0116,430.86337
UncalGyro,1676594570246,31627068101279,-0.24785857,-0.05131268,0.10797043,-0.00038485642,-0.0017173458,-0.00033888634
UncalAccel,1676594570250,31627072334434,-1.1096715,-2.187638,12.199806,0.037048545,-0.031444572,0.0098014325
OrientationDeg,1676594570250,31627072334434,237.0,8.0,7.0
UncalMag,1676594570252,31627074953453,-148.7302,764.086,393.5842,-174.57417,771.0116,430.86337
UncalGyro,1676594570254,31627076585421,-0.28344148,0.13164146,0.24205536,-0.00038485642,-0.0017173458,-0.00033888634
UncalAccel,1676594570258,31627080821749,-1.227518,-1.8520447,11.734403,0.037048545,-0.031444572,0.0098014325
OrientationDeg,1676594570258,31627080821749,236.0,8.0,7.0
UncalMag,1676594570262,31627084943444,-149.2914,765.0376,393.9502,-174.57417,771.0116,430.86337
UncalGyro,1676594570263,31627085063703,-0.30879238,0.2939789,0.36942077,-0.00038485642,-0.0017173458,-0.00033888634
UncalAccel,1676594570268,31627089303083,-1.3022938,-1.4829519,11.197213,0.037048545,-0.031444572,0.0098014325
OrientationDeg,1676594570267,31627089303083,236.0,8.0,7.0
UncalGyro,1676594570271,31627093544741,-0.32498032,0.4279111,0.48655418,-0.00038485642,-0.0017173458,-0.00033888634
UncalMag,1676594570272,31627094940596,-148.901,764.696,393.60858,-174.57417,771.0116,430.86337
UncalAccel,1676594570275,31627097785138,-1.4530416,-1.1377872,10.693524,0.037048545,-0.031444572,0.0098014325
OrientationDeg,1676594570276,31627097785138,236.0,8.0,7.0
UncalGyro,1676594570280,31627102023684,-0.3361286,0.53801954,0.58062744,-0.00038485642,-0.0017173458,-0.00033888634
UncalMag,1676594570282,31627104943526,-148.3764,764.635,394.182,-174.57417,771.0116,430.86337
UncalAccel,1676594570284,31627106251426,-1.622932,-0.88414794,10.175478,0.037048545,-0.031444572,0.0098014325
OrientationDeg,1676594570284,31627106251426,236.0,9.0,7.0
UncalGyro,1676594570288,31627110495364,-0.34238997,0.61590487,0.65011334,-0.00038485642,-0.0017173458,-0.00033888634
UncalAccel,1676594570292,31627114744968,-1.7682959,-0.6831509,9.653245,0.037048545,-0.031444572,0.0098014325
OrientationDeg,1676594570292,31627114744968,235.0,9.0,8.0
UncalMag,1676594570292,31627114943526,-148.7912,764.7936,393.87698,-174.57417,771.0116,430.86337
UncalGyro,1676594570296,31627118989068,-0.33643404,0.65377855,0.6927212,-0.00038485642,-0.0017173458,-0.00033888634
UncalAccel,1676594570301,31627123228183,-1.8508483,-0.54376894,9.098708,0.037048545,-0.031444572,0.0098014325
UncalMag,1676594570302,31627124926558,-148.3642,764.7814,393.49878,-174.57417,771.0116,430.86337
OrientationDeg,1676594570301,31627123228183,235.0,9.0,8.0
UncalGyro,1676594570305,31627127466881,-0.31535918,0.647059,0.70906186,-0.00038485642,-0.0017173458,-0.00033888634
