# 
# Header Description:
# 
# Version: v3.0.5.6 Platform: 13 Manufacturer: Google Model: Pixel 7
# 
# Raw,utcTimeMillis,TimeNanos,LeapSecond,TimeUncertaintyNanos,FullBiasNanos,BiasNanos,BiasUncertaintyNanos,DriftNanosPerSecond,DriftUncertaintyNanosPerSecond,HardwareClockDiscontinuityCount,Svid,TimeOffsetNanos,State,ReceivedSvTimeNanos,ReceivedSvTimeUncertaintyNanos,Cn0DbHz,PseudorangeRateMetersPerSecond,PseudorangeRateUncertaintyMetersPerSecond,AccumulatedDeltaRangeState,AccumulatedDeltaRangeMeters,AccumulatedDeltaRangeUncertaintyMeters,CarrierFrequencyHz,CarrierCycles,CarrierPhase,CarrierPhaseUncertainty,MultipathIndicator,SnrInDb,ConstellationType,AgcDb,BasebandCn0DbHz,FullInterSignalBiasNanos,FullInterSignalBiasUncertaintyNanos,SatelliteInterSignalBiasNanos,SatelliteInterSignalBiasUncertaintyNanos,CodeType,ChipsetElapsedRealtimeNanos
# 
# UncalAccel,utcTimeMillis,elapsedRealtimeNanos,UncalAccelXMps2,UncalAccelYMps2,UncalAccelZMps2,BiasXMps2,BiasYMps2,BiasZMps2
# 
# Accel,utcTimeMillis,elapsedRealtimeNanos,AccelXMps2,AccelYMps2,AccelZMps2
# 
# UncalGyro,utcTimeMillis,elapsedRealtimeNanos,UncalGyroXRadPerSec,UncalGyroYRadPerSec,UncalGyroZRadPerSec,DriftXRadPerSec,DriftYRadPerSec,DriftZRadPerSec
# 
# Gyro,utcTimeMillis,elapsedRealtimeNanos,GyroXRadPerSec,GyroYRadPerSec,GyroZRadPerSec
# 
# UncalMag,utcTimeMillis,elapsedRealtimeNanos,UncalMagXMicroT,UncalMagYMicroT,UncalMagZMicroT,BiasXMicroT,BiasYMicroT,BiasZMicroT
# 
# Mag,utcTimeMillis,elapsedRealtimeNanos,MagXMicroT,MagYMicroT,MagZMicroT
# 
# OrientationDeg,utcTimeMillis,elapsedRealtimeNanos,yawDeg,rollDeg,pitchDeg
# 
# Fix,Provider,LatitudeDegrees,LongitudeDegrees,AltitudeMeters,SpeedMps,AccuracyMeters,BearingDegrees,UnixTimeMillis,SpeedAccuracyMps,BearingAccuracyDegrees,elapsedRealtimeNanos,VerticalAccuracyMeters
# 
# Nav,Svid,Type,Status,MessageId,Sub-messageId,Data(Bytes)
# 
# Status,UnixTimeMillis,SignalCount,SignalIndex,ConstellationType,Svid,CarrierFrequencyHz,Cn0DbHz,AzimuthDegrees,ElevationDegrees,UsedInFix,HasAlmanacData,HasEphemerisData,BasebandCn0DbHz
# 
UncalAccel,1676593612558,30669380274003,0.019740786,0.6269195,11.178071,0.037048545,-0.031444572,0.0098014325
UncalMag,1676593612562,30669384586828,-192.9796,780.5682,391.132,-174.57417,771.0116,430.86337
UncalMag,1676593612572,30669394587927,-192.54039,780.8366,391.1808,-174.57417,771.0116,430.86337
UncalGyro,1676593612562,30669384502599,-0.29871312,-0.1385137,0.087964594,0.00058235123,-0.0016996672,-0.00032256648
UncalGyro,1676593612570,30669392987849,-0.28023443,-0.16325374,-0.004428773,0.00058235123,-0.0016996672,-0.00032256648
UncalAccel,1676593612566,30669388740230,0.40797627,0.5192425,11.195419,0.037048545,-0.031444572,0.0098014325
UncalAccel,1676593612575,30669397225755,0.6945168,0.5066802,11.278569,0.037048545,-0.031444572,0.0098014325
UncalGyro,1676593612579,30669401466213,-0.24236079,-0.16783522,-0.09819659,0.00058235123,-0.0016996672,-0.00032256648
UncalMag,1676593612582,30669404587765,-193.1626,780.922,391.4614,-174.57417,771.0116,430.86337
UncalAccel,1676593612584,30669405703894,0.82911307,0.44027936,11.217552,0.037048545,-0.031444572,0.0098014325
OrientationDeg,1676593612583,30669405703894,48.0,-1.0,-7.0
Fix,FLP,37.4312759000,-122.1550229000,-16.5,0.1752526,3.92,100.9083,1676593612019,,,30668841736217,2.7264457
UncalGyro,1676593612587,30669409945920,-0.18661933,-0.16600263,-0.18829921,0.00058235123,-0.0016996672,-0.00032256648
UncalAccel,1676593612592,30669414186479,0.8530413,0.3493521,11.261222,0.037048545,-0.031444572,0.0098014325
OrientationDeg,1676593612592,30669414186479,48.0,-1.0,-6.0
UncalMag,1676593612592,30669414581783,-193.7482,781.6906,391.2906,-174.57417,771.0116,430.86337
UncalGyro,1676593612596,30669418427711,-0.11453723,-0.13988814,-0.27382034,0.00058235123,-0.0016996672,-0.00032256648
UncalAccel,1676593612600,30669422666977,0.8919246,0.31106696,11.242677,0.037048545,-0.031444572,0.0098014325
OrientationDeg,1676593612600,30669422666977,48.0,-1.0,-6.0
UncalMag,1676593612602,30669424586748,-193.3578,781.06836,390.9002,-174.57417,771.0116,430.86337
UncalGyro,1676593612604,30669426912167,-0.029321533,-0.115453534,-0.35216382,0.00058235123,-0.0016996672,-0.00032256648
UncalAccel,1676593612609,30669431147722,0.8350951,0.3062813,11.108679,0.037048545,-0.031444572,0.0098014325
OrientationDeg,1676593612609,30669431147722,48.0,-1.0,-6.0
UncalMag,1676593612612,30669434588620,-193.65059,781.49536,390.522,-174.57417,771.0116,430.86337
UncalGyro,1676593612613,30669435388709,0.060628377,-0.103847094,-0.4195117,0.00058235123,-0.0016996672,-0.00032256648
UncalAccel,1676593612617,30669439627550,0.7495517,0.27218357,11.055439,0.037048545,-0.031444572,0.0098014325
OrientationDeg,1676593612617,30669439627550,48.0,-1.0,-6.0
UncalGyro,1676593612621,30669443872026,0.14844026,-0.090713486,-0.47418416,0.00058235123,-0.0016996672,-0.00032256648
UncalMag,1676593612622,30669444586423,-193.2724,780.8976,390.85138,-174.57417,771.0116,430.86337
UncalAccel,1676593612626,30669448111620,0.6442675,0.276371,11.093125,0.037048545,-0.031444572,0.0098014325
OrientationDeg,1676593612626,30669448111620,49.0,-1.0,-7.0
UncalGyro,1676593612630,30669452351732,0.2359467,-0.0711658,-0.5145013,0.00058235123,-0.0016996672,-0.00032256648
UncalMag,1676593612632,30669454589556,-193.858,781.39777,390.5098,-174.57417,771.0116,430.86337
UncalAccel,1676593612634,30669456588549,0.5204389,0.29491538,11.049457,0.037048545,-0.031444572,0.0098014325
OrientationDeg,1676593612634,30669456588549,49.0,-1.0,-7.0
UncalGyro,1676593612638,30669460831775,0.32070425,-0.06246097,-0.54336464,0.00058235123,-0.0016996672,-0.00032256648
UncalMag,1676593612642,30669464589109,-194.0898,781.0562,390.6684,-174.57417,771.0116,430.86337
UncalAccel,1676593612643,30669465069689,0.41575295,0.26081768,10.920244,0.037048545,-0.031444572,0.0098014325
OrientationDeg,1676593612643,30669465069689,49.0,-1.0,-7.0
UncalGyro,1676593612647,30669469311938,0.40653083,-0.07849618,-0.5655085,0.00058235123,-0.0016996672,-0.00032256648
UncalAccel,1676593612651,30669473550117,0.2650051,0.212363,10.718649,0.037048545,-0.031444572,0.0098014325
UncalMag,1676593612653,30669474586546,-194.1142,780.8,390.9734,-174.57417,771.0116,430.86337
OrientationDeg,1676593612651,30669473550117,50.0,-1.0,-7.0
UncalGyro,1676593612655,30669477792255,0.48059824,-0.129198,-0.57711494,0.00058235123,-0.0016996672,-0.00032256648
UncalAccel,1676593612660,30669482032214,0.22791636,0.212363,10.532607,0.037048545,-0.031444572,0.0098014325
OrientationDeg,1676593612660,30669482032214,50.0,-2.0,-7.0
UncalMag,1676593612662,30669484586993,-194.346,780.3486,390.5098,-174.57417,771.0116,430.86337
UncalGyro,1676593612664,30669486277210,0.5166393,-0.20219639,-0.58246,0.00058235123,-0.0016996672,-0.00032256648
UncalAccel,1676593612668,30669490512918,0.26620153,0.20338993,10.546964,0.037048545,-0.031444572,0.0098014325
OrientationDeg,1676593612668,30669490512918,50.0,-2.0,-8.0
UncalMag,1676593612672,30669494588092,-194.346,780.22656,389.3874,-174.57417,771.0116,430.86337
UncalGyro,1676593612672,30669494758288,0.5016731,-0.26160303,-0.5833763,0.00058235123,-0.0016996672,-0.00032256648
UncalAccel,1676593612676,30669498999124,0.31405798,0.15074782,10.576276,0.037048545,-0.031444572,0.0098014325
OrientationDeg,1676593612676,30669498999124,50.0,-2.0,-8.0
UncalGyro,1676593612681,30669503237984,0.43233988,-0.31429017,-0.5887214,0.00058235123,-0.0016996672,-0.00032256648
UncalMag,1676593612682,30669504586994,-194.468,780.0802,390.32678,-174.57417,771.0116,430.86337
UncalAccel,1676593612685,30669507476093,0.37686956,0.084346995,10.496117,0.037048545,-0.031444572,0.0098014325
OrientationDeg,1676593612685,30669507476093,51.0,-2.0,-8.0
UncalGyro,1676593612689,30669511713784,0.31520647,-0.37888917,-0.6079636,0.00058235123,-0.0016996672,-0.00032256648
UncalMag,1676593612692,30669514586343,-194.1752,779.6654,390.827,-174.57417,771.0116,430.86337
UncalAccel,1676593612693,30669515955402,0.3487539,-0.04546363,10.5487585,0.037048545,-0.031444572,0.0098014325
OrientationDeg,1676593612693,30669515955402,51.0,-2.0,-8.0
UncalGyro,1676593612698,30669520195434,0.17302758,-0.43478334,-0.6563747,0.00058235123,-0.0016996672,-0.00032256648
UncalAccel,1676593612702,30669524435687,0.276371,-0.1274178,10.6684,0.037048545,-0.031444572,0.0098014325
UncalMag,1676593612702,30669524587483,-194.6144,779.4702,390.42438,-174.57417,771.0116,430.86337
OrientationDeg,1676593612702,30669524435687,51.0,-2.0,-8.0
UncalGyro,1676593612706,30669528677499,0.04184427,-0.49586987,-0.7461719,0.00058235123,-0.0016996672,-0.00032256648
UncalAccel,1676593612710,30669532916400,0.30149564,-0.25663024,10.597214,0.037048545,-0.031444572,0.0098014325
UncalMag,1676593612712,30669534586100,-195.05359,779.1286,391.0832,-174.57417,771.0116,430.86337
OrientationDeg,1676593612710,30669532916400,52.0,-2.0,-8.0
UncalGyro,1676593612715,30669537158752,-0.058184914,-0.5856671,-0.8695667,0.00058235123,-0.0016996672,-0.00032256648
UncalAccel,1676593612719,30669541397593,0.43728834,-0.5192425,10.580463,0.037048545,-0.031444572,0.0098014325
OrientationDeg,1676593612719,30669541397593,52.0,-3.0,-8.0
UncalMag,1676593612722,30669544587361,-195.1512,779.1286,391.0832,-174.57417,771.0116,430.86337
UncalGyro,1676593612723,30669545638132,-0.13362677,-0.6892087,-1.0068586,0.00058235123,-0.0016996672,-0.00032256648
UncalAccel,1676593612727,30669549877238,0.65324056,-0.7716853,10.616356,0.037048545,-0.031444572,0.0098014325
OrientationDeg,1676593612727,30669549877238,53.0,-3.0,-8.0
UncalGyro,1676593612732,30669554121134,-0.18952094,-0.7823657,-1.1502593,0.00058235123,-0.0016996672,-0.00032256648
UncalMag,1676593612732,30669554586222,-195.45619,779.38477,391.27838,-174.57417,771.0116,430.86337
UncalAccel,1676593612736,30669558358968,0.88414794,-1.0145568,10.619347,0.037048545,-0.031444572,0.0098014325
OrientationDeg,1676593612736,30669558358968,53.0,-3.0,-8.0
UncalGyro,1676593612740,30669562598530,-0.2209805,-0.8570439,-1.3014483,0.00058235123,-0.0016996672,-0.00032256648
UncalMag,1676593612742,30669564588053,-195.61479,778.53076,391.925,-174.57417,771.0116,430.86337
UncalAccel,1676593612744,30669566832407,1.0534402,-1.2436695,10.564312,0.037048545,-0.031444572,0.0098014325
OrientationDeg,1676593612744,30669566832407,54.0,-4.0,-8.0
UncalGyro,1676593612749,30669571083029,-0.22021692,-0.90576047,-1.4660766,0.00058235123,-0.0016996672,-0.00032256648
UncalMag,1676593612752,30669574597046,-196.237,778.51855,392.0592,-174.57417,771.0116,430.86337
UncalAccel,1676593612753,30669575331930,1.1790633,-1.4823537,10.551749,0.037048545,-0.031444572,0.0098014325
OrientationDeg,1676593612753,30669575331930,55.0,-4.0,-8.0
UncalGyro,1676593612757,30669579574819,-0.19501872,-0.9271407,-1.642922,0.00058235123,-0.0016996672,-0.00032256648
UncalAccel,1676593612761,30669583812561,1.3328022,-1.7210377,10.606785,0.037048545,-0.031444572,0.0098014325
UncalMag,1676593612762,30669584588013,-196.359,778.1526,391.48578,-174.57417,771.0116,430.86337
OrientationDeg,1676593612761,30669583812561,56.0,-4.0,-8.0
UncalGyro,1676593612766,30669588051504,-0.1518,-0.9088148,-1.8231273,0.00058235123,-0.0016996672,-0.00032256648
UncalAccel,1676593612770,30669592291138,1.4811572,-1.9118652,10.761122,0.037048545,-0.031444572,0.0098014325
OrientationDeg,1676593612770,30669592291138,57.0,-4.0,-8.0
UncalMag,1676593612772,30669594597047,-196.6884,778.0672,391.59558,-174.57417,771.0116,430.86337
UncalGyro,1676593612774,30669596534933,-0.11377365,-0.8516989,-1.9961549,0.00058235123,-0.0016996672,-0.00032256648
UncalAccel,1676593612778,30669600779277,1.5714862,-2.0404794,10.877173,0.037048545,-0.031444572,0.0098014325
OrientationDeg,1676593612778,30669600779277,58.0,-5.0,-8.0
UncalMag,1676593612782,30669604597047,-197.04219,777.3962,392.901,-174.57417,771.0116,430.86337
UncalGyro,1676593612783,30669605011272,-0.08903361,-0.7826711,-2.1540635,0.00058235123,-0.0016996672,-0.00032256648
UncalAccel,1676593612787,30669609241925,1.558924,-2.2031915,10.772488,0.037048545,-0.031444572,0.0098014325
OrientationDeg,1676593612787,30669609241925,59.0,-5.0,-8.0
UncalGyro,1676593612791,30669613491924,-0.07696902,-0.75396043,-2.2977695,0.00058235123,-0.0016996672,-0.00032256648
UncalMag,1676593612792,30669614586142,-198.0914,777.3474,391.9372,-174.57417,771.0116,430.86337
UncalAccel,1676593612795,30669617728883,1.4422739,-2.3234308,10.50509,0.037048545,-0.031444572,0.0098014325
OrientationDeg,1676593612795,30669617728883,60.0,-5.0,-8.0
UncalGyro,1676593612799,30669621961060,-0.06994407,-0.77091193,-2.4420865,0.00058235123,-0.0016996672,-0.00032256648
UncalMag,1676593612802,30669624596885,-198.46959,776.2372,392.901,-174.57417,771.0116,430.86337
UncalAccel,1676593612804,30669626214032,1.3232309,-2.3670998,10.433305,0.037048545,-0.031444572,0.0098014325
OrientationDeg,1676593612804,30669626214032,61.0,-5.0,-8.0
UncalGyro,1676593612808,30669630455405,-0.076052725,-0.7959574,-2.5917485,0.00058235123,-0.0016996672,-0.00032256648
UncalMag,1676593612812,30669634596966,-198.799,775.9444,391.986,-174.57417,771.0116,430.86337
UncalAccel,1676593612812,30669634695355,1.2179468,-2.367698,10.461421,0.037048545,-0.031444572,0.0098014325
OrientationDeg,1676593612812,30669634695355,62.0,-6.0,-8.0
UncalGyro,1676593612816,30669638935732,-0.092240654,-0.8022188,-2.741716,0.00058235123,-0.0016996672,-0.00032256648
UncalAccel,1676593612821,30669643175071,1.0737791,-2.3353949,10.469795,0.037048545,-0.031444572,0.0098014325
UncalMag,1676593612822,30669644586428,-199.4456,775.615,393.0108,-174.57417,771.0116,430.86337
OrientationDeg,1676593612821,30669643175071,64.0,-6.0,-8.0
UncalGyro,1676593612825,30669647417493,-0.10827587,-0.80664754,-2.8877127,0.00058235123,-0.0016996672,-0.00032256648
UncalAccel,1676593612829,30669651653444,0.8554341,-2.2498515,10.253245,0.037048545,-0.031444572,0.0098014325
OrientationDeg,1676593612829,30669651653444,65.0,-6.0,-8.0
UncalMag,1676593612832,30669654597007,-198.76239,774.8708,394.0234,-174.57417,771.0116,430.86337
UncalGyro,1676593612833,30669655887026,-0.11499538,-0.85154617,-3.0182853,0.00058235123,-0.0016996672,-0.00032256648
UncalAccel,1676593612838,30669660136823,0.6364908,-2.1744776,10.012766,0.037048545,-0.031444572,0.0098014325
OrientationDeg,1676593612838,30669660136823,67.0,-6.0,-8.0
UncalGyro,1676593612842,30669664378888,-0.111635625,-0.93554014,-3.1241176,0.00058235123,-0.0016996672,-0.00032256648
UncalMag,1676593612842,30669664582929,-199.0064,774.2486,393.8892,-174.57417,771.0116,430.86337
UncalAccel,1676593612846,30669668620313,0.47377887,-2.0745773,9.943973,0.037048545,-0.031444572,0.0098014325
OrientationDeg,1676593612846,30669668620313,68.0,-6.0,-8.0
UncalGyro,1676593612850,30669672857098,-0.10399981,-1.0341948,-3.206279,0.00058235123,-0.0016996672,-0.00032256648
UncalMag,1676593612852,30669674597049,-199.7262,772.8456,393.8038,-174.57417,771.0116,430.86337
UncalAccel,1676593612855,30669677086978,0.3499503,-1.9411774,9.814162,0.037048545,-0.031444572,0.0098014325
OrientationDeg,1676593612855,30669677086978,70.0,-7.0,-8.0
UncalGyro,1676593612859,30669681339522,-0.09605856,-1.141249,-3.2750013,0.00058235123,-0.0016996672,-0.00032256648
UncalMag,1676593612862,30669684598229,-200.7266,771.772,393.694,-174.57417,771.0116,430.86337
UncalAccel,1676593612863,30669685578484,0.2542374,-1.783251,9.712467,0.037048545,-0.031444572,0.0098014325
OrientationDeg,1676593612863,30669685578484,72.0,-7.0,-8.0
UncalGyro,1676593612867,30669689822157,-0.09819659,-1.231657,-3.3368514,0.00058235123,-0.0016996672,-0.00032256648
UncalAccel,1676593612872,30669694056501,0.16211374,-1.6402799,9.744172,0.037048545,-0.031444572,0.0098014325
OrientationDeg,1676593612872,30669694056501,73.0,-7.0,-9.0
UncalMag,1676593612872,30669694586307,-201.0804,771.2108,395.3898,-174.57417,771.0116,430.86337
UncalGyro,1676593612876,30669698301883,-0.121256754,-1.3009902,-3.3956473,0.00058235123,-0.0016996672,-0.00032256648
UncalAccel,1676593612880,30669702540143,0.01794617,-1.4925231,9.728619,0.037048545,-0.031444572,0.0098014325
OrientationDeg,1676593612880,30669702540143,75.0,-8.0,-9.0
UncalMag,1676593612882,30669704596968,-201.4464,770.308,394.5724,-174.57417,771.0116,430.86337
UncalGyro,1676593612884,30669706778751,-0.16982053,-1.3683381,-3.4413095,0.00058235123,-0.0016996672,-0.00032256648
UncalAccel,1676593612889,30669711006159,-0.096311115,-1.2053844,9.487542,0.037048545,-0.031444572,0.0098014325
OrientationDeg,1676593612889,30669711006159,77.0,-8.0,-9.0
UncalMag,1676593612892,30669714586430,-202.032,769.3686,395.6948,-174.57417,771.0116,430.86337
UncalGyro,1676593612893,30669715262404,-0.22464569,-1.4773777,-3.461468,0.00058235123,-0.0016996672,-0.00032256648
UncalAccel,1676593612897,30669719501692,-0.23748764,-0.9613165,9.01795,0.037048545,-0.031444572,0.0098014325
OrientationDeg,1676593612897,30669719501692,78.0,-9.0,-9.0
UncalGyro,1676593612901,30669723746586,-0.2843578,-1.6113098,-3.4373388,0.00058235123,-0.0016996672,-0.00032256648
UncalMag,1676593612902,30669724586796,-202.47119,768.9416,396.4512,-174.57417,771.0116,430.86337
UncalAccel,1676593612905,30669727983036,-0.31166515,-0.9768698,9.327821,0.037048545,-0.031444572,0.0098014325
OrientationDeg,1676593612905,30669727983036,80.0,-9.0,-9.0
UncalGyro,1676593612910,30669732226088,-0.35216382,-1.6415477,-3.355941,0.00058235123,-0.0016996672,-0.00032256648
UncalMag,1676593612912,30669734596928,-202.5688,767.4898,397.31738,-174.57417,771.0116,430.86337
UncalAccel,1676593612914,30669736463505,-0.3499503,-0.948156,9.341579,0.037048545,-0.031444572,0.0098014325
OrientationDeg,1676593612914,30669736463505,82.0,-10.0,-9.0
UncalGyro,1676593612918,30669740705602,-0.4008803,-1.5989398,-3.2311716,0.00058235123,-0.0016996672,-0.00032256648
UncalMag,1676593612922,30669744596969,-203.3008,767.3922,397.31738,-174.57417,771.0116,430.86337
UncalAccel,1676593612922,30669744940474,-0.32422748,-0.79441714,8.973084,0.037048545,-0.031444572,0.0098014325
OrientationDeg,1676593612922,30669744940474,83.0,-10.0,-9.0
UncalGyro,1676593612927,30669749173863,-0.40653083,-1.534188,-3.0960178,0.00058235123,-0.0016996672,-0.00032256648
UncalAccel,1676593612931,30669753420384,-0.21296121,-0.6687939,8.696713,0.037048545,-0.031444572,0.0098014325
UncalMag,1676593612932,30669754586797,-203.7888,766.3186,396.9514,-174.57417,771.0116,430.86337
OrientationDeg,1676593612931,30669753420384,85.0,-10.0,-9.0
UncalGyro,1676593612935,30669757660477,-0.377362,-1.4430164,-2.970485,0.00058235123,-0.0016996672,-0.00032256648
UncalAccel,1676593612939,30669761898208,-0.07058827,-0.5814559,8.816355,0.037048545,-0.031444572,0.0098014325
OrientationDeg,1676593612939,30669761898208,86.0,-11.0,-9.0
UncalMag,1676593612942,30669764597010,-204.03279,765.62317,397.15878,-174.57417,771.0116,430.86337
UncalGyro,1676593612944,30669766145217,-0.3388775,-1.2776246,-2.8441887,0.00058235123,-0.0016996672,-0.00032256648
UncalAccel,1676593612948,30669770386887,0.0047856453,-0.46121657,8.892327,0.037048545,-0.031444572,0.0098014325
OrientationDeg,1676593612948,30669770386887,87.0,-11.0,-9.0
UncalMag,1676593612952,30669774597092,-203.92299,764.086,397.9884,-174.57417,771.0116,430.86337
UncalGyro,1676593612952,30669774629674,-0.2855795,-1.0328205,-2.7139215,0.00058235123,-0.0016996672,-0.00032256648
UncalAccel,1676593612956,30669778867814,-0.0059820567,-0.28893334,8.906086,0.037048545,-0.031444572,0.0098014325
OrientationDeg,1676593612956,30669778867814,89.0,-11.0,-9.0
UncalGyro,1676593612961,30669783108027,-0.22311853,-0.7237226,-2.5717428,0.00058235123,-0.0016996672,-0.00032256648
UncalMag,1676593612962,30669784596970,-204.50859,763.0368,398.4886,-174.57417,771.0116,430.86337
UncalAccel,1676593612965,30669787346848,-0.14057833,-0.10289137,8.89472,0.037048545,-0.031444572,0.0098014325
OrientationDeg,1676593612965,30669787346848,90.0,-11.0,-10.0
UncalGyro,1676593612969,30669791585322,-0.17745635,-0.3817908,-2.4055874,0.00058235123,-0.0016996672,-0.00032256648
UncalMag,1676593612972,30669794596889,-204.716,763.049,398.7326,-174.57417,771.0116,430.86337
UncalAccel,1676593612973,30669795824000,-0.37088752,0.1160519,8.810971,0.037048545,-0.031444572,0.0098014325
OrientationDeg,1676593612973,30669795824000,91.0,-11.0,-10.0
UncalGyro,1676593612978,30669800052100,-0.16691893,-0.058184914,-2.2229385,0.00058235123,-0.0016996672,-0.00032256648
UncalAccel,1676593612982,30669804310237,-0.7292127,0.32482567,8.583055,0.037048545,-0.031444572,0.0098014325
UncalMag,1676593612982,30669804596645,-204.7526,762.4146,398.22018,-174.57417,771.0116,430.86337
OrientationDeg,1676593612982,30669804310237,92.0,-11.0,-10.0
UncalGyro,1676593612986,30669808551255,-0.20204368,0.18142697,-2.0395262,0.00058235123,-0.0016996672,-0.00032256648
UncalAccel,1676593612990,30669812794053,-1.1018949,0.47138608,8.451449,0.037048545,-0.031444572,0.0098014325
OrientationDeg,1676593612990,30669812794053,93.0,-11.0,-10.0
UncalMag,1676593612992,30669814586310,-204.4598,762.1828,398.757,-174.57417,771.0116,430.86337
UncalGyro,1676593612995,30669817030910,-0.3022256,0.31719178,-1.865277,0.00058235123,-0.0016996672,-0.00032256648
UncalAccel,1676593612999,30669821269142,-1.527219,0.60777694,8.300103,0.037048545,-0.031444572,0.0098014325
OrientationDeg,1676593613000,30669821269142,94.0,-10.0,-10.0
UncalMag,1676593613002,30669824596971,-203.76439,761.4996,398.94,-174.57417,771.0116,430.86337
UncalGyro,1676593613003,30669825508674,-0.45204028,0.311694,-1.719433,0.00058235123,-0.0016996672,-0.00032256648
UncalAccel,1676593613007,30669829753608,-2.0458634,0.8925229,7.765308,0.037048545,-0.031444572,0.0098014325
OrientationDeg,1676593613007,30669829753608,95.0,-10.0,-10.0
UncalGyro,1676593613012,30669834002529,-0.63117653,0.14278975,-1.6281086,0.00058235123,-0.0016996672,-0.00032256648
UncalMag,1676593613012,30669834588304,-203.9108,760.9018,399.4158,-174.57417,771.0116,430.86337
UncalAccel,1676593613017,30669838228115,-2.5633113,1.2107682,7.641479,0.037048545,-0.031444572,0.0098014325
OrientationDeg,1676593613016,30669838228115,96.0,-10.0,-10.0
UncalGyro,1676593613020,30669842454942,-0.84406304,-0.086437434,-1.5867225,0.00058235123,-0.0016996672,-0.00032256648
UncalMag,1676593613022,30669844596931,-203.3008,760.63336,398.7204,-174.57417,771.0116,430.86337
UncalAccel,1676593613024,30669846709968,-2.9240294,1.4476577,7.7330046,0.037048545,-0.031444572,0.0098014325
OrientationDeg,1676593613024,30669846709968,97.0,-10.0,-9.0
UncalGyro,1676593613028,30669850949542,-1.0861185,-0.26740626,-1.5639677,0.00058235123,-0.0016996672,-0.00032256648
UncalMag,1676593613032,30669854596931,-203.1788,760.8164,399.01318,-174.57417,771.0116,430.86337
UncalAccel,1676593613033,30669855180294,-3.0873394,1.6767704,7.6833534,0.037048545,-0.031444572,0.0098014325
OrientationDeg,1676593613033,30669855180294,97.0,-10.0,-9.0
UncalGyro,1676593613037,30669859434812,-1.3309226,-0.3669773,-1.5213599,0.00058235123,-0.0016996672,-0.00032256648
UncalAccel,1676593613041,30669863674445,-3.12383,1.9453648,7.309475,0.037048545,-0.031444572,0.0098014325
OrientationDeg,1676593613041,30669863674445,98.0,-10.0,-8.0
UncalMag,1676593613042,30669864586230,-203.3862,760.96277,397.95178,-174.57417,771.0116,430.86337
UncalGyro,1676593613045,30669867920977,-1.5496124,-0.40042216,-1.4321736,0.00058235123,-0.0016996672,-0.00032256648
UncalAccel,1676593613050,30669872154192,-3.0203404,2.1678972,6.6885376,0.037048545,-0.031444572,0.0098014325
OrientationDeg,1676593613051,30669872154192,99.0,-10.0,-8.0
UncalMag,1676593613052,30669874586230,-203.0324,761.524,399.2938,-174.57417,771.0116,430.86337
UncalGyro,1676593613054,30669876390317,-1.7270688,-0.40026945,-1.2759448,0.00058235123,-0.0016996672,-0.00032256648
UncalAccel,1676593613058,30669880624021,-2.8552356,2.2552354,6.3068824,0.037048545,-0.031444572,0.0098014325
OrientationDeg,1676593613058,30669880624021,100.0,-10.0,-7.0
UncalMag,1676593613062,30669884587370,-203.73999,761.90216,397.95178,-174.57417,771.0116,430.86337
UncalGyro,1676593613062,30669884869108,-1.8194622,-0.21777347,-1.0407617,0.00058235123,-0.0016996672,-0.00032256648
UncalAccel,1676593613068,30669889098306,-3.118446,1.2137593,15.3601265,0.037048545,-0.031444572,0.0098014325
OrientationDeg,1676593613067,30669889098306,100.0,-9.0,-6.0
UncalGyro,1676593613071,30669893358193,-1.0636691,1.0535898,-0.29840767,0.00058235123,-0.0016996672,-0.00032256648
UncalMag,1676593613072,30669894591235,-203.0934,762.1828,398.1226,-174.57417,771.0116,430.86337
UncalAccel,1676593613075,30669897599313,-7.9926257,-1.6354942,7.878967,0.037048545,-0.031444572,0.0098014325
OrientationDeg,1676593613075,30669897599313,100.0,-9.0,-6.0
UncalGyro,1676593613079,30669901833839,1.0856602,-0.10170906,1.9023871,0.00058235123,-0.0016996672,-0.00032256648
UncalMag,1676593613082,30669904596892,-202.6908,762.073,397.1222,-174.57417,771.0116,430.86337
UncalAccel,1676593613084,30669906078072,-6.734599,0.0424726,11.748759,0.037048545,-0.031444572,0.0098014325
OrientationDeg,1676593613084,30669906078072,98.0,-9.0,-7.0
Status,0,30,0,6,2,1176450050,31.00,79.0,79.0,1,1,1,27.404617
Status,0,30,1,6,2,1575420030,40.29,79.0,79.0,1,1,1,36.690845
Status,0,30,2,3,17,1604249980,38.12,284.0,74.0,1,1,1,34.522163
Status,0,30,3,1,11,1575420030,42.25,148.0,71.0,1,1,1,38.64998
Status,0,30,4,1,11,1176450050,34.50,148.0,71.0,1,1,1,30.899368
Status,0,30,5,3,15,1602000000,42.04,328.0,68.0,1,1,1,38.44083
Status,0,30,6,6,36,1575420030,41.34,61.0,67.0,1,1,1,37.742714
Status,0,30,7,6,36,1176450050,30.18,61.0,67.0,1,1,1,26.579775
Status,0,30,8,1,12,1575420030,42.35,322.0,58.0,1,1,1,38.749527
Status,0,30,9,3,14,1598062460,44.22,146.0,54.0,1,1,1,40.620964
Status,0,30,10,6,34,1176450050,32.79,202.0,52.0,1,1,1,29.192383
Status,0,30,11,6,34,1575420030,40.02,202.0,52.0,1,1,1,36.42011
Status,0,30,12,1,6,1176450050,35.39,53.0,51.0,1,1,1,31.78665
Status,0,30,13,1,6,1575420030,46.33,53.0,51.0,1,1,1,42.731415
Status,0,30,14,1,24,1575420030,37.81,225.0,44.0,1,1,1,34.213047
Status,0,30,15,1,24,1176450050,35.87,225.0,44.0,1,1,1,32.27316
Status,0,30,16,6,30,1575420030,39.35,314.0,40.0,1,1,1,35.746925
Status,0,30,17,6,30,1176450050,25.12,314.0,40.0,1,1,1,21.524506
Status,0,30,18,3,24,1603124990,47.36,31.0,38.0,1,1,1,43.76346
Status,0,30,19,1,19,1575420030,47.54,56.0,31.0,1,1,1,43.935192
Status,0,30,20,6,25,1575420030,45.13,121.0,30.0,1,1,1,41.52923
Status,0,30,21,6,25,1176450050,32.71,121.0,30.0,1,1,1,29.107016
Status,0,30,22,3,18,1600312450,39.77,231.0,29.0,1,1,1,36.166756
Status,0,30,23,1,25,1176450050,25.82,310.0,28.0,1,1,1,22.224007
Status,0,30,24,1,25,1575420030,44.10,310.0,28.0,1,1,1,40.50119
Status,0,30,25,1,20,1575420030,45.70,147.0,20.0,1,1,1,42.09515
Status,0,30,26,6,11,1575420030,33.93,40.0,19.0,0,1,1,30.329771
Status,0,30,27,6,11,1176450050,21.36,40.0,19.0,0,1,1,17.7603
Status,0,30,28,3,16,1601437440,37.08,327.0,14.0,1,1,1,33.48477
Status,0,30,29,1,29,1575420030,36.56,259.0,10.0,1,1,1,32.96081
UncalGyro,1676593613088,30669910315286,2.13925,-0.08307768,3.086702,0.00058235123,-0.0016996672,-0.00032256648
Fix,GPS,37.4312823947,-122.1550448712,-8.261119864159307,0.19096783,3.466423,104.85449,1676593612999,0.111724876,180.0,30669814418000,3.0
Raw,1676593612999,369043000000,,,-1360628461956753308,0.0,8.128750348379537,178.0,1.0,56,6,0.0,16431,433630929093213,12,46.161476135253906,423.07630287390657,0.15,16,148176.53720666908,340282346638528860000000000000000000000,1575420030,,,,0,,1,,42.56147766113281,0.320142130558394,1.0,0.320142130558394,1.0,C,30669814418000
Raw,1676593612999,369043000000,,,-1360628461956753308,0.0,8.128750348379537,178.0,1.0,56,11,0.0,16431,433630931349394,20,37.41206359863281,-129.33196499429334,0.15,16,-56763.88860791836,340282346638528860000000000000000000000,1575420030,,,,0,,1,,33.81206512451172,-0.20372681261465636,1.0,-0.20372681261465636,1.0,C,30669814418000
Raw,1676593612999,369043000000,,,-1360628461956753308,0.0,8.128750348379537,178.0,1.0,56,12,0.0,16431,433630930202170,13,42.349525451660156,-282.69209591962453,0.15,16,-109499.19006492404,340282346638528860000000000000000000000,1575420030,,,,0,,1,,38.74952697753906,-0.6984919076624261,1.0,-0.6984919076624261,1.0,C,30669814418000
Raw,1676593612999,369043000000,,,-1360628461956753308,0.0,8.128750348379537,178.0,1.0,56,19,0.0,16431,433630924977659,11,46.9417610168457,542.6584529017739,0.15,16,197629.1997918065,340282346638528860000000000000000000000,1575420030,,,,0,,1,,43.34176254272461,0.0,1.0,0.0,1.0,C,30669814418000
Raw,1676593612999,369043000000,,,-1360628461956753308,0.0,8.128750348379537,178.0,1.0,56,20,0.0,16431,433630920969467,19,38.07465744018555,-513.7116090927336,0.15,16,-191670.0620558225,340282346638528860000000000000000000000,1575420030,,,,0,,1,,34.47465896606445,0.0,1.0,0.0,1.0,C,30669814418000
Raw,1676593612999,369043000000,,,-1360628461956753308,0.0,8.128750348379537,178.0,1.0,56,24,0.0,16431,433630926673152,24,34.97458267211914,491.1195415497409,0.5389717463904333,16,174225.55611941277,340282346638528860000000000000000000000,1575420030,,,,0,,1,,31.374584197998047,-0.20372681261465636,1.0,-0.20372681261465636,1.0,C,30669814418000
Raw,1676593612999,369043000000,,,-1360628461956753308,0.0,8.128750348379537,178.0,1.0,56,25,0.0,16431,433630924542322,11,44.10118865966797,-514.4385197254521,0.15,16,-192760.16460606107,340282346638528860000000000000000000000,1575420030,,,,0,,1,,40.501190185546875,-2.0372682255564105,1.0,-2.0372682255564105,1.0,C,30669814418000
Raw,1676593612999,369043000000,,,-1360628461956753308,0.0,8.128750348379537,178.0,1.0,56,29,0.0,16419,433630916614064,30,32.16013717651367,-465.46509712326065,0.6673223834684103,16,-36959.34561891446,340282346638528860000000000000000000000,1575420030,,,,0,,1,,28.560136795043945,-0.6984919076624261,1.0,-0.6984919076624261,1.0,C,30669814418000
Raw,1676593612999,369043000000,,,-1360628461956753308,0.0,8.128750348379537,178.0,1.0,56,6,0.0,81921,433630929093732,17,31.092931747436523,423.11454339012516,0.7139606971530879,16,149363.11924017535,340282346638528860000000000000000000000,1176450050,,,,0,,1,,27.492931365966797,1.9208527336454408,1.5066505860624706,1.9208527336454408,1.0,Q,30669814418000
Raw,1676593612999,369043000000,,,-1360628461956753308,0.0,8.128750348379537,178.0,1.0,56,11,0.0,81921,433630931349897,12,32.8270149230957,-129.282332416982,0.6363866296844471,16,-57316.661899359606,340282346638528860000000000000000000000,1176450050,,,,0,,1,,29.22701644897461,0.0,1.5066505860624706,0.0,1.0,Q,30669814418000
Raw,1676593612999,369043000000,,,-1360628461956753308,0.0,8.128750348379537,178.0,1.0,56,24,0.0,81921,433630926673673,18,29.938709259033203,491.40004016692365,0.765429400242299,16,174203.3087727053,340282346638528860000000000000000000000,1176450050,,,,0,,1,,26.338708877563477,3.5215636101095664,1.5066505860624706,3.5215636101095664,1.0,Q,30669814418000
Raw,1676593612999,369043000000,,,-1360628461956753308,0.0,8.128750348379537,178.0,1.0,56,25,0.0,81921,433630924542821,108,23.35114097595215,-514.1749260067047,1.0612815649828735,16,-194302.63601115547,340282346638528860000000000000000000000,1176450050,,,,0,,1,,19.751140594482422,1.0186341127782053,1.5066505860624706,1.0186341127782053,1.0,Q,30669814418000
Raw,1676593612999,369043000000,,,-1360628461956753308,0.0,8.128750348379537,178.0,1.0,56,14,0.0,32995,12412932891406,33,42.5484504699707,506.80967306966886,0.15,16,177351.5934863678,340282346638528860000000000000000000000,1598062460,,,,0,,3,,38.94845199584961,52.1540641784668,2.0000000474974513,52.1540641784668,2.0000000474974513,C,30669814418000
Raw,1676593612999,369043000000,,,-1360628461956753308,0.0,8.128750348379537,178.0,1.0,56,18,0.0,32995,12412927282187,46,35.76003646850586,-528.9447971180603,0.5037604083462517,16,-200988.88028527226,340282346638528860000000000000000000000,1600312450,,,,0,,3,,32.160037994384766,52.1540641784668,2.0000000474974513,52.1540641784668,2.0000000474974513,C,30669814418000
Raw,1676593612999,369043000000,,,-1360628461956753308,0.0,8.128750348379537,178.0,1.0,56,16,0.0,32867,12412922272124,53,33.930519104003906,-713.3353857907255,0.5851305425447162,16,-264668.2340741594,340282346638528860000000000000000000000,1601437440,,,,0,,3,,30.33051872253418,52.1540641784668,2.0000000474974513,52.1540641784668,2.0000000474974513,C,30669814418000
Raw,1676593612999,369043000000,,,-1360628461956753308,0.0,8.128750348379537,178.0,1.0,56,15,0.0,32995,12412934732403,33,42.040828704833984,-252.63632826392984,0.15,16,-102614.60521469754,340282346638528860000000000000000000000,1602000000,,,,0,,3,,38.44083023071289,52.1540641784668,2.0000000474974513,52.1540641784668,2.0000000474974513,C,30669814418000
Raw,1676593612999,369043000000,,,-1360628461956753308,0.0,8.128750348379537,178.0,1.0,56,24,0.0,32995,12412929481675,33,47.36345672607422,654.4366746947003,0.15,16,237494.95023006765,340282346638528860000000000000000000000,1603124990,,,,0,,3,,43.763458251953125,52.1540641784668,2.0000000474974513,52.1540641784668,2.0000000474974513,C,30669814418000
Raw,1676593612999,369043000000,,,-1360628461956753308,0.0,8.128750348379537,178.0,1.0,56,17,0.0,32995,12412935851405,44,36.24749755859375,30.050529608157845,0.15,16,1552.1945479347066,340282346638528860000000000000000000000,1604249980,,,,0,,3,,32.647499084472656,52.1540641784668,2.0000000474974513,52.1540641784668,2.0000000474974513,C,30669814418000
Raw,1676593612999,369043000000,,,-1360628461956753308,0.0,8.128750348379537,178.0,1.0,56,2,0.0,85026,433630921970994,23,35.4781608581543,85.34053695370955,0.515480579650331,16,26705.541879979264,340282346638528860000000000000000000000,1575420030,,,,0,,6,,31.878162384033203,-5.878973752260207,1.5000000237487257,-5.878973752260207,1.5000000237487257,C,30669814418000
Raw,1676593612999,369043000000,,,-1360628461956753308,0.0,8.128750348379537,178.0,1.0,56,11,0.0,85026,433630910903104,37,32.203697204589844,564.4753149711553,299.7936842115316,16,206220.9729324201,340282346638528860000000000000000000000,1575420030,,,,1,,6,,28.60369873046875,-5.878973752260207,1.5000000237487257,-5.878973752260207,1.5000000237487257,C,30669814418000
Raw,1676593612999,369043000000,,,-1360628461956753308,0.0,8.128750348379537,178.0,1.0,56,25,0.0,85026,433630912827530,11,44.63307571411133,455.2607755578747,0.15,16,164372.66653248965,340282346638528860000000000000000000000,1575420030,,,,0,,6,,41.033077239990234,-5.878973752260207,1.5000000237487257,-5.878973752260207,1.5000000237487257,C,30669814418000
Raw,1676593612999,369043000000,,,-1360628461956753308,0.0,8.128750348379537,178.0,1.0,56,30,0.0,85026,433630914883647,17,39.346923828125,-337.34488274695104,0.15,16,-127095.05093679468,340282346638528860000000000000000000000,1575420030,,,,0,,6,,35.746925354003906,-5.878973752260207,1.5000000237487257,-5.878973752260207,1.5000000237487257,C,30669814418000
Raw,1676593612999,369043000000,,,-1360628461956753308,0.0,8.128750348379537,178.0,1.0,56,34,0.0,85026,433630918712665,25,34.57712936401367,-324.2514595070395,0.5568518557399253,16,-124950.96455864505,340282346638528860000000000000000000000,1575420030,,,,1,,6,,30.977130889892578,-5.878973752260207,1.5000000237487257,-5.878973752260207,1.5000000237487257,C,30669814418000
Raw,1676593612999,369043000000,,,-1360628461956753308,0.0,8.128750348379537,178.0,1.0,56,36,0.0,85026,433630920957521,15,41.051021575927734,203.70124842532653,0.15,16,68861.64948895329,340282346638528860000000000000000000000,1575420030,,,,0,,6,,37.45102310180664,-5.878973752260207,1.5000000237487257,-5.878973752260207,1.5000000237487257,C,30669814418000
Raw,1676593612999,369043000000,,,-1360628461956753308,0.0,8.128750348379537,178.0,1.0,56,2,0.0,84003,433630921971503,24,28.79481315612793,85.491939746198,0.8196209055173549,16,26715.71746713585,340282346638528860000000000000000000000,1176450050,,,,0,,6,,25.194812774658203,-4.216632805764675,2.0066506098111963,-4.216632805764675,1.5000000237487257,Q,30669814418000
Raw,1676593612999,369043000000,,,-1360628461956753308,0.0,8.128750348379537,178.0,1.0,56,11,0.0,16384,433630910903629,1000000000,21.360300064086914,565.1708015789598,299792458,16,209104.39956659082,340282346638528860000000000000000000000,1176450050,,,,0,,6,,17.760299682617188,4.279776476323602,2.0066506098111963,4.279776476323602,1.5000000237487257,Q,30669814418000
Raw,1676593612999,369043000000,,,-1360628461956753308,0.0,8.128750348379537,178.0,1.0,56,25,0.0,84003,433630912828027,35,26.92490577697754,455.11548204571795,0.9020637717214153,16,164988.57291204756,340282346638528860000000000000000000000,1176450050,,,,0,,6,,23.324905395507812,-8.649541996419428,2.0066506098111963,-8.649541996419428,1.5000000237487257,Q,30669814418000
Raw,1676593612999,369043000000,,,-1360628461956753308,0.0,8.128750348379537,178.0,1.0,56,30,0.0,84003,433630914884172,98,25.1245059967041,-337.38867870358285,0.9833955631562916,16,-127550.351981987,340282346638528860000000000000000000000,1176450050,,,,0,,6,,21.524505615234375,-8.2801328971982,2.0066506098111963,-8.2801328971982,1.5000000237487257,Q,30669814418000
Raw,1676593612999,369043000000,,,-1360628461956753308,0.0,8.128750348379537,178.0,1.0,56,34,0.0,84003,433630918713197,44,25.99468994140625,-324.1228323161224,0.9449532148904773,16,-125762.11606244315,340282346638528860000000000000000000000,1176450050,,,,0,,6,,22.394689559936523,-9.942473843693731,2.0066506098111963,-9.942473843693731,1.5000000237487257,Q,30669814418000
Raw,1676593612999,369043000000,,,-1360628461956753308,0.0,8.128750348379537,178.0,1.0,56,36,0.0,84003,433630920958013,33,26.73527717590332,203.77682627266586,0.912053592683983,16,69065.97340791648,340282346638528860000000000000000000000,1176450050,,,,0,,6,,23.135276794433594,-10.865996591746804,2.0066506098111963,-10.865996591746804,1.5000000237487257,Q,30669814418000
UncalAccel,1676593613092,30669914558154,0.5066802,3.1740792,13.984254,0.037048545,-0.031444572,0.0098014325
UncalMag,1676593613092,30669914586312,-203.42279,761.99976,397.84198,-174.57417,771.0116,430.86337
OrientationDeg,1676593613092,30669914558154,97.0,-9.0,-8.0
UncalGyro,1676593613096,30669918789031,2.0485365,0.38713586,2.696512,0.00058235123,-0.0016996672,-0.00032256648
UncalAccel,1676593613101,30669923041807,1.416551,3.0729825,8.868998,0.037048545,-0.031444572,0.0098014325
OrientationDeg,1676593613101,30669923041807,95.0,-9.0,-8.0
UncalMag,1676593613102,30669924586191,-204.0694,761.7314,398.0372,-174.57417,771.0116,430.86337
Fix,FLP,37.4312771000,-122.1550229000,-16.5,0.17454934,3.885,95.30389,1676593613037,,,30669859434812,2.5360708
UncalGyro,1676593613106,30669927280465,1.5054774,0.17898351,1.8813123,0.00058235123,-0.0016996672,-0.00032256648
UncalAccel,1676593613109,30669931522776,-0.5180461,2.4065814,7.7054873,0.037048545,-0.031444572,0.0098014325
OrientationDeg,1676593613109,30669931522776,95.0,-9.0,-9.0
UncalMag,1676593613112,30669934596974,-203.73999,762.01196,398.3422,-174.57417,771.0116,430.86337
UncalGyro,1676593613113,30669935762267,0.7677049,-0.115453534,1.1282681,0.00058235123,-0.0016996672,-0.00032256648
UncalAccel,1676593613118,30669940001760,-0.930808,0.91346,8.283354,0.037048545,-0.031444572,0.0098014325
OrientationDeg,1676593613118,30669940001760,94.0,-10.0,-9.0
UncalGyro,1676593613122,30669944246601,-0.068264194,-0.25381452,0.6241516,0.00058235123,-0.0016996672,-0.00032256648
UncalMag,1676593613122,30669944601247,-203.73999,761.91437,398.31778,-174.57417,771.0116,430.86337
UncalAccel,1676593613126,30669948480865,0.31106696,1.5439688,8.096714,0.037048545,-0.031444572,0.0098014325
OrientationDeg,1676593613126,30669948480865,94.0,-10.0,-8.0
UncalGyro,1676593613130,30669952721801,-0.5531385,-0.6740898,0.28985557,0.00058235123,-0.0016996672,-0.00032256648
UncalMag,1676593613132,30669954596852,-204.03279,762.2804,398.8912,-174.57417,771.0116,430.86337
UncalAccel,1676593613134,30669956957530,1.3375878,2.4131618,7.669595,0.037048545,-0.031444572,0.0098014325
OrientationDeg,1676593613134,30669956957530,94.0,-10.0,-8.0
UncalGyro,1676593613139,30669961200216,-0.77442443,-1.0922271,0.024892759,0.00058235123,-0.0016996672,-0.00032256648
UncalMag,1676593613142,30669964597097,-204.21579,762.6952,398.147,-174.57417,771.0116,430.86337
UncalAccel,1676593613143,30669965430348,1.7814565,2.8163524,8.834899,0.037048545,-0.031444572,0.0098014325
OrientationDeg,1676593613143,30669965430348,94.0,-11.0,-8.0
UncalGyro,1676593613147,30669969685984,-0.9401216,-1.1036807,-0.20952678,0.00058235123,-0.0016996672,-0.00032256648
UncalAccel,1676593613151,30669973923339,2.260021,3.1782668,9.17468,0.037048545,-0.031444572,0.0098014325
UncalMag,1676593613152,30669974586558,-205.00879,763.5492,398.2568,-174.57417,771.0116,430.86337
OrientationDeg,1676593613151,30669973923339,94.0,-11.0,-7.0
UncalGyro,1676593613156,30669978166535,-0.9593639,-0.923781,-0.44684792,0.00058235123,-0.0016996672,-0.00032256648
UncalAccel,1676593613160,30669982397787,2.5806592,3.463611,8.903095,0.037048545,-0.031444572,0.0098014325
OrientationDeg,1676593613160,30669982397787,95.0,-12.0,-7.0
UncalMag,1676593613162,30669984595673,-205.5334,763.48816,399.58658,-174.57417,771.0116,430.86337
UncalGyro,1676593613164,30669986645488,-0.8434522,-0.6824892,-0.6942484,0.00058235123,-0.0016996672,-0.00032256648
UncalAccel,1676593613168,30669990885011,2.708077,3.8721852,8.248059,0.037048545,-0.031444572,0.0098014325
OrientationDeg,1676593613168,30669990885011,95.0,-12.0,-7.0
UncalMag,1676593613172,30669994596813,-205.631,763.4516,398.4886,-174.57417,771.0116,430.86337
UncalGyro,1676593613173,30669995125489,-0.6424775,-0.4017966,-0.959822,0.00058235123,-0.0016996672,-0.00032256648
UncalAccel,1676593613177,30669999355317,2.7535408,4.229314,7.039086,0.037048545,-0.031444572,0.0098014325
OrientationDeg,1676593613178,30669999355317,96.0,-12.0,-7.0
UncalGyro,1676593613181,30670003607860,-0.33841935,-0.15332718,-1.2525792,0.00058235123,-0.0016996672,-0.00032256648
UncalMag,1676593613182,30670004586355,-206.09459,762.7684,399.306,-174.57417,771.0116,430.86337
UncalAccel,1676593613185,30670007846609,3.4271202,3.4492538,8.985049,0.037048545,-0.031444572,0.0098014325
OrientationDeg,1676593613185,30670007846609,96.0,-12.0,-7.0
UncalGyro,1676593613190,30670012090536,0.027183503,0.54458636,-1.4367551,0.00058235123,-0.0016996672,-0.00032256648
UncalMag,1676593613192,30670014597505,-205.5822,762.6098,399.1352,-174.57417,771.0116,430.86337
UncalAccel,1676593613194,30670016323711,5.6590257,1.5200406,7.963912,0.037048545,-0.031444572,0.0098014325
OrientationDeg,1676593613194,30670016323711,97.0,-11.0,-7.0
UncalGyro,1676593613198,30670020568320,0.3023783,0.7867944,-1.2944235,0.00058235123,-0.0016996672,-0.00032256648
UncalMag,1676593613202,30670024596813,-205.2406,763.1344,399.01318,-174.57417,771.0116,430.86337
UncalAccel,1676593613202,30670024810588,5.325227,1.5020944,5.9377894,0.037048545,-0.031444572,0.0098014325
OrientationDeg,1676593613202,30670024810588,98.0,-11.0,-7.0
UncalGyro,1676593613207,30670029059562,0.47983465,0.6759224,-1.0093021,0.00058235123,-0.0016996672,-0.00032256648
UncalAccel,1676593613211,30670033279359,5.7900324,2.1631117,7.9615192,0.037048545,-0.031444572,0.0098014325
OrientationDeg,1676593613211,30670033279359,98.0,-11.0,-8.0
UncalMag,1676593613212,30670034586478,-204.05719,762.0242,399.1962,-174.57417,771.0116,430.86337
UncalGyro,1676593613215,30670037530753,0.656222,0.6427829,-0.73639804,0.00058235123,-0.0016996672,-0.00032256648
UncalAccel,1676593613219,30670041766165,4.9262238,2.1804597,8.347362,0.037048545,-0.031444572,0.0098014325
OrientationDeg,1676593613219,30670041766165,98.0,-10.0,-8.0
UncalMag,1676593613222,30670044597017,-204.2768,761.6582,398.63498,-174.57417,771.0116,430.86337
UncalGyro,1676593613224,30670046012870,0.7583892,0.61193424,-0.5306892,0.00058235123,-0.0016996672,-0.00032256648
UncalAccel,1676593613229,30670050249697,4.186243,2.605784,9.12802,0.037048545,-0.031444572,0.0098014325
OrientationDeg,1676593613228,30670050249697,98.0,-10.0,-9.0
UncalGyro,1676593613232,30670054491131,0.7473936,0.6666067,-0.4089743,0.00058235123,-0.0016996672,-0.00032256648
UncalMag,1676593613232,30670054580823,-204.2036,761.3166,398.79358,-174.57417,771.0116,430.86337
UncalAccel,1676593613236,30670058730024,3.6658044,3.339184,9.765109,0.037048545,-0.031444572,0.0098014325
OrientationDeg,1676593613236,30670058730024,99.0,-10.0,-9.0
UncalGyro,1676593613240,30670062969098,0.6623306,0.74006325,-0.35827246,0.00058235123,-0.0016996672,-0.00032256648
UncalMag,1676593613242,30670064596936,-204.0938,761.1946,397.6712,-174.57417,771.0116,430.86337
UncalAccel,1676593613245,30670067211622,3.2859437,4.0887356,10.135997,0.037048545,-0.031444572,0.0098014325
OrientationDeg,1676593613245,30670067211622,99.0,-9.0,-9.0
UncalGyro,1676593613249,30670071453098,0.51053065,0.79000145,-0.37950003,0.00058235123,-0.0016996672,-0.00032256648
UncalMag,1676593613252,30670074597181,-203.4838,760.95056,397.84198,-174.57417,771.0116,430.86337
UncalAccel,1676593613253,30670075689892,2.8576283,4.703093,10.660025,0.037048545,-0.031444572,0.0098014325
OrientationDeg,1676593613253,30670075689892,99.0,-9.0,-9.0
UncalGyro,1676593613257,30670079934593,0.312763,0.80848014,-0.47235155,0.00058235123,-0.0016996672,-0.00032256648
UncalAccel,1676593613262,30670084172650,2.416751,5.2169514,11.03151,0.037048545,-0.031444572,0.0098014325
UncalMag,1676593613262,30670084586195,-203.7278,760.42596,397.84198,-174.57417,771.0116,430.86337
OrientationDeg,1676593613262,30670084172650,99.0,-8.0,-10.0
UncalGyro,1676593613266,30670088415083,0.0759,0.7939721,-0.63239825,0.00058235123,-0.0016996672,-0.00032256648
UncalAccel,1676593613270,30670092653079,1.9405792,5.5298133,11.227722,0.037048545,-0.031444572,0.0098014325
UncalMag,1676593613272,30670094596856,-202.703,760.10876,398.4642,-174.57417,771.0116,430.86337
OrientationDeg,1676593613270,30670092653079,99.0,-8.0,-10.0
UncalGyro,1676593613274,30670096894809,-0.1826487,0.75502944,-0.8358164,0.00058235123,-0.0016996672,-0.00032256648
UncalAccel,1676593613279,30670101134627,1.5559329,5.5316076,11.5017,0.037048545,-0.031444572,0.0098014325
OrientationDeg,1676593613280,30670101134627,100.0,-8.0,-10.0
UncalMag,1676593613282,30670104596978,-202.3004,759.7672,398.1348,-174.57417,771.0116,430.86337
UncalGyro,1676593613283,30670105376651,-0.45952338,0.7247916,-1.0545062,0.00058235123,-0.0016996672,-0.00032256648
UncalAccel,1676593613287,30670109615024,1.6905292,5.6297135,10.671989,0.037048545,-0.031444572,0.0098014325
OrientationDeg,1676593613287,30670109615024,101.0,-7.0,-9.0
UncalGyro,1676593613291,30670113856295,-0.8173377,0.5665775,-1.3005321,0.00058235123,-0.0016996672,-0.00032256648
UncalMag,1676593613292,30670114586358,-202.0808,759.9258,397.4394,-174.57417,771.0116,430.86337
UncalAccel,1676593613296,30670118095777,1.588236,4.8658047,11.457433,0.037048545,-0.031444572,0.0098014325
OrientationDeg,1676593613296,30670118095777,101.0,-7.0,-9.0
UncalGyro,1676593613300,30670122337802,-1.1510228,0.43020186,-1.4776831,0.00058235123,-0.0016996672,-0.00032256648
UncalMag,1676593613302,30670124597182,-202.17839,759.98676,396.9758,-174.57417,771.0116,430.86337
UncalAccel,1676593613304,30670126576542,1.4638093,3.7908292,12.216556,0.037048545,-0.031444572,0.0098014325
OrientationDeg,1676593613304,30670126576542,102.0,-6.0,-9.0
UncalGyro,1676593613308,30670130817824,-1.4262177,0.3200934,-1.5662584,0.00058235123,-0.0016996672,-0.00032256648
UncalMag,1676593613312,30670134596816,-202.2882,759.98676,396.73178,-174.57417,771.0116,430.86337
UncalAccel,1676593613313,30670135054651,1.4991034,2.7272196,12.718451,0.037048545,-0.031444572,0.0098014325
OrientationDeg,1676593613313,30670135054651,103.0,-6.0,-8.0
UncalGyro,1676593613317,30670139291009,-1.6245961,0.21930063,-1.5589281,0.00058235123,-0.0016996672,-0.00032256648
UncalAccel,1676593613321,30670143545068,1.6624135,1.6887345,12.720245,0.037048545,-0.031444572,0.0098014325
UncalMag,1676593613322,30670144586684,-201.666,759.816,396.4268,-174.57417,771.0116,430.86337
OrientationDeg,1676593613321,30670143545068,104.0,-6.0,-7.0
UncalGyro,1676593613325,30670147776859,-1.7359263,0.09117164,-1.4390458,0.00058235123,-0.0016996672,-0.00032256648
UncalAccel,1676593613330,30670152020908,1.7425731,0.9128618,12.753146,0.037048545,-0.031444572,0.0098014325
OrientationDeg,1676593613330,30670152020908,105.0,-6.0,-6.0
UncalMag,1676593613332,30670154597020,-200.7022,760.1698,396.012,-174.57417,771.0116,430.86337
UncalGyro,1676593613334,30670156257929,-1.732872,0.0032070426,-1.2409728,0.00058235123,-0.0016996672,-0.00032256648
UncalAccel,1676593613338,30670160503169,1.6271194,0.5521438,13.102499,0.037048545,-0.031444572,0.0098014325
OrientationDeg,1676593613338,30670160503169,105.0,-6.0,-6.0
UncalMag,1676593613342,30670164597102,-201.09259,760.8042,397.0124,-174.57417,771.0116,430.86337
UncalGyro,1676593613342,30670164753514,-1.5887078,0.04886922,-1.0100657,0.00058235123,-0.0016996672,-0.00032256648
UncalAccel,1676593613346,30670168980270,1.4063815,0.51206404,13.25863,0.037048545,-0.031444572,0.0098014325
OrientationDeg,1676593613347,30670168980270,106.0,-6.0,-5.0
UncalGyro,1676593613351,30670173222397,-1.3058772,0.20906863,-0.784351,0.00058235123,-0.0016996672,-0.00032256648
UncalMag,1676593613352,30670174596898,-201.0804,760.95056,396.0852,-174.57417,771.0116,430.86337
UncalAccel,1676593613355,30670177457637,1.0456635,0.47138608,13.5481615,0.037048545,-0.031444572,0.0098014325
OrientationDeg,1676593613355,30670177457637,106.0,-5.0,-4.0
UncalGyro,1676593613359,30670181702214,-0.8793405,0.5186246,-0.56001073,0.00058235123,-0.0016996672,-0.00032256648
UncalMag,1676593613362,30670184597021,-200.8242,761.6338,395.51178,-174.57417,771.0116,430.86337
UncalAccel,1676593613363,30670185941421,0.96909314,-0.23868406,14.047664,0.037048545,-0.031444572,0.0098014325
OrientationDeg,1676593613363,30670185941421,106.0,-5.0,-4.0
UncalGyro,1676593613368,30670190183030,-0.3811799,0.82879144,-0.33750305,0.00058235123,-0.0016996672,-0.00032256648
UncalAccel,1676593613372,30670194421087,0.57009,0.7902297,12.970893,0.037048545,-0.031444572,0.0098014325
UncalMag,1676593613372,30670194607641,-199.897,761.47516,395.6948,-174.57417,771.0116,430.86337
OrientationDeg,1676593613372,30670194421087,106.0,-5.0,-4.0
UncalGyro,1676593613376,30670198658911,-0.03940081,0.98639464,-0.17944166,0.00058235123,-0.0016996672,-0.00032256648
UncalAccel,1676593613380,30670202904403,-0.06281159,1.1742777,12.931412,0.037048545,-0.031444572,0.0098014325
UncalMag,1676593613382,30670204607641,-199.82379,760.8286,394.3284,-174.57417,771.0116,430.86337
OrientationDeg,1676593613380,30670202904403,106.0,-4.0,-4.0
UncalGyro,1676593613385,30670207141974,0.24755314,1.1038336,-0.04627304,0.00058235123,-0.0016996672,-0.00032256648
UncalAccel,1676593613389,30670211385139,-0.61076796,1.372882,12.540185,0.037048545,-0.031444572,0.0098014325
OrientationDeg,1676593613389,30670211385139,106.0,-4.0,-4.0
UncalMag,1676593613392,30670214597144,-200.0922,761.6338,395.1336,-174.57417,771.0116,430.86337
UncalGyro,1676593613393,30670215625494,0.46792278,1.204779,0.019242255,0.00058235123,-0.0016996672,-0.00032256648
UncalAccel,1676593613397,30670219865038,-1.1419746,2.0267208,12.113067,0.037048545,-0.031444572,0.0098014325
OrientationDeg,1676593613397,30670219865038,106.0,-3.0,-5.0
UncalGyro,1676593613402,30670224105840,0.61590487,1.2545645,0.021227567,0.00058235123,-0.0016996672,-0.00032256648
UncalMag,1676593613402,30670224607764,-199.07959,761.04816,395.4508,-174.57417,771.0116,430.86337
UncalAccel,1676593613406,30670228344774,-1.6821543,2.3539393,11.840883,0.037048545,-0.031444572,0.0098014325
OrientationDeg,1676593613406,30670228344774,106.0,-2.0,-5.0
UncalGyro,1676593613410,30670232584427,0.72097373,1.2493721,-0.0012217305,0.00058235123,-0.0016996672,-0.00032256648
UncalMag,1676593613412,30670234596900,-199.043,760.0722,394.60898,-174.57417,771.0116,430.86337
UncalAccel,1676593613414,30670236817583,-2.0219352,2.309074,11.896516,0.037048545,-0.031444572,0.0098014325
OrientationDeg,1676593613414,30670236817583,106.0,-2.0,-5.0
UncalGyro,1676593613419,30670241068376,0.795652,1.259146,-0.02397646,0.00058235123,-0.0016996672,-0.00032256648
UncalMag,1676593613422,30670244597022,-198.0914,760.0722,394.2308,-174.57417,771.0116,430.86337
UncalAccel,1676593613423,30670245306606,-1.9423738,2.271985,11.500504,0.037048545,-0.031444572,0.0098014325
OrientationDeg,1676593613423,30670245306606,106.0,-1.0,-6.0
UncalGyro,1676593613427,30670249550188,0.81306165,1.2405146,-0.040011674,0.00058235123,-0.0016996672,-0.00032256648
UncalAccel,1676593613431,30670253786770,-2.0135603,2.0075781,11.597413,0.037048545,-0.031444572,0.0098014325
UncalMag,1676593613432,30670254586565,-197.884,760.0844,394.4626,-174.57417,771.0116,430.86337
OrientationDeg,1676593613431,30670253786770,106.0,0.0,-6.0
UncalGyro,1676593613436,30670258028704,0.8333729,1.2573134,-0.020922136,0.00058235123,-0.0016996672,-0.00032256648
UncalAccel,1676593613440,30670262268144,-2.0225334,1.5858432,11.837892,0.037048545,-0.031444572,0.0098014325
OrientationDeg,1676593613440,30670262268144,106.0,0.0,-7.0
UncalMag,1676593613442,30670264597023,-197.884,760.0844,394.4626,-174.57417,771.0116,430.86337
UncalGyro,1676593613445,30670266509539,0.8746063,1.3069462,0.032223143,0.00058235123,-0.0016996672,-0.00032256648
UncalAccel,1676593613448,30670270748228,-1.7934206,1.3866407,11.35813,0.037048545,-0.031444572,0.0098014325
OrientationDeg,1676593613448,30670270748228,106.0,0.0,-7.0
UncalMag,1676593613452,30670274597349,-196.8104,758.7668,393.2792,-174.57417,771.0116,430.86337
UncalGyro,1676593613452,30670274985125,0.92485,1.3365731,0.11178834,0.00058235123,-0.0016996672,-0.00032256648
UncalAccel,1676593613457,30670279219053,-1.8831514,1.1940185,11.373086,0.037048545,-0.031444572,0.0098014325
OrientationDeg,1676593613457,30670279219053,106.0,1.0,-7.0
UncalGyro,1676593613461,30670283469022,1.0277808,1.3755158,0.20616703,0.00058235123,-0.0016996672,-0.00032256648
UncalMag,1676593613462,30670284581968,-196.786,759.2914,393.2792,-174.57417,771.0116,430.86337
UncalAccel,1676593613465,30670287700142,-1.8424734,1.1084751,11.130813,0.037048545,-0.031444572,0.0098014325
OrientationDeg,1676593613465,30670287700142,106.0,1.0,-8.0
UncalGyro,1676593613469,30670291954435,1.1572843,1.3918564,0.30543262,0.00058235123,-0.0016996672,-0.00032256648
UncalMag,1676593613472,30670294589943,-195.5538,758.7424,391.6688,-174.57417,771.0116,430.86337
UncalAccel,1676593613474,30670296188261,-1.7970098,1.2197413,10.667203,0.037048545,-0.031444572,0.0098014325
OrientationDeg,1676593613474,30670296188261,106.0,2.0,-9.0
UncalGyro,1676593613478,30670300424294,1.2808317,1.3487904,0.38240165,0.00058235123,-0.0016996672,-0.00032256648
UncalMag,1676593613482,30670304596861,-195.1024,757.66876,393.206,-174.57417,771.0116,430.86337
UncalAccel,1676593613482,30670304669289,-1.8436699,1.550549,10.307682,0.037048545,-0.031444572,0.0098014325
OrientationDeg,1676593613482,30670304669289,106.0,3.0,-9.0
UncalGyro,1676593613486,30670308903502,1.4114041,1.2579242,0.4277584,0.00058235123,-0.0016996672,-0.00032256648
UncalAccel,1676593613491,30670313155068,-1.9794625,1.8753748,10.33819,0.037048545,-0.031444572,0.0098014325
OrientationDeg,1676593613491,30670313155068,106.0,3.0,-10.0
UncalMag,1676593613492,30670314586119,-194.3826,757.4248,393.3768,-174.57417,771.0116,430.86337
UncalGyro,1676593613495,30670317393716,1.5654949,1.1687379,0.44073927,0.00058235123,-0.0016996672,-0.00032256648
UncalAccel,1676593613499,30670321635587,-1.9621146,2.018944,10.490134,0.037048545,-0.031444572,0.0098014325
OrientationDeg,1676593613499,30670321635587,106.0,4.0,-11.0
UncalMag,1676593613502,30670324596780,-193.78479,756.9002,392.8766,-174.57417,771.0116,430.86337
UncalGyro,1676593613503,30670325874531,1.7318029,1.0998629,0.420428,0.00058235123,-0.0016996672,-0.00032256648
UncalAccel,1676593613508,30670330113036,-1.7964116,2.1780667,10.581061,0.037048545,-0.031444572,0.0098014325
OrientationDeg,1676593613508,30670330113036,105.0,4.0,-12.0
UncalGyro,1676593613512,30670334351978,1.893835,1.0667235,0.38515055,0.00058235123,-0.0016996672,-0.00032256648
UncalMag,1676593613512,30670334596618,-194.37039,756.0096,392.6692,-174.57417,771.0116,430.86337
UncalAccel,1676593613516,30670338598367,-1.6995022,2.1924238,11.006386,0.037048545,-0.031444572,0.0098014325
OrientationDeg,1676593613516,30670338598367,105.0,5.0,-13.0
UncalGyro,1676593613520,30670342850463,2.0366247,1.1061243,0.34666604,0.00058235123,-0.0016996672,-0.00032256648
UncalMag,1676593613522,30670344596903,-193.0528,755.2776,393.55978,-174.57417,771.0116,430.86337
UncalAccel,1676593613525,30670347076415,-1.5696917,2.2941186,10.9017,0.037048545,-0.031444572,0.0098014325
OrientationDeg,1676593613525,30670347076415,105.0,5.0,-14.0
UncalGyro,1676593613529,30670351317667,2.1299343,1.1548407,0.29642236,0.00058235123,-0.0016996672,-0.00032256648
UncalMag,1676593613532,30670354596903,-193.004,754.49677,393.60858,-174.57417,771.0116,430.86337
UncalAccel,1676593613533,30670355552469,-1.4997016,2.3084757,11.112268,0.037048545,-0.031444572,0.0098014325
OrientationDeg,1676593613533,30670355552469,105.0,6.0,-15.0
UncalGyro,1676593613537,30670359797730,2.200642,1.2588406,0.25809056,0.00058235123,-0.0016996672,-0.00032256648
UncalAccel,1676593613542,30670364037902,-1.3549358,2.1080768,11.085349,0.037048545,-0.031444572,0.0098014325
OrientationDeg,1676593613542,30670364037902,105.0,6.0,-16.0
UncalMag,1676593613542,30670364586283,-192.7356,753.716,393.5354,-174.57417,771.0116,430.86337
UncalGyro,1676593613546,30670368278126,2.2293527,1.3779593,0.2593123,0.00058235123,-0.0016996672,-0.00032256648
UncalAccel,1676593613550,30670372517730,-1.1934203,1.82692,10.777871,0.037048545,-0.031444572,0.0098014325
UncalMag,1676593613552,30670374586487,-192.1622,752.7644,393.65738,-174.57417,771.0116,430.86337
UncalGyro,1676593613554,30670376759521,2.2139285,1.4856243,0.31138855,0.00058235123,-0.0016996672,-0.00032256648
OrientationDeg,1676593613550,30670372517730,105.0,7.0,-17.0
UncalAccel,1676593613558,30670380998312,-1.1084751,1.6797615,10.359127,0.037048545,-0.031444572,0.0098014325
OrientationDeg,1676593613558,30670380998312,105.0,8.0,-18.0
UncalMag,1676593613562,30670384597026,-190.442,751.94696,394.0234,-174.57417,771.0116,430.86337
UncalGyro,1676593613563,30670385236796,2.1691825,1.5763378,0.39400807,0.00058235123,-0.0016996672,-0.00032256648
UncalAccel,1676593613567,30670389467489,-1.2065809,1.7563318,10.00499,0.037048545,-0.031444572,0.0098014325
OrientationDeg,1676593613567,30670389467489,105.0,9.0,-19.0
UncalGyro,1676593613571,30670393713348,2.1233675,1.6604844,0.4801401,0.00058235123,-0.0016996672,-0.00032256648
UncalMag,1676593613572,30670394586528,-190.7836,751.42236,394.1454,-174.57417,771.0116,430.86337
UncalAccel,1676593613575,30670397941488,-1.3387842,1.8855443,9.712467,0.037048545,-0.031444572,0.0098014325
OrientationDeg,1676593613575,30670397941488,105.0,9.0,-20.0
UncalGyro,1676593613580,30670402192932,2.0838141,1.7508925,0.55848354,0.00058235123,-0.0016996672,-0.00032256648
UncalMag,1676593613582,30670404596782,-190.442,750.2146,394.7066,-174.57417,771.0116,430.86337
UncalAccel,1676593613584,30670406441326,-1.3417753,2.000998,9.396614,0.037048545,-0.031444572,0.0098014325
OrientationDeg,1676593613584,30670406441326,105.0,10.0,-21.0
UncalGyro,1676593613588,30670410686566,2.0551033,1.8422168,0.6218608,0.00058235123,-0.0016996672,-0.00032256648
UncalMag,1676593613592,30670414596823,-189.60019,750.25116,395.0482,-174.57417,771.0116,430.86337
UncalAccel,1676593613592,30670414921408,-1.3124632,2.2121646,9.128618,0.037048545,-0.031444572,0.0098014325
OrientationDeg,1676593613592,30670414921408,105.0,11.0,-22.0
UncalGyro,1676593613597,30670419153077,2.0334177,1.9295706,0.6630942,0.00058235123,-0.0016996672,-0.00032256648
UncalAccel,1676593613601,30670423400615,-1.2861422,2.376073,8.7266245,0.037048545,-0.031444572,0.0098014325
UncalMag,1676593613602,30670424586529,-189.466,748.9214,394.24298,-174.57417,771.0116,430.86337
OrientationDeg,1676593613601,30670423400615,105.0,12.0,-23.0
UncalGyro,1676593613605,30670427636557,2.0050125,1.9903517,0.6899723,0.00058235123,-0.0016996672,-0.00032256648
UncalAccel,1676593613609,30670431874228,-1.3597214,2.6638098,8.166703,0.037048545,-0.031444572,0.0098014325
