# 
# Header Description:
# 
# Version: v3.0.5.6 Platform: 13 Manufacturer: Google Model: Pixel 7
# 
# Raw,utcTimeMillis,TimeNanos,LeapSecond,TimeUncertaintyNanos,FullBiasNanos,BiasNanos,BiasUncertaintyNanos,DriftNanosPerSecond,DriftUncertaintyNanosPerSecond,HardwareClockDiscontinuityCount,Svid,TimeOffsetNanos,State,ReceivedSvTimeNanos,ReceivedSvTimeUncertaintyNanos,Cn0DbHz,PseudorangeRateMetersPerSecond,PseudorangeRateUncertaintyMetersPerSecond,AccumulatedDeltaRangeState,AccumulatedDeltaRangeMeters,AccumulatedDeltaRangeUncertaintyMeters,CarrierFrequencyHz,CarrierCycles,CarrierPhase,CarrierPhaseUncertainty,MultipathIndicator,SnrInDb,ConstellationType,AgcDb,BasebandCn0DbHz,FullInterSignalBiasNanos,FullInterSignalBiasUncertaintyNanos,SatelliteInterSignalBiasNanos,SatelliteInterSignalBiasUncertaintyNanos,CodeType,ChipsetElapsedRealtimeNanos
# 
# UncalAccel,utcTimeMillis,elapsedRealtimeNanos,UncalAccelXMps2,UncalAccelYMps2,UncalAccelZMps2,BiasXMps2,BiasYMps2,BiasZMps2
# 
# Accel,utcTimeMillis,elapsedRealtimeNanos,AccelXMps2,AccelYMps2,AccelZMps2
# 
# UncalGyro,utcTimeMillis,elapsedRealtimeNanos,UncalGyroXRadPerSec,UncalGyroYRadPerSec,UncalGyroZRadPerSec,DriftXRadPerSec,DriftYRadPerSec,DriftZRadPerSec
# 
# Gyro,utcTimeMillis,elapsedRealtimeNanos,GyroXRadPerSec,GyroYRadPerSec,GyroZRadPerSec
# 
# UncalMag,utcTimeMillis,elapsedRealtimeNanos,UncalMagXMicroT,UncalMagYMicroT,UncalMagZMicroT,BiasXMicroT,BiasYMicroT,BiasZMicroT
# 
# Mag,utcTimeMillis,elapsedRealtimeNanos,MagXMicroT,MagYMicroT,MagZMicroT
# 
# OrientationDeg,utcTimeMillis,elapsedRealtimeNanos,yawDeg,rollDeg,pitchDeg
# 
# Fix,Provider,LatitudeDegrees,LongitudeDegrees,AltitudeMeters,SpeedMps,AccuracyMeters,BearingDegrees,UnixTimeMillis,SpeedAccuracyMps,BearingAccuracyDegrees,elapsedRealtimeNanos,VerticalAccuracyMeters
# 
# Nav,Svid,Type,Status,MessageId,Sub-messageId,Data(Bytes)
# 
# Status,UnixTimeMillis,SignalCount,SignalIndex,ConstellationType,Svid,CarrierFrequencyHz,Cn0DbHz,AzimuthDegrees,ElevationDegrees,UsedInFix,HasAlmanacData,HasEphemerisData,BasebandCn0DbHz
# 
UncalAccel,1676595090841,32147663486912,-4.127021,1.838286,11.203196,0.037048545,-0.031444572,0.0098014325
UncalGyro,1676595090845,32147667735905,-0.30176744,-0.7835874,-1.0673343,-0.0002872811,-0.0017065355,-0.00033377134
UncalMag,1676595090849,32147671421604,-184.6348,740.9792,399.367,-177.00775,769.7961,430.15182
UncalAccel,1676595090850,32147671976678,-3.9134614,1.5714862,11.048859,0.037048545,-0.031444572,0.0098014325
OrientationDeg,1676595090849,32147671976678,144.0,7.0,-18.0
UncalGyro,1676595090854,32147676211683,-0.26648995,-0.9436341,-1.2770138,-0.0002872811,-0.0017065355,-0.00033377134
UncalAccel,1676595090858,32147680460247,-3.589832,1.3202399,10.779666,0.037048545,-0.031444572,0.0098014325
OrientationDeg,1676595090858,32147680460247,144.0,7.0,-17.0
UncalMag,1676595090859,32147681411512,-184.1102,741.028,400.8188,-177.00775,769.7961,430.15182
UncalGyro,1676595090862,32147684696108,-0.23793201,-1.0806206,-1.4975362,-0.0002872811,-0.0017065355,-0.00033377134
UncalAccel,1676595090866,32147688927045,-3.2039895,1.0833504,10.51167,0.037048545,-0.031444572,0.0098014325
OrientationDeg,1676595090866,32147688927045,145.0,7.0,-17.0
UncalMag,1676595090869,32147691421643,-184.09799,741.35736,400.0502,-177.00775,769.7961,430.15182
UncalGyro,1676595090871,32147693180839,-0.23869559,-1.2092078,-1.7179058,-0.0002872811,-0.0017065355,-0.00033377134
UncalAccel,1676595090875,32147697420798,-2.9958138,0.87936234,10.332209,0.037048545,-0.031444572,0.0098014325
OrientationDeg,1676595090875,32147697420798,146.0,7.0,-17.0
UncalMag,1676595090879,32147701421846,-183.8174,740.7474,399.8916,-177.00775,769.7961,430.15182
UncalGyro,1676595090879,32147701662365,-0.28084528,-1.3171781,-1.9511036,-0.0002872811,-0.0017065355,-0.00033377134
UncalAccel,1676595090883,32147705886312,-2.9276185,0.7070791,10.300504,0.037048545,-0.031444572,0.0098014325
OrientationDeg,1676595090883,32147705886312,147.0,6.0,-17.0
UncalGyro,1676595090888,32147710143443,-0.35094208,-1.3625349,-2.1800253,-0.0002872811,-0.0017065355,-0.00033377134
UncalMag,1676595090889,32147711425832,-184.12239,740.906,399.5744,-177.00775,769.7961,430.15182
UncalAccel,1676595090892,32147714383992,-2.885146,0.6113662,10.430314,0.037048545,-0.031444572,0.0098014325
OrientationDeg,1676595090892,32147714383992,148.0,6.0,-16.0
UncalGyro,1676595090896,32147718625783,-0.41996986,-1.3251194,-2.3811526,-0.0002872811,-0.0017065355,-0.00033377134
UncalMag,1676595090899,32147721418467,-183.6954,741.0036,399.8306,-177.00775,769.7961,430.15182
UncalAccel,1676595090900,32147722848419,-2.9563324,0.62512493,10.324431,0.037048545,-0.031444572,0.0098014325
OrientationDeg,1676595090900,32147722848419,149.0,6.0,-16.0
UncalGyro,1676595090905,32147727102029,-0.4445572,-1.2597568,-2.5405886,-0.0002872811,-0.0017065355,-0.00033377134
UncalAccel,1676595090909,32147731344674,-3.1393833,0.50488555,9.95175,0.037048545,-0.031444572,0.0098014325
OrientationDeg,1676595090909,32147731344674,151.0,5.0,-16.0
UncalMag,1676595090909,32147731429330,-183.2074,740.50336,400.1844,-177.00775,769.7961,430.15182
UncalGyro,1676595090913,32147735590656,-0.40866885,-1.2258538,-2.6516132,-0.0002872811,-0.0017065355,-0.00033377134
UncalAccel,1676595090917,32147739827034,-3.254837,0.29910284,9.550952,0.037048545,-0.031444572,0.0098014325
UncalMag,1676595090919,32147741415047,-182.8902,740.3814,398.574,-177.00775,769.7961,430.15182
OrientationDeg,1676595090917,32147739827034,152.0,5.0,-15.0
UncalGyro,1676595090922,32147744068154,-0.32360587,-1.2330315,-2.720183,-0.0002872811,-0.0017065355,-0.00033377134
UncalAccel,1676595090926,32147748308480,-3.2715867,0.16510476,9.284152,0.037048545,-0.031444572,0.0098014325
OrientationDeg,1676595090926,32147748308480,154.0,5.0,-15.0
UncalMag,1676595090929,32147751411100,-183.19519,740.6498,399.2572,-177.00775,769.7961,430.15182
UncalGyro,1676595090930,32147752545133,-0.22510384,-1.2524265,-2.755155,-0.0002872811,-0.0017065355,-0.00033377134
UncalAccel,1676595090934,32147756773475,-3.2129626,0.098703936,9.160921,0.037048545,-0.031444572,0.0098014325
OrientationDeg,1676595090934,32147756773475,155.0,5.0,-15.0
UncalGyro,1676595090939,32147761029771,-0.14584407,-1.2596041,-2.7605,-0.0002872811,-0.0017065355,-0.00033377134
UncalMag,1676595090939,32147761414517,-182.4876,740.2472,399.6232,-177.00775,769.7961,430.15182
UncalAccel,1676595090943,32147765269944,-3.0969107,-0.015553347,9.08136,0.037048545,-0.031444572,0.0098014325
OrientationDeg,1676595090943,32147765269944,156.0,5.0,-15.0
UncalGyro,1676595090947,32147769515070,-0.094225965,-1.2457069,-2.7456865,-0.0002872811,-0.0017065355,-0.00033377134
UncalMag,1676595090949,32147771421596,-182.207,739.7104,399.123,-177.00775,769.7961,430.15182
UncalAccel,1676595090951,32147773747361,-2.932404,-0.08554341,8.906086,0.037048545,-0.031444572,0.0098014325
OrientationDeg,1676595090952,32147773747361,158.0,4.0,-14.0
UncalGyro,1676595090955,32147777978236,-0.061391957,-1.2311989,-2.7296515,-0.0002872811,-0.0017065355,-0.00033377134
UncalMag,1676595090959,32147781426031,-181.45059,740.0032,399.6598,-177.00775,769.7961,430.15182
UncalAccel,1676595090960,32147782232254,-2.7445676,-0.011964113,8.658429,0.037048545,-0.031444572,0.0098014325
OrientationDeg,1676595090960,32147782232254,159.0,4.0,-14.0
UncalGyro,1676595090965,32147786471369,-0.030848695,-1.221425,-2.732553,-0.0002872811,-0.0017065355,-0.00033377134
UncalAccel,1676595090968,32147790716729,-2.562115,0.16151553,8.481958,0.037048545,-0.031444572,0.0098014325
UncalMag,1676595090969,32147791417607,-181.1456,740.0154,399.7696,-177.00775,769.7961,430.15182
UncalGyro,1676595090972,32147794954359,-0.00061086525,-1.2099713,-2.7704265,-0.0002872811,-0.0017065355,-0.00033377134
OrientationDeg,1676595090968,32147790716729,160.0,4.0,-14.0
UncalAccel,1676595090977,32147799195001,-2.4329023,0.28235307,8.382058,0.037048545,-0.031444572,0.0098014325
OrientationDeg,1676595090977,32147799195001,162.0,4.0,-14.0
UncalMag,1676595090979,32147801421716,-181.1456,740.0154,399.7696,-177.00775,769.7961,430.15182
UncalGyro,1676595090981,32147803435907,0.01450805,-1.1899655,-2.8393016,-0.0002872811,-0.0017065355,-0.00033377134
UncalAccel,1676595090985,32147807672885,-2.3653052,0.33080772,8.306086,0.037048545,-0.031444572,0.0098014325
OrientationDeg,1676595090985,32147807672885,163.0,4.0,-14.0
UncalMag,1676595090989,32147811421715,-180.2672,738.9662,399.2572,-177.00775,769.7961,430.15182
UncalGyro,1676595090989,32147811904381,0.0067195175,-1.1673635,-2.9326112,-0.0002872811,-0.0017065355,-0.00033377134
UncalAccel,1676595090994,32147816147066,-2.3455644,0.38404804,8.157731,0.037048545,-0.031444572,0.0098014325
OrientationDeg,1676595090994,32147816147066,165.0,3.0,-14.0
UncalGyro,1676595090999,32147820398185,-0.019394971,-1.1508701,-3.0431778,-0.0002872811,-0.0017065355,-0.00033377134
UncalMag,1676595090999,32147821403851,-179.2912,739.5274,399.85498,-177.00775,769.7961,430.15182
UncalAccel,1676595091002,32147824640127,-2.3688943,0.47018966,8.014161,0.037048545,-0.031444572,0.0098014325
OrientationDeg,1676595091002,32147824640127,166.0,3.0,-14.0
UncalGyro,1676595091006,32147828878694,-0.06169739,-1.1432343,-3.1610749,-0.0002872811,-0.0017065355,-0.00033377134
UncalMag,1676595091009,32147831421714,-179.12039,738.81976,399.5622,-177.00775,769.7961,430.15182
UncalAccel,1676595091011,32147833107148,-2.359323,0.5371887,7.9280195,0.037048545,-0.031444572,0.0098014325
OrientationDeg,1676595091011,32147833107148,168.0,3.0,-13.0
UncalGyro,1676595091015,32147837360464,-0.12492194,-1.1462886,-3.2666018,-0.0002872811,-0.0017065355,-0.00033377134
UncalMag,1676595091019,32147841418580,-178.5836,739.1004,399.611,-177.00775,769.7961,430.15182
UncalAccel,1676595091019,32147841598562,-2.3395824,0.5712864,7.856235,0.037048545,-0.031444572,0.0098014325
UncalGyro,1676595091023,32147845839762,-0.21013765,-1.157437,-3.3434181,-0.0002872811,-0.0017065355,-0.00033377134
UncalAccel,1676595091028,32147850082133,-2.353341,0.69571316,7.6833534,0.037048545,-0.031444572,0.0098014325
UncalMag,1676595091030,32147851411214,-177.87599,738.7588,399.26938,-177.00775,769.7961,430.15182
UncalGyro,1676595091032,32147854324514,-0.29565877,-1.1817188,-3.3977852,-0.0002872811,-0.0017065355,-0.00033377134
OrientationDeg,1676595091019,32147841598562,170.0,3.0,-13.0
OrientationDeg,1676595091028,32147850082133,171.0,3.0,-13.0
OrientationDeg,1676595091036,32147858566813,173.0,3.0,-13.0
UncalAccel,1676595091036,32147858566813,-2.382055,0.9451649,7.4865437,0.037048545,-0.031444572,0.0098014325
UncalMag,1676595091039,32147861411173,-175.38719,738.39276,400.2088,-177.00775,769.7961,430.15182
UncalGyro,1676595091040,32147862803334,-0.35201108,-1.2006557,-3.4330628,-0.0002872811,-0.0017065355,-0.00033377134
UncalAccel,1676595091046,32147867042896,-2.498107,1.0450653,7.6426754,0.037048545,-0.031444572,0.0098014325
OrientationDeg,1676595091045,32147867042896,175.0,2.0,-12.0
UncalGyro,1676595091049,32147871284086,-0.37782016,-1.1633929,-3.4379497,-0.0002872811,-0.0017065355,-0.00033377134
UncalMag,1676595091049,32147871417886,-175.9118,738.4538,399.5134,-177.00775,769.7961,430.15182
UncalAccel,1676595091053,32147875524655,-2.644069,1.0959128,7.899306,0.037048545,-0.031444572,0.0098014325
OrientationDeg,1676595091053,32147875524655,176.0,2.0,-12.0
UncalGyro,1676595091057,32147879766477,-0.37186423,-1.0838276,-3.406948,-0.0002872811,-0.0017065355,-0.00033377134
UncalMag,1676595091059,32147881428261,-175.0334,738.9906,399.37918,-177.00775,769.7961,430.15182
UncalAccel,1676595091062,32147884008339,-2.7876384,1.1718849,7.8311105,0.037048545,-0.031444572,0.0098014325
OrientationDeg,1676595091062,32147884008339,178.0,2.0,-12.0
UncalGyro,1676595091066,32147888253842,-0.34483343,-1.0149527,-3.3423493,-0.0002872811,-0.0017065355,-0.00033377134
UncalMag,1676595091069,32147891421506,-174.3136,738.8564,400.17218,-177.00775,769.7961,430.15182
UncalAccel,1676595091070,32147892486925,-2.8917263,1.2819548,7.6390862,0.037048545,-0.031444572,0.0098014325
OrientationDeg,1676595091070,32147892486925,180.0,2.0,-12.0
UncalGyro,1676595091074,32147896725664,-0.311694,-0.96837413,-3.2485814,-0.0002872811,-0.0017065355,-0.00033377134
UncalAccel,1676595091078,32147900955918,-2.8295128,1.4500505,7.524231,0.037048545,-0.031444572,0.0098014325
OrientationDeg,1676595091078,32147900955918,181.0,2.0,-11.0
UncalMag,1676595091079,32147901420040,-173.5694,739.0638,398.26898,-177.00775,769.7961,430.15182
UncalGyro,1676595091083,32147905209661,-0.2753475,-0.93111134,-3.1161764,-0.0002872811,-0.0017065355,-0.00033377134
UncalAccel,1676595091088,32147909449030,-2.7146573,1.6809579,7.328019,0.037048545,-0.031444572,0.0098014325
UncalMag,1676595091089,32147911418697,-173.6548,739.2712,399.1596,-177.00775,769.7961,430.15182
OrientationDeg,1676595091087,32147909449030,183.0,2.0,-11.0
UncalGyro,1676595091091,32147913692571,-0.2406809,-0.89812464,-2.9443705,-0.0002872811,-0.0017065355,-0.00033377134
UncalAccel,1676595091095,32147917926529,-2.6141586,1.8400806,7.2179494,0.037048545,-0.031444572,0.0098014325
UncalMag,1676595091099,32147921421707,-172.813,739.381,399.4158,-177.00775,769.7961,430.15182
UncalGyro,1676595091100,32147922165959,-0.2209805,-0.853226,-2.7430904,-0.0002872811,-0.0017065355,-0.00033377134
OrientationDeg,1676595091095,32147917926529,184.0,2.0,-11.0
UncalAccel,1676595091104,32147926411309,-2.5004997,2.0033908,7.2658057,0.037048545,-0.031444572,0.0098014325
OrientationDeg,1676595091104,32147926411309,185.0,2.0,-11.0
UncalGyro,1676595091108,32147930653374,-0.23075435,-0.77366084,-2.5211935,-0.0002872811,-0.0017065355,-0.00033377134
UncalMag,1676595091109,32147931411167,-172.1664,739.747,399.611,-177.00775,769.7961,430.15182
Status,0,33,0,3,15,1602000000,41.22,302.0,80.0,0,1,1,37.624336
Status,0,33,1,1,11,1575420030,42.95,106.0,77.0,1,1,1,39.349716
Status,0,33,2,1,11,1176450050,41.71,106.0,77.0,1,1,1,38.11354
Status,0,33,3,6,2,1575420030,42.58,116.0,74.0,1,1,1,38.978104
Status,0,33,4,6,2,1176450050,35.25,116.0,74.0,1,1,1,31.651123
Status,0,33,5,3,17,1604249980,41.42,333.0,71.0,0,1,1,37.815853
Status,0,33,6,1,12,1575420030,41.08,329.0,69.0,1,1,1,37.483707
Status,0,33,7,6,34,1176450050,38.80,209.0,62.0,1,1,1,35.197453
Status,0,33,8,6,34,1575420030,43.31,209.0,62.0,1,1,1,39.7117
Status,0,33,9,6,36,1575420030,39.62,48.0,60.0,1,1,1,36.017143
Status,0,33,10,6,36,1176450050,33.87,48.0,60.0,1,1,1,30.2696
Status,0,33,11,6,30,1575420030,40.53,316.0,49.0,1,1,1,36.93372
Status,0,33,12,6,30,1176450050,38.10,316.0,49.0,1,1,1,34.496243
Status,0,33,13,1,6,1575420030,39.09,46.0,41.0,1,1,1,35.48929
Status,0,33,14,1,6,1176450050,36.00,46.0,41.0,1,1,1,32.402657
Status,0,33,15,3,14,1598062460,45.91,155.0,41.0,1,1,1,42.314472
Status,0,33,16,3,18,1600312450,43.23,244.0,39.0,1,1,1,39.63017
Status,0,33,17,1,25,1176450050,38.19,313.0,38.0,1,1,1,34.588524
Status,0,33,18,1,25,1575420030,41.15,313.0,38.0,1,1,1,37.551697
Status,0,33,19,1,24,1176450050,44.02,216.0,35.0,1,1,1,40.419724
Status,0,33,20,1,24,1575420030,43.40,216.0,35.0,1,1,1,39.80378
Status,0,33,21,1,20,1575420030,47.63,139.0,29.0,1,1,1,44.025116
Status,0,33,22,3,24,1603124990,44.15,36.0,27.0,1,1,1,40.55092
Status,0,33,23,3,16,1601437440,41.48,328.0,25.0,1,1,1,37.87869
Status,0,33,24,6,25,1575420030,39.55,129.0,23.0,1,1,1,35.9455
Status,0,33,25,6,25,1176450050,38.96,129.0,23.0,1,1,1,35.35581
Status,0,33,26,1,19,1575420030,42.91,63.0,22.0,1,1,1,39.30831
Status,0,33,27,1,29,1575420030,42.67,267.0,17.0,1,1,1,39.071564
Status,0,33,28,1,2,1575420030,48.56,218.0,15.0,1,1,1,44.95636
Status,0,33,29,6,15,1176450050,37.10,217.0,12.0,1,1,1,33.495018
Status,0,33,30,6,15,1575420030,45.21,217.0,12.0,1,1,1,41.608383
Status,0,33,31,6,11,1176450050,27.84,41.0,11.0,1,1,1,24.240402
Status,0,33,32,6,11,1575420030,40.12,41.0,11.0,1,1,1,36.51778
UncalAccel,1676595091112,32147934893883,-2.3742783,2.2671995,7.4943204,0.037048545,-0.031444572,0.0098014325
OrientationDeg,1676595091112,32147934893883,187.0,2.0,-11.0
UncalGyro,1676595091117,32147939133996,-0.2790127,-0.63789606,-2.2908974,-0.0002872811,-0.0017065355,-0.00033377134
UncalMag,1676595091119,32147941421746,-170.9342,739.4054,398.8912,-177.00775,769.7961,430.15182
Fix,GPS,37.4311314387,-122.1551446556,-7.231648744537589,0.17369917,2.955248,252.78987,1676595090999,0.09693864,40.353367,32147835040000,3.0
UncalAccel,1676595091121,32147943373753,-2.3252254,2.6027927,7.693523,0.037048545,-0.031444572,0.0098014325
OrientationDeg,1676595091121,32147943373753,188.0,2.0,-11.0
Raw,1676595090999,328066000000,,,-1360629980933630539,0.0,6.787062564590937,181.0,1.0,60,2,0.0,16431,435108919280858,15,43.11000061035156,-573.3014101596718,0.15,16,-189149.9648149985,340282346638528860000000000000000000000,1575420030,,,,0,,1,,39.51000213623047,0.0,1.0,0.0,1.0,C,32147835040000
Raw,1676595090999,328066000000,,,-1360629980933630539,0.0,6.787062564590937,181.0,1.0,60,6,0.0,16431,435108926820519,18,38.38705062866211,551.1325444793229,0.15,16,177715.1261252755,340282346638528860000000000000000000000,1575420030,,,,0,,1,,34.787052154541016,0.320142130558394,1.0,0.320142130558394,1.0,C,32147835040000
Raw,1676595090999,328066000000,,,-1360629980933630539,0.0,6.787062564590937,181.0,1.0,60,11,0.0,16431,435108931690578,12,42.94971466064453,49.422071278936556,0.15,16,10855.046213317066,340282346638528860000000000000000000000,1575420030,,,,0,,1,,39.34971618652344,-0.20372681261465636,1.0,-0.20372681261465636,1.0,C,32147835040000
Raw,1676595090999,328066000000,,,-1360629980933630539,0.0,6.787062564590937,181.0,1.0,60,12,0.0,16431,435108931478239,16,39.61480712890625,-171.2158617327185,0.15,16,-59643.91442011958,340282346638528860000000000000000000000,1575420030,,,,0,,1,,36.014808654785156,-0.6984919076624261,1.0,-0.6984919076624261,1.0,C,32147835040000
Raw,1676595090999,328066000000,,,-1360629980933630539,0.0,6.787062564590937,181.0,1.0,60,19,0.0,16431,435108922376485,13,42.90830993652344,568.9546018196656,0.15,16,186862.87970649442,340282346638528860000000000000000000000,1575420030,,,,0,,1,,39.308311462402344,0.0,1.0,0.0,1.0,C,32147835040000
Raw,1676595090999,328066000000,,,-1360629980933630539,0.0,6.787062564590937,181.0,1.0,60,20,0.0,16431,435108923536499,10,47.62511444091797,-461.4831073978746,0.15,16,-152651.36804811354,340282346638528860000000000000000000000,1575420030,,,,0,,1,,44.025115966796875,0.0,1.0,0.0,1.0,C,32147835040000
Raw,1676595090999,328066000000,,,-1360629980933630539,0.0,6.787062564590937,181.0,1.0,60,24,0.0,16431,435108924117965,13,42.337127685546875,596.5396469958805,0.15,16,193613.18712727708,340282346638528860000000000000000000000,1575420030,,,,0,,1,,38.73712921142578,-0.20372681261465636,1.0,-0.20372681261465636,1.0,C,32147835040000
Raw,1676595090999,328066000000,,,-1360629980933630539,0.0,6.787062564590937,181.0,1.0,60,25,0.0,16431,435108927086475,27,33.83148193359375,-453.4942136713844,0.5904500684541905,16,-150255.2673269669,340282346638528860000000000000000000000,1575420030,,,,1,,1,,30.231483459472656,-2.0372682255564105,1.0,-2.0372682255564105,1.0,C,32147835040000
Raw,1676595090999,328066000000,,,-1360629980933630539,0.0,6.787062564590937,181.0,1.0,60,29,0.0,16431,435108918967801,25,34.5708122253418,-430.80139838691025,0.5593403077535268,16,-141285.57084018216,340282346638528860000000000000000000000,1575420030,,,,0,,1,,30.970813751220703,-0.6984919076624261,1.0,-0.6984919076624261,1.0,C,32147835040000
Raw,1676595090999,328066000000,,,-1360629980933630539,0.0,6.787062564590937,181.0,1.0,60,6,0.0,81921,435108926821013,9,36.002655029296875,550.6260791753939,0.15,16,179377.10365911006,340282346638528860000000000000000000000,1176450050,,,,0,,1,,32.40265655517578,1.9208527336454408,1.5420354216995888,1.9208527336454408,1.0,Q,32147835040000
Raw,1676595090999,328066000000,,,-1360629980933630539,0.0,6.787062564590937,181.0,1.0,60,11,0.0,81921,435108931691072,11,38.42365264892578,49.25401920643671,0.15,16,10883.257056391345,340282346638528860000000000000000000000,1176450050,,,,0,,1,,34.82365417480469,0.0,1.5420354216995888,0.0,1.0,Q,32147835040000
Raw,1676595090999,328066000000,,,-1360629980933630539,0.0,6.787062564590937,181.0,1.0,60,24,0.0,81921,435108924118466,7,42.42296600341797,596.3840946643104,0.15,16,195389.47307319075,340282346638528860000000000000000000000,1176450050,,,,0,,1,,38.822967529296875,3.5215636101095664,1.5420354216995888,3.5215636101095664,1.0,Q,32147835040000
Raw,1676595090999,328066000000,,,-1360629980933630539,0.0,6.787062564590937,181.0,1.0,60,25,0.0,81921,435108927086995,9,36.98514938354492,-453.9749467206386,0.15,16,-150282.0883771878,340282346638528860000000000000000000000,1176450050,,,,0,,1,,33.38515090942383,1.0186341127782053,1.5420354216995888,1.0186341127782053,1.0,Q,32147835040000
Raw,1676595090999,328066000000,,,-1360629980933630539,0.0,6.787062564590937,181.0,1.0,60,14,0.0,32995,13890930107479,33,44.81032180786133,675.2573065599199,0.15,16,217554.09762382897,340282346638528860000000000000000000000,1598062460,,,,0,,3,,41.210323333740234,52.1540641784668,2.0000000474974513,52.1540641784668,2.0000000474974513,C,32147835040000
Raw,1676595090999,328066000000,,,-1360629980933630539,0.0,6.787062564590937,181.0,1.0,60,18,0.0,32995,13890929709041,35,38.99842834472656,-394.1597924511716,0.15,16,-132907.61104370822,340282346638528860000000000000000000000,1600312450,,,,0,,3,,35.39842987060547,52.1540641784668,2.0000000474974513,52.1540641784668,2.0000000474974513,C,32147835040000
Raw,1676595090999,328066000000,,,-1360629980933630539,0.0,6.787062564590937,181.0,1.0,60,16,0.0,32995,13890925821261,54,33.84278106689453,-659.428254947205,0.5897145663797363,16,-217418.87333298862,340282346638528860000000000000000000000,1601437440,,,,0,,3,,30.242780685424805,52.1540641784668,2.0000000474974513,52.1540641784668,2.0000000474974513,C,32147835040000
Raw,1676595090999,328066000000,,,-1360629980933630539,0.0,6.787062564590937,181.0,1.0,60,15,0.0,32995,13890935619506,33,40.86143112182617,-42.403027935259416,0.15,16,-21011.433017560103,340282346638528860000000000000000000000,1602000000,,,,0,,3,,37.26143264770508,52.1540641784668,2.0000000474974513,52.1540641784668,2.0000000474974513,C,32147835040000
Raw,1676595090999,328066000000,,,-1360629980933630539,0.0,6.787062564590937,181.0,1.0,60,24,0.0,32867,13890926260985,33,44.150917053222656,703.1559103361446,0.15,16,231012.02797887006,340282346638528860000000000000000000000,1603124990,,,,0,,3,,40.55091857910156,52.1540641784668,2.0000000474974513,52.1540641784668,2.0000000474974513,C,32147835040000
Raw,1676595090999,328066000000,,,-1360629980933630539,0.0,6.787062564590937,181.0,1.0,60,17,0.0,32995,13890935414822,34,39.48413848876953,200.89633041841228,0.15,16,61148.51663153939,340282346638528860000000000000000000000,1604249980,,,,0,,3,,35.88414001464844,52.1540641784668,2.0000000474974513,52.1540641784668,2.0000000474974513,C,32147835040000
Raw,1676595090999,328066000000,,,-1360629980933630539,0.0,6.787062564590937,181.0,1.0,60,2,0.0,85026,435108921474839,13,42.578102111816406,176.10596147092656,0.15,16,55545.868543471384,340282346638528860000000000000000000000,1575420030,,,,0,,6,,38.97810363769531,-5.878973752260207,1.5000000237487257,-5.878973752260207,1.5000000237487257,C,32147835040000
Raw,1676595090999,328066000000,,,-1360629980933630539,0.0,6.787062564590937,181.0,1.0,60,11,0.0,85026,435108908186519,16,40.11777877807617,590.9538731963571,0.15,16,192874.47807634974,340282346638528860000000000000000000000,1575420030,,,,0,,6,,36.51778030395508,-5.878973752260207,1.5000000237487257,-5.878973752260207,1.5000000237487257,C,32147835040000
Raw,1676595090999,328066000000,,,-1360629980933630539,0.0,6.787062564590937,181.0,1.0,60,15,0.0,85026,435108907445551,14,41.95491409301758,-496.3804754561454,0.15,16,-162708.0294525218,340282346638528860000000000000000000000,1575420030,,,,0,,6,,38.354915618896484,-5.878973752260207,1.5000000237487257,-5.878973752260207,1.5000000237487257,C,32147835040000
Raw,1676595090999,328066000000,,,-1360629980933630539,0.0,6.787062564590937,181.0,1.0,60,25,0.0,85026,435108910582260,17,39.362754821777344,513.2613798420673,0.15,16,166775.78851760674,340282346638528860000000000000000000000,1575420030,,,,0,,6,,35.76275634765625,-5.878973752260207,1.5000000237487257,-5.878973752260207,1.5000000237487257,C,32147835040000
Raw,1676595090999,328066000000,,,-1360629980933630539,0.0,6.787062564590937,181.0,1.0,60,30,0.0,85026,435108916592564,33,31.147655487060547,-294.08797424750446,0.7106901792401539,16,-97115.89765411582,340282346638528860000000000000000000000,1575420030,,,,1,,6,,27.54765510559082,-5.878973752260207,1.5000000237487257,-5.878973752260207,1.5000000237487257,C,32147835040000
Raw,1676595090999,328066000000,,,-1360629980933630539,0.0,6.787062564590937,181.0,1.0,60,34,0.0,85026,435108920200519,13,42.60363006591797,-219.6463167200451,0.15,16,-74983.62111869772,340282346638528860000000000000000000000,1575420030,,,,0,,6,,39.003631591796875,-5.878973752260207,1.5000000237487257,-5.878973752260207,1.5000000237487257,C,32147835040000
Raw,1676595090999,328066000000,,,-1360629980933630539,0.0,6.787062564590937,181.0,1.0,60,36,0.0,85026,435108919828393,16,39.61714172363281,309.5508439473383,0.15,16,99219.18580718203,340282346638528860000000000000000000000,1575420030,,,,0,,6,,36.01714324951172,-5.878973752260207,1.5000000237487257,-5.878973752260207,1.5000000237487257,C,32147835040000
Raw,1676595090999,328066000000,,,-1360629980933630539,0.0,6.787062564590937,181.0,1.0,60,2,0.0,84003,435108921475342,43,29.954580307006836,176.00524781190165,0.7673782244555056,16,55638.06429504728,340282346638528860000000000000000000000,1176450050,,,,0,,6,,26.35457992553711,-4.216632805764675,2.0420354454483145,-4.216632805764675,1.5000000237487257,Q,32147835040000
Raw,1676595090999,328066000000,,,-1360629980933630539,0.0,6.787062564590937,181.0,1.0,60,11,0.0,84003,435108908187039,26,27.840402603149414,590.729542467524,0.8600601395854568,16,193414.95330835276,340282346638528860000000000000000000000,1176450050,,,,0,,6,,24.240402221679688,5.203299224376676,2.0420354454483145,5.203299224376676,1.5000000237487257,Q,32147835040000
Raw,1676595090999,328066000000,,,-1360629980933630539,0.0,6.787062564590937,181.0,1.0,60,15,0.0,84003,435108907446001,39,25.98601531982422,-497.0804609482109,0.9433165247371056,16,-162272.62578200037,340282346638528860000000000000000000000,1176450050,,,,0,,6,,22.386014938354492,-11.050701141357418,2.0420354454483145,-11.050701141357418,1.5000000237487257,Q,32147835040000
Raw,1676595090999,328066000000,,,-1360629980933630539,0.0,6.787062564590937,181.0,1.0,60,25,0.0,84003,435108910582773,9,38.955806732177734,512.9932531566023,0.15,16,167168.77081130643,340282346638528860000000000000000000000,1176450050,,,,0,,6,,35.35580825805664,-8.649541996419428,2.0420354454483145,-8.649541996419428,1.5000000237487257,Q,32147835040000
Raw,1676595090999,328066000000,,,-1360629980933630539,0.0,6.787062564590937,181.0,1.0,60,30,0.0,84003,435108916593084,7,34.01118469238281,-294.240425075531,0.5840791120744471,16,-98083.75803726545,340282346638528860000000000000000000000,1176450050,,,,0,,6,,30.411184310913086,-8.2801328971982,2.0420354454483145,-8.2801328971982,1.5000000237487257,Q,32147835040000
Raw,1676595090999,328066000000,,,-1360629980933630539,0.0,6.787062564590937,181.0,1.0,60,34,0.0,84003,435108920201025,7,36.30902099609375,-219.8337872721488,0.15,16,-75340.22097921005,340282346638528860000000000000000000000,1176450050,,,,0,,6,,32.709022521972656,-9.942473843693731,2.0420354454483145,-9.942473843693731,1.5000000237487257,Q,32147835040000
Raw,1676595090999,328066000000,,,-1360629980933630539,0.0,6.787062564590937,181.0,1.0,60,36,0.0,84003,435108919828883,34,26.76267433166504,309.66474751703754,0.9106185348759386,16,99652.34930283463,340282346638528860000000000000000000000,1176450050,,,,0,,6,,23.162673950195312,-10.865996591746804,2.0420354454483145,-10.865996591746804,1.5000000237487257,Q,32147835040000
UncalGyro,1676595091125,32147947615390,-0.3587306,-0.45066583,-2.0659463,-0.0002872811,-0.0017065355,-0.00033377134
UncalMag,1676595091129,32147951416415,-171.4344,739.808,398.147,-177.00775,769.7961,430.15182
UncalAccel,1676595091129,32147951853040,-2.3084757,2.9186454,7.792227,0.037048545,-0.031444572,0.0098014325
OrientationDeg,1676595091129,32147951853040,189.0,2.0,-10.0
Fix,FLP,37.4311241000,-122.1551428000,-16.100000381469727,0.20024501,4.134,125.74858,1676595090777,,,32147599895383,2.6139963
UncalGyro,1676595091134,32147956085614,-0.45555276,-0.23457226,-1.8606955,-0.0002872811,-0.0017065355,-0.00033377134
UncalAccel,1676595091138,32147960335695,-2.352743,3.1770704,7.73779,0.037048545,-0.031444572,0.0098014325
UncalMag,1676595091139,32147961411247,-170.0802,739.75916,398.7082,-177.00775,769.7961,430.15182
OrientationDeg,1676595091138,32147960335695,190.0,2.0,-10.0
UncalGyro,1676595091142,32147964577180,-0.5493206,-0.018020526,-1.6841555,-0.0002872811,-0.0017065355,-0.00033377134
UncalAccel,1676595091146,32147968819601,-2.428715,3.3445678,7.57448,0.037048545,-0.031444572,0.0098014325
OrientationDeg,1676595091146,32147968819601,190.0,2.0,-10.0
UncalMag,1676595091149,32147971418570,-169.519,740.2838,398.452,-177.00775,769.7961,430.15182
UncalGyro,1676595091151,32147973054403,-0.6267477,0.18387043,-1.5318973,-0.0002872811,-0.0017065355,-0.00033377134
UncalAccel,1676595091155,32147977280996,-2.510071,3.4301112,7.5637126,0.037048545,-0.031444572,0.0098014325
OrientationDeg,1676595091155,32147977280996,191.0,2.0,-9.0
UncalMag,1676595091159,32147981418854,-169.3116,740.18616,397.9396,-177.00775,769.7961,430.15182
UncalGyro,1676595091159,32147981539734,-0.6918049,0.38866302,-1.3923146,-0.0002872811,-0.0017065355,-0.00033377134
UncalAccel,1676595091163,32147985778432,-2.693122,3.5682967,7.576275,0.037048545,-0.031444572,0.0098014325
OrientationDeg,1676595091163,32147985778432,192.0,3.0,-9.0
UncalGyro,1676595091168,32147990018493,-0.7461719,0.5844453,-1.2622004,-0.0002872811,-0.0017065355,-0.00033377134
UncalMag,1676595091169,32147991421620,-168.2502,740.4668,397.8664,-177.00775,769.7961,430.15182
UncalAccel,1676595091172,32147994260568,-2.909074,3.7728832,7.573882,0.037048545,-0.031444572,0.0098014325
OrientationDeg,1676595091172,32147994260568,192.0,3.0,-9.0
UncalGyro,1676595091176,32147998501881,-0.8002335,0.7496844,-1.132086,-0.0002872811,-0.0017065355,-0.00033377134
UncalMag,1676595091179,32148001421742,-168.1526,740.4668,397.6224,-177.00775,769.7961,430.15182
UncalAccel,1676595091180,32148002743264,-3.1393833,3.9104705,7.524231,0.037048545,-0.031444572,0.0098014325
OrientationDeg,1676595091180,32148002743264,193.0,4.0,-8.0
UncalGyro,1676595091184,32148006984984,-0.8720101,0.86758137,-0.9952522,-0.0002872811,-0.0017065355,-0.00033377134
UncalAccel,1676595091189,32148011230426,-3.3732817,4.000201,7.4602227,0.037048545,-0.031444572,0.0098014325
OrientationDeg,1676595091189,32148011230426,193.0,4.0,-8.0
UncalMag,1676595091189,32148011420479,-166.6398,741.2842,397.781,-177.00775,769.7961,430.15182
UncalGyro,1676595091193,32148015464577,-0.9949468,0.928057,-0.8546005,-0.0002872811,-0.0017065355,-0.00033377134
UncalAccel,1676595091197,32148019704790,-3.6077783,4.156931,7.3573313,0.037048545,-0.031444572,0.0098014325
UncalMag,1676595091199,32148021421659,-166.713,741.78436,397.293,-177.00775,769.7961,430.15182
OrientationDeg,1676595091197,32148019704790,193.0,5.0,-7.0
UncalGyro,1676595091201,32148023943387,-1.1852313,0.925919,-0.71669763,-0.0002872811,-0.0017065355,-0.00033377134
UncalAccel,1676595091206,32148028184781,-3.8183467,4.299304,7.240681,0.037048545,-0.031444572,0.0098014325
OrientationDeg,1676595091206,32148028184781,194.0,5.0,-7.0
UncalMag,1676595091209,32148031421861,-166.3714,742.1504,397.36618,-177.00775,769.7961,430.15182
UncalGyro,1676595091210,32148032426123,-1.4401149,0.8559749,-0.5815437,-0.0002872811,-0.0017065355,-0.00033377134
UncalAccel,1676595091214,32148036666215,-4.007978,4.3274198,7.0055866,0.037048545,-0.031444572,0.0098014325
OrientationDeg,1676595091214,32148036666215,194.0,6.0,-6.0
UncalGyro,1676595091218,32148040907059,-1.7450893,0.7142542,-0.45158213,-0.0002872811,-0.0017065355,-0.00033377134
UncalMag,1676595091219,32148041419623,-165.7248,742.492,396.7074,-177.00775,769.7961,430.15182
UncalAccel,1676595091223,32148045144271,-4.5134616,3.3810585,6.835696,0.037048545,-0.031444572,0.0098014325
OrientationDeg,1676595091223,32148045144271,194.0,6.0,-5.0
UncalGyro,1676595091227,32148049389165,-1.4083499,-0.12522738,0.13622294,-0.0002872811,-0.0017065355,-0.00033377134
UncalMag,1676595091229,32148051418198,-165.493,742.8214,395.93878,-177.00775,769.7961,430.15182
UncalAccel,1676595091231,32148053629726,-8.974879,-3.4486556,15.351752,0.037048545,-0.031444572,0.0098014325
OrientationDeg,1676595091231,32148053629726,193.0,6.0,-5.0
UncalGyro,1676595091235,32148057871851,1.3877331,-0.54443365,1.8406897,-0.0002872811,-0.0017065355,-0.00033377134
UncalMag,1676595091239,32148061421534,-165.88339,743.2362,395.4386,-177.00775,769.7961,430.15182
UncalAccel,1676595091240,32148062109441,-4.5278187,-0.48394838,17.83251,0.037048545,-0.031444572,0.0098014325
OrientationDeg,1676595091240,32148062109441,192.0,5.0,-6.0
UncalGyro,1676595091244,32148066350579,2.4581218,-0.18997909,2.304031,-0.0002872811,-0.0017065355,-0.00033377134
UncalAccel,1676595091248,32148070590458,-0.98584294,3.6915271,14.6022005,0.037048545,-0.031444572,0.0098014325
OrientationDeg,1676595091248,32148070590458,191.0,5.0,-8.0
UncalMag,1676595091249,32148071411198,-166.99359,742.2968,397.0612,-177.00775,769.7961,430.15182
UncalGyro,1676595091252,32148074832105,2.2046127,0.2519819,1.7948748,-0.0002872811,-0.0017065355,-0.00033377134
UncalAccel,1676595091257,32148079071832,-3.1190443,4.8622155,8.659625,0.037048545,-0.031444572,0.0098014325
OrientationDeg,1676595091257,32148079071832,191.0,5.0,-9.0
UncalMag,1676595091259,32148081421532,-168.0916,741.4428,398.33,-177.00775,769.7961,430.15182
UncalGyro,1676595091261,32148083313388,1.525636,0.098807454,1.1691961,-0.0002872811,-0.0017065355,-0.00033377134
UncalAccel,1676595091266,32148087553897,-2.489732,3.6951163,9.777073,0.037048545,-0.031444572,0.0098014325
OrientationDeg,1676595091265,32148087553897,190.0,5.0,-9.0
UncalMag,1676595091269,32148091421531,-168.0306,740.73517,397.9274,-177.00775,769.7961,430.15182
UncalGyro,1676595091269,32148091791832,0.75976366,-0.035277467,0.61269784,-0.0002872811,-0.0017065355,-0.00033377134
UncalAccel,1676595091274,32148096022442,-1.0971092,3.318845,8.021938,0.037048545,-0.031444572,0.0098014325
OrientationDeg,1676595091274,32148096022442,190.0,5.0,-9.0
UncalGyro,1676595091278,32148100270681,-0.06307184,-0.2591596,0.15195273,-0.0002872811,-0.0017065355,-0.00033377134
UncalMag,1676595091279,32148101413515,-168.4332,740.8938,397.4882,-177.00775,769.7961,430.15182
UncalAccel,1676595091282,32148104514599,-0.12203395,1.6731812,7.2915287,0.037048545,-0.031444572,0.0098014325
OrientationDeg,1676595091282,32148104514599,190.0,5.0,-9.0
UncalGyro,1676595091286,32148108768200,-0.75228053,-0.45051312,-0.15470162,-0.0002872811,-0.0017065355,-0.00033377134
UncalMag,1676595091289,32148111421571,-168.73819,741.14996,397.5492,-177.00775,769.7961,430.15182
UncalAccel,1676595091290,32148112993277,0.9062816,0.5886344,6.7645097,0.037048545,-0.031444572,0.0098014325
OrientationDeg,1676595091290,32148112993277,190.0,5.0,-9.0
UncalGyro,1676595091295,32148117236349,-1.1840096,-0.6411031,-0.48563787,-0.0002872811,-0.0017065355,-0.00033377134
UncalMag,1676595091299,32148121421570,-168.10379,741.24756,397.68338,-177.00775,769.7961,430.15182
UncalAccel,1676595091299,32148121462860,0.84107715,2.4329023,6.497112,0.037048545,-0.031444572,0.0098014325
OrientationDeg,1676595091299,32148121462860,191.0,4.0,-8.0
UncalGyro,1676595091303,32148125710418,-1.4086553,-0.8061894,-0.79641557,-0.0002872811,-0.0017065355,-0.00033377134
UncalAccel,1676595091307,32148129958668,0.78065836,3.8386858,7.8352976,0.037048545,-0.031444572,0.0098014325
UncalMag,1676595091309,32148131410868,-168.7992,741.8332,397.354,-177.00775,769.7961,430.15182
OrientationDeg,1676595091307,32148129958668,191.0,4.0,-7.0
UncalGyro,1676595091312,32148134202687,-1.3935363,-0.7693848,-0.97234476,-0.0002872811,-0.0017065355,-0.00033377134
UncalAccel,1676595091316,32148138442279,0.28235307,4.38066,8.211569,0.037048545,-0.031444572,0.0098014325
OrientationDeg,1676595091316,32148138442279,192.0,4.0,-7.0
UncalMag,1676595091319,32148141421731,-169.2506,742.9068,395.6948,-177.00775,769.7961,430.15182
UncalGyro,1676595091320,32148142681323,-1.244027,-0.6082691,-1.047023,-0.0002872811,-0.0017065355,-0.00033377134
UncalAccel,1676595091324,32148146920662,-0.7531409,5.150551,8.005188,0.037048545,-0.031444572,0.0098014325
OrientationDeg,1676595091324,32148146920662,192.0,4.0,-6.0
UncalGyro,1676595091329,32148151162615,-1.0262536,-0.47540587,-1.212873,-0.0002872811,-0.0017065355,-0.00033377134
UncalMag,1676595091329,32148151418597,-168.5186,742.95557,396.52438,-177.00775,769.7961,430.15182
UncalAccel,1676595091333,32148155403531,-1.9040886,4.975875,7.879565,0.037048545,-0.031444572,0.0098014325
OrientationDeg,1676595091333,32148155403531,193.0,3.0,-6.0
UncalGyro,1676595091337,32148159643062,-0.78877974,-0.49403727,-1.529912,-0.0002872811,-0.0017065355,-0.00033377134
UncalMag,1676595091339,32148161418352,-168.4698,743.6388,396.0852,-177.00775,769.7961,430.15182
UncalAccel,1676595091341,32148163880144,-2.6105695,4.214359,8.298907,0.037048545,-0.031444572,0.0098014325
OrientationDeg,1676595091341,32148163880144,193.0,3.0,-5.0
UncalGyro,1676595091346,32148168121049,-0.5502369,-0.40775254,-1.91323,-0.0002872811,-0.0017065355,-0.00033377134
UncalMag,1676595091349,32148171421648,-168.3478,743.89496,395.78018,-177.00775,769.7961,430.15182
UncalAccel,1676595091350,32148172361812,-1.1078769,3.2015967,12.017353,0.037048545,-0.031444572,0.0098014325
OrientationDeg,1676595091350,32148172361812,195.0,3.0,-5.0
UncalGyro,1676595091354,32148176596065,-0.4082107,-0.3200934,-2.1563544,-0.0002872811,-0.0017065355,-0.00033377134
UncalAccel,1676595091358,32148180846319,0.762114,1.2843475,8.287541,0.037048545,-0.031444572,0.0098014325
UncalMag,1676595091359,32148181411434,-167.60359,744.1512,395.219,-177.00775,769.7961,430.15182
OrientationDeg,1676595091358,32148180846319,196.0,3.0,-5.0
UncalGyro,1676595091363,32148185087082,-0.33460143,-0.52534413,-2.0738876,-0.0002872811,-0.0017065355,-0.00033377134
UncalAccel,1676595091367,32148189330389,3.8877387,1.7425731,9.5557375,0.037048545,-0.031444572,0.0098014325
OrientationDeg,1676595091367,32148189330389,196.0,3.0,-5.0
UncalMag,1676595091369,32148191421646,-166.8472,744.5172,395.5362,-177.00775,769.7961,430.15182
UncalGyro,1676595091371,32148193568975,-0.2302962,-0.46777007,-1.778076,-0.0002872811,-0.0017065355,-0.00033377134
UncalAccel,1676595091375,32148197807743,6.5641108,2.78046,9.113664,0.037048545,-0.031444572,0.0098014325
OrientationDeg,1676595091375,32148197807743,197.0,3.0,-5.0
UncalMag,1676595091379,32148201421564,-166.83499,744.85876,395.24338,-177.00775,769.7961,430.15182
UncalGyro,1676595091380,32148202048933,0.116217114,-0.18509217,-1.2890784,-0.0002872811,-0.0017065355,-0.00033377134
UncalAccel,1676595091384,32148206286838,7.696514,3.2135608,8.961121,0.037048545,-0.031444572,0.0098014325
OrientationDeg,1676595091384,32148206286838,198.0,3.0,-5.0
UncalGyro,1676595091388,32148210523684,0.63804877,0.2968805,-0.83291477,-0.0002872811,-0.0017065355,-0.00033377134
UncalMag,1676595091389,32148211411269,-166.6398,744.6026,395.30438,-177.00775,769.7961,430.15182
UncalAccel,1676595091392,32148214765068,6.140581,3.4971104,11.513066,0.037048545,-0.031444572,0.0098014325
OrientationDeg,1676595091392,32148214765068,198.0,3.0,-5.0
UncalGyro,1676595091396,32148218992974,1.1701124,1.0925325,-0.59528816,-0.0002872811,-0.0017065355,-0.00033377134
UncalMag,1676595091399,32148221421522,-166.347,744.2854,396.1828,-177.00775,769.7961,430.15182
UncalAccel,1676595091401,32148223253563,3.5940197,3.8506498,14.076976,0.037048545,-0.031444572,0.0098014325
OrientationDeg,1676595091401,32148223253563,198.0,4.0,-6.0
UncalGyro,1676595091405,32148227492505,1.6105462,1.9564487,-0.56001073,-0.0002872811,-0.0017065355,-0.00033377134
UncalMag,1676595091409,32148231418673,-165.8468,743.9316,395.3654,-177.00775,769.7961,430.15182
UncalAccel,1676595091409,32148231733919,1.5110675,4.025924,12.984054,0.037048545,-0.031444572,0.0098014325
OrientationDeg,1676595091409,32148231733919,199.0,5.0,-7.0
UncalGyro,1676595091413,32148235962749,1.7989981,2.2084305,-0.71791935,-0.0002872811,-0.0017065355,-0.00033377134
UncalAccel,1676595091418,32148240210450,-1.0588241,4.284349,12.389438,0.037048545,-0.031444572,0.0098014325
UncalMag,1676595091419,32148241416882,-165.0294,743.6388,396.84158,-177.00775,769.7961,430.15182
OrientationDeg,1676595091418,32148240210450,199.0,6.0,-8.0
UncalGyro,1676595091422,32148244444377,1.5343407,1.4439328,-0.9952522,-0.0002872811,-0.0017065355,-0.00033377134
UncalAccel,1676595091426,32148248697083,-3.3469608,4.2107697,13.3537445,0.037048545,-0.031444572,0.0098014325
OrientationDeg,1676595091426,32148248697083,200.0,6.0,-8.0
UncalMag,1676595091429,32148251411347,-164.5536,742.797,397.598,-177.00775,769.7961,430.15182
UncalGyro,1676595091430,32148252936229,0.6270532,0.41691554,-1.3854424,-0.0002872811,-0.0017065355,-0.00033377134
UncalAccel,1676595091435,32148257179605,-2.8666015,4.0307097,13.815559,0.037048545,-0.031444572,0.0098014325
OrientationDeg,1676595091435,32148257179605,201.0,7.0,-8.0
UncalGyro,1676595091439,32148261413533,-0.3930918,-0.015271631,-1.7912096,-0.0002872811,-0.0017065355,-0.00033377134
UncalMag,1676595091439,32148261430226,-162.65039,743.1874,397.7688,-177.00775,769.7961,430.15182
UncalAccel,1676595091443,32148265637979,-1.2837493,4.67737,14.046467,0.037048545,-0.031444572,0.0098014325
OrientationDeg,1676595091443,32148265637979,202.0,7.0,-8.0
UncalGyro,1676595091447,32148269898141,-1.0711522,0.15897769,-2.0769417,-0.0002872811,-0.0017065355,-0.00033377134
UncalMag,1676595091449,32148271421518,-162.65039,743.1874,397.7688,-177.00775,769.7961,430.15182
UncalAccel,1676595091452,32148274137603,0.45044887,3.9804604,13.550554,0.037048545,-0.031444572,0.0098014325
OrientationDeg,1676595091452,32148274137603,203.0,7.0,-7.0
UncalGyro,1676595091456,32148278384103,-1.4639386,0.42332962,-2.1723895,-0.0002872811,-0.0017065355,-0.00033377134
UncalMag,1676595091459,32148281421517,-162.687,744.2976,396.7074,-177.00775,769.7961,430.15182
UncalAccel,1676595091460,32148282618894,1.6456637,2.940779,12.384652,0.037048545,-0.031444572,0.0098014325
OrientationDeg,1676595091460,32148282618894,204.0,7.0,-6.0
UncalGyro,1676595091464,32148286860695,-1.7318029,0.4738787,-2.1569653,-0.0002872811,-0.0017065355,-0.00033377134
UncalAccel,1676595091469,32148291100288,1.4829519,1.8335004,11.968899,0.037048545,-0.031444572,0.0098014325
UncalMag,1676595091469,32148291414274,-160.735,745.542,396.2194,-177.00775,769.7961,430.15182
OrientationDeg,1676595091469,32148291100288,204.0,8.0,-5.0
UncalGyro,1676595091473,32148295337144,-1.8903224,0.4195117,-2.080607,-0.0002872811,-0.0017065355,-0.00033377134
UncalAccel,1676595091477,32148299576646,0.738784,0.75613195,11.797812,0.037048545,-0.031444572,0.0098014325
OrientationDeg,1676595091477,32148299576646,205.0,8.0,-4.0
UncalMag,1676595091479,32148301421678,-160.735,745.542,396.2194,-177.00775,769.7961,430.15182
UncalGyro,1676595091481,32148303822801,-1.9294178,0.35537085,-1.9712621,-0.0002872811,-0.0017065355,-0.00033377134
UncalAccel,1676595091486,32148308063045,0.2213361,-0.023330022,11.851052,0.037048545,-0.031444572,0.0098014325
OrientationDeg,1676595091486,32148308063045,206.0,8.0,-3.0
UncalMag,1676595091489,32148311421881,-160.13719,746.64,394.9018,-177.00775,769.7961,430.15182
UncalGyro,1676595091490,32148312305029,-1.8556559,0.30833423,-1.843744,-0.0002872811,-0.0017065355,-0.00033377134
UncalAccel,1676595091494,32148316545121,0.071186475,-0.6945168,11.939587,0.037048545,-0.031444572,0.0098014325
OrientationDeg,1676595091494,32148316545121,207.0,8.0,-2.0
UncalGyro,1676595091498,32148320791885,-1.7014124,0.26908615,-1.6833919,-0.0002872811,-0.0017065355,-0.00033377134
UncalMag,1676595091499,32148321425990,-159.2832,748.55536,394.365,-177.00775,769.7961,430.15182
UncalAccel,1676595091503,32148325025730,0.18424734,-1.3980067,12.001202,0.037048545,-0.031444572,0.0098014325
OrientationDeg,1676595091503,32148325025730,207.0,8.0,-1.0
UncalGyro,1676595091507,32148329267075,-1.4795157,0.24724771,-1.4767667,-0.0002872811,-0.0017065355,-0.00033377134
UncalMag,1676595091509,32148331421554,-158.59999,749.4582,394.92618,-177.00775,769.7961,430.15182
UncalAccel,1676595091511,32148333504084,0.34037903,-1.9244276,11.99522,0.037048545,-0.031444572,0.0098014325
OrientationDeg,1676595091511,32148333504084,208.0,8.0,0.0
UncalGyro,1676595091515,32148337747105,-1.1927143,0.26389378,-1.2405146,-0.0002872811,-0.0017065355,-0.00033377134
UncalMag,1676595091519,32148341421716,-157.4288,749.83636,395.1092,-177.00775,769.7961,430.15182
UncalAccel,1676595091519,32148341986291,0.36191443,-2.2588246,11.858231,0.037048545,-0.031444572,0.0098014325
OrientationDeg,1676595091519,32148341986291,208.0,9.0,0.0
UncalGyro,1676595091524,32148346228315,-0.86498517,0.31764993,-1.0001391,-0.0002872811,-0.0017065355,-0.00033377134
UncalAccel,1676595091528,32148350465070,0.26081768,-2.2779672,11.371291,0.037048545,-0.031444572,0.0098014325
UncalMag,1676595091529,32148351411055,-158.051,749.9706,394.3162,-177.00775,769.7961,430.15182
OrientationDeg,1676595091528,32148350465070,209.0,9.0,0.0
UncalGyro,1676595091532,32148354699160,-0.52946746,0.34498614,-0.77747875,-0.0002872811,-0.0017065355,-0.00033377134
UncalAccel,1676595091536,32148358950137,-0.07716853,-1.9298115,10.904093,0.037048545,-0.031444572,0.0098014325
OrientationDeg,1676595091536,32148358950137,209.0,9.0,0.0
UncalMag,1676595091539,32148361425417,-157.69719,750.58057,394.08438,-177.00775,769.7961,430.15182
UncalGyro,1676595091541,32148363189069,-0.21838433,0.3284928,-0.59971696,-0.0002872811,-0.0017065355,-0.00033377134
UncalAccel,1676595091545,32148367426912,-0.6759724,-1.3866407,10.649257,0.037048545,-0.031444572,0.0098014325
OrientationDeg,1676595091545,32148367426912,209.0,9.0,0.0
UncalMag,1676595091549,32148371421714,-157.3068,750.1902,394.9506,-177.00775,769.7961,430.15182
UncalGyro,1676595091549,32148371669435,0.03145956,0.25610524,-0.49388456,-0.0002872811,-0.0017065355,-0.00033377134
UncalAccel,1676595091553,32148375903169,-1.4243277,-0.8452646,10.555937,0.037048545,-0.031444572,0.0098014325
OrientationDeg,1676595091553,32148375903169,210.0,9.0,0.0
UncalGyro,1676595091558,32148380154460,0.18661933,0.129198,-0.46502116,-0.0002872811,-0.0017065355,-0.00033377134
UncalMag,1676595091559,32148381421550,-156.9164,749.7388,394.4748,-177.00775,769.7961,430.15182
UncalAccel,1676595091562,32148384389873,-2.0578275,-0.4660022,10.607383,0.037048545,-0.031444572,0.0098014325
OrientationDeg,1676595091562,32148384389873,210.0,9.0,0.0
UncalGyro,1676595091566,32148388625814,0.25411993,-0.01695151,-0.49571714,-0.0002872811,-0.0017065355,-0.00033377134
UncalMag,1676595091569,32148391421468,-157.3068,750.15356,394.0966,-177.00775,769.7961,430.15182
UncalAccel,1676595091570,32148392874888,-2.3665016,-0.21954148,10.747363,0.037048545,-0.031444572,0.0098014325
OrientationDeg,1676595091570,32148392874888,210.0,9.0,0.0
UncalGyro,1676595091575,32148397116179,0.2648101,-0.12614368,-0.5525276,-0.0002872811,-0.0017065355,-0.00033377134
UncalAccel,1676595091579,32148401357197,-2.243271,-0.10827523,10.809576,0.037048545,-0.031444572,0.0098014325
OrientationDeg,1676595091579,32148401357197,210.0,9.0,0.0
UncalMag,1676595091579,32148401411336,-157.2092,750.0682,393.9502,-177.00775,769.7961,430.15182
UncalGyro,1676595091583,32148405593423,0.25213462,-0.18203785,-0.6053675,-0.0002872811,-0.0017065355,-0.00033377134
UncalAccel,1676595091587,32148409826058,-1.8311075,-0.12502499,10.726426,0.037048545,-0.031444572,0.0098014325
OrientationDeg,1676595091587,32148409826058,211.0,9.0,0.0
UncalMag,1676595091589,32148411411009,-156.8676,750.605,394.3162,-177.00775,769.7961,430.15182
UncalGyro,1676595091592,32148414077544,0.24266621,-0.18509217,-0.63407815,-0.0002872811,-0.0017065355,-0.00033377134
UncalAccel,1676595091596,32148418316994,-1.4333007,-0.21834506,10.6815605,0.037048545,-0.031444572,0.0098014325
OrientationDeg,1676595091596,32148418316994,211.0,9.0,0.0
UncalMag,1676595091599,32148421418658,-157.2824,750.483,393.44998,-177.00775,769.7961,430.15182
UncalGyro,1676595091600,32148422560189,0.24190263,-0.1348485,-0.6264423,-0.0002872811,-0.0017065355,-0.00033377134
UncalAccel,1676595091604,32148426793109,-1.1497513,-0.28773692,10.526625,0.037048545,-0.031444572,0.0098014325
OrientationDeg,1676595091604,32148426793109,211.0,9.0,0.0
UncalGyro,1676595091609,32148431029253,0.24373524,-0.04795292,-0.59513545,-0.0002872811,-0.0017065355,-0.00033377134
UncalMag,1676595091609,32148431407915,-156.8676,750.5074,393.92578,-177.00775,769.7961,430.15182
UncalAccel,1676595091613,32148435279273,-1.0869397,-0.22971097,10.383654,0.037048545,-0.031444572,0.0098014325
OrientationDeg,1676595091613,32148435279273,212.0,9.0,0.0
UncalGyro,1676595091617,32148439518754,0.23884831,0.055741455,-0.5590944,-0.0002872811,-0.0017065355,-0.00033377134
UncalMag,1676595091619,32148441421912,-156.9774,750.5196,394.1698,-177.00775,769.7961,430.15182
UncalAccel,1676595091621,32148443752082,-1.1820544,-0.14895321,10.2347,0.037048545,-0.031444572,0.0098014325
OrientationDeg,1676595091621,32148443752082,212.0,9.0,0.0
UncalGyro,1676595091626,32148448001816,0.21166481,0.16508633,-0.5317582,-0.0002872811,-0.0017065355,-0.00033377134
UncalMag,1676595091629,32148451421708,-156.9652,750.5928,393.7062,-177.00775,769.7961,430.15182
UncalAccel,1676595091630,32148452241572,-1.3238292,-0.06759724,9.994222,0.037048545,-0.031444572,0.0098014325
OrientationDeg,1676595091630,32148452241572,212.0,9.0,0.0
UncalGyro,1676595091634,32148456485997,0.16264287,0.26313022,-0.5190827,-0.0002872811,-0.0017065355,-0.00033377134
UncalAccel,1676595091638,32148460721654,-1.4231312,0.032303106,9.787841,0.037048545,-0.031444572,0.0098014325
UncalMag,1676595091639,32148461405716,-157.0506,750.89777,395.35318,-177.00775,769.7961,430.15182
OrientationDeg,1676595091638,32148460721654,212.0,9.0,0.0
UncalGyro,1676595091642,32148464957402,0.09193522,0.35216382,-0.5193882,-0.0002872811,-0.0017065355,-0.00033377134
UncalAccel,1676595091647,32148469203638,-1.4506488,0.123828575,9.582058,0.037048545,-0.031444572,0.0098014325
UncalMag,1676595091649,32148471421625,-155.6964,750.8124,394.45038,-177.00775,769.7961,430.15182
OrientationDeg,1676595091647,32148469203638,213.0,9.0,0.0
UncalGyro,1676595091651,32148473442326,0.0065668016,0.43203443,-0.52671856,-0.0002872811,-0.0017065355,-0.00033377134
UncalAccel,1676595091655,32148477675917,-1.4303098,0.11485548,9.35833,0.037048545,-0.031444572,0.0098014325
OrientationDeg,1676595091655,32148477675917,213.0,9.0,0.0
UncalMag,1676595091659,32148481418613,-156.5504,750.5196,394.1698,-177.00775,769.7961,430.15182
UncalGyro,1676595091659,32148481925439,-0.083383106,0.4999932,-0.5358815,-0.0002872811,-0.0017065355,-0.00033377134
UncalAccel,1676595091664,32148486162723,-1.3848461,0.034097724,9.086744,0.037048545,-0.031444572,0.0098014325
OrientationDeg,1676595091664,32148486162723,213.0,10.0,0.0
UncalGyro,1676595091668,32148490408552,-0.16676621,0.5491679,-0.54382277,-0.0002872811,-0.0017065355,-0.00033377134
UncalMag,1676595091669,32148491411207,-156.08679,751.4346,394.975,-177.00775,769.7961,430.15182
UncalAccel,1676595091672,32148494637086,-1.3387842,-0.008374879,8.79123,0.037048545,-0.031444572,0.0098014325
OrientationDeg,1676595091672,32148494637086,213.0,10.0,0.0
UncalGyro,1676595091676,32148498878736,-0.23182335,0.5693264,-0.5502369,-0.0002872811,-0.0017065355,-0.00033377134
UncalMag,1676595091679,32148501421541,-155.5744,751.1784,394.9018,-177.00775,769.7961,430.15182
UncalAccel,1676595091681,32148503127901,-1.3274183,-0.026919255,8.529217,0.037048545,-0.031444572,0.0098014325
OrientationDeg,1676595091681,32148503127901,214.0,10.0,0.0
UncalGyro,1676595091685,32148507371583,-0.27870727,0.5569564,-0.55741453,-0.0002872811,-0.0017065355,-0.00033377134
UncalMag,1676595091689,32148511421581,-155.18399,750.6416,394.40158,-177.00775,769.7961,430.15182
UncalAccel,1676595091689,32148511609956,-1.3256238,-0.10827523,8.371888,0.037048545,-0.031444572,0.0098014325
OrientationDeg,1676595091689,32148511609956,214.0,11.0,0.0
UncalGyro,1676595091693,32148515842804,-0.29810223,0.52519137,-0.5664248,-0.0002872811,-0.0017065355,-0.00033377134
UncalAccel,1676595091698,32148520090556,-1.2472588,-0.22253251,8.182257,0.037048545,-0.031444572,0.0098014325
UncalMag,1676595091699,32148521410920,-155.0376,751.4468,394.9506,-177.00775,769.7961,430.15182
OrientationDeg,1676595091698,32148520090556,214.0,11.0,0.0
UncalGyro,1676595091702,32148524332347,-0.2930626,0.46731192,-0.58016926,-0.0002872811,-0.0017065355,-0.00033377134
UncalAccel,1676595091706,32148528572225,-1.1066805,-0.42711884,8.07458,0.037048545,-0.031444572,0.0098014325
OrientationDeg,1676595091706,32148528572225,214.0,11.0,1.0
UncalMag,1676595091709,32148531421580,-154.7204,751.51996,393.999,-177.00775,769.7961,430.15182
UncalGyro,1676595091710,32148532803700,-0.2602286,0.40698898,-0.5841399,-0.0002872811,-0.0017065355,-0.00033377134
UncalAccel,1676595091715,32148537052764,-0.90388876,-0.6658029,8.014759,0.037048545,-0.031444572,0.0098014325
OrientationDeg,1676595091715,32148537052764,215.0,11.0,1.0
UncalGyro,1676595091719,32148541290679,-0.19914207,0.3483459,-0.567952,-0.0002872811,-0.0017065355,-0.00033377134
UncalMag,1676595091719,32148541407948,-154.3788,751.9836,394.9506,-177.00775,769.7961,430.15182
UncalAccel,1676595091723,32148545522439,-0.70229346,-0.86081797,7.9836526,0.037048545,-0.031444572,0.0098014325
OrientationDeg,1676595091723,32148545522439,215.0,11.0,1.0
UncalGyro,1676595091727,32148549774646,-0.122783914,0.29138273,-0.5335908,-0.0002872811,-0.0017065355,-0.00033377134
UncalMag,1676595091729,32148551418567,-154.5374,752.6668,394.6334,-177.00775,769.7961,430.15182
UncalAccel,1676595091732,32148554009550,-0.54317075,-1.0510473,7.9950185,0.037048545,-0.031444572,0.0098014325
OrientationDeg,1676595091732,32148554009550,215.0,11.0,1.0
UncalGyro,1676595091736,32148558246915,-0.037873644,0.23777929,-0.48701233,-0.0002872811,-0.0017065355,-0.00033377134
UncalMag,1676595091739,32148561412789,-154.0494,752.15436,394.731,-177.00775,769.7961,430.15182
UncalAccel,1676595091740,32148562497149,-0.42711884,-1.2370893,7.982456,0.037048545,-0.031444572,0.0098014325
OrientationDeg,1676595091740,32148562497149,215.0,11.0,1.0
UncalGyro,1676595091745,32148566738126,0.05222898,0.18493946,-0.42943826,-0.0002872811,-0.0017065355,-0.00033377134
UncalAccel,1676595091748,32148570980455,-0.35533416,-1.2849457,7.963912,0.037048545,-0.031444572,0.0098014325
UncalMag,1676595091749,32148571429552,-153.537,752.1056,395.56058,-177.00775,769.7961,430.15182
OrientationDeg,1676595091748,32148570980455,216.0,12.0,1.0
UncalGyro,1676595091753,32148575218359,0.14248432,0.13820826,-0.36545014,-0.0002872811,-0.0017065355,-0.00033377134
UncalAccel,1676595091757,32148579458197,-0.35533416,-1.2658032,7.9974113,0.037048545,-0.031444572,0.0098014325
OrientationDeg,1676595091757,32148579458197,216.0,12.0,1.0
UncalMag,1676595091759,32148581421454,-153.6346,752.0812,394.5846,-177.00775,769.7961,430.15182
UncalGyro,1676595091761,32148583698838,0.22113322,0.0936151,-0.30298916,-0.0002872811,-0.0017065355,-0.00033377134
UncalAccel,1676595091766,32148587934678,-0.41336012,-1.1940185,8.025527,0.037048545,-0.031444572,0.0098014325
OrientationDeg,1676595091765,32148587934678,216.0,12.0,1.0
UncalMag,1676595091769,32148591421413,-153.30519,752.4228,394.29178,-177.00775,769.7961,430.15182
UncalGyro,1676595091770,32148592181198,0.2782491,0.032070424,-0.24862215,-0.0002872811,-0.0017065355,-0.00033377134
UncalAccel,1676595091774,32148596421819,-0.55453664,-1.018146,8.181061,0.037048545,-0.031444572,0.0098014325
OrientationDeg,1676595091774,32148596421819,216.0,12.0,1.0
UncalGyro,1676595091778,32148600664189,0.30695978,-0.04932737,-0.21074851,-0.0002872811,-0.0017065355,-0.00033377134
UncalMag,1676595091779,32148601411361,-153.30519,752.48376,396.1218,-177.00775,769.7961,430.15182
UncalAccel,1676595091782,32148604898736,-0.7926225,-0.79501534,8.554939,0.037048545,-0.031444572,0.0098014325
OrientationDeg,1676595091782,32148604898736,216.0,11.0,1.0
UncalGyro,1676595091787,32148609132268,0.30268374,-0.124769226,-0.20005837,-0.0002872811,-0.0017065355,-0.00033377134
UncalMag,1676595091789,32148611418319,-152.7928,752.3008,395.585,-177.00775,769.7961,430.15182
UncalAccel,1676595091791,32148613381880,-1.0546366,-0.7256235,8.973084,0.037048545,-0.031444572,0.0098014325
OrientationDeg,1676595091791,32148613381880,216.0,11.0,1.0
UncalGyro,1676595091795,32148617621372,0.2762638,-0.16676621,-0.21533,-0.0002872811,-0.0017065355,-0.00033377134
UncalMag,1676595091799,32148621421532,-153.6102,752.5326,395.30438,-177.00775,769.7961,430.15182
UncalAccel,1676595091799,32148621864321,-1.166501,-0.7363912,9.239884,0.037048545,-0.031444572,0.0098014325
OrientationDeg,1676595091799,32148621864321,216.0,11.0,1.0
UncalGyro,1676595091804,32148626096967,0.24938573,-0.17562376,-0.23823744,-0.0002872811,-0.0017065355,-0.00033377134
UncalAccel,1676595091808,32148630346946,-1.1814562,-0.79860455,9.359526,0.037048545,-0.031444572,0.0098014325
UncalMag,1676595091809,32148631411074,-153.5492,751.9104,394.9018,-177.00775,769.7961,430.15182
OrientationDeg,1676595091808,32148630346946,217.0,11.0,0.0
UncalGyro,1676595091812,32148634586702,0.24174993,-0.15974127,-0.25060746,-0.0002872811,-0.0017065355,-0.00033377134
UncalAccel,1676595091816,32148638825808,-1.1617154,-0.91346,9.422338,0.037048545,-0.031444572,0.0098014325
OrientationDeg,1676595091816,32148638825808,217.0,11.0,0.0
UncalMag,1676595091819,32148641421816,-153.43939,751.83716,395.1214,-177.00775,769.7961,430.15182
UncalGyro,1676595091821,32148643056754,0.26160303,-0.12568553,-0.2454151,-0.0002872811,-0.0017065355,-0.00033377134
UncalAccel,1676595091825,32148647307130,-1.1419746,-1.0857433,9.399008,0.037048545,-0.031444572,0.0098014325
OrientationDeg,1676595091825,32148647307130,217.0,11.0,0.0
UncalMag,1676595091829,32148651421571,-153.354,751.6664,395.4508,-177.00775,769.7961,430.15182
UncalGyro,1676595091829,32148651548737,0.30573806,-0.0888809,-0.21578814,-0.0002872811,-0.0017065355,-0.00033377134
UncalAccel,1676595091833,32148655790863,-1.1347961,-1.3058829,9.252447,0.037048545,-0.031444572,0.0098014325
OrientationDeg,1676595091833,32148655790863,217.0,11.0,0.0
UncalGyro,1676595091838,32148660030151,0.377362,-0.06811147,-0.16447547,-0.0002872811,-0.0017065355,-0.00033377134
UncalMag,1676595091839,32148661410950,-153.64679,751.9226,395.28,-177.00775,769.7961,430.15182
UncalAccel,1676595091842,32148664268230,-1.1994023,-1.358525,9.018549,0.037048545,-0.031444572,0.0098014325
OrientationDeg,1676595091842,32148664268230,217.0,11.0,0.0
UncalGyro,1676595091846,32148668501577,0.48655418,-0.0759,-0.10629055,-0.0002872811,-0.0017065355,-0.00033377134
UncalMag,1676595091849,32148671414774,-153.5492,751.83716,395.25558,-177.00775,769.7961,430.15182
UncalAccel,1676595091850,32148672748046,-1.3752748,-1.2586247,8.739784,0.037048545,-0.031444572,0.0098014325
OrientationDeg,1676595091850,32148672748046,217.0,11.0,0.0
UncalGyro,1676595091854,32148676981342,0.6385069,-0.10751228,-0.051159963,-0.0002872811,-0.0017065355,-0.00033377134
UncalAccel,1676595091859,32148681233438,-1.6181463,-1.0540384,8.498708,0.037048545,-0.031444572,0.0098014325
OrientationDeg,1676595091859,32148681233438,217.0,11.0,0.0
UncalMag,1676595091859,32148681427916,-153.78099,751.4712,394.8042,-177.00775,769.7961,430.15182
UncalGyro,1676595091863,32148685470040,0.82558435,-0.15653422,-0.007330383,-0.0002872811,-0.0017065355,-0.00033377134
UncalAccel,1676595091867,32148689715564,-1.8484555,-0.76271224,8.357532,0.037048545,-0.031444572,0.0098014325
