# 
# Header Description:
# 
# Version: v3.0.5.6 Platform: 13 Manufacturer: Google Model: Pixel 7
# 
# Raw,utcTimeMillis,TimeNanos,LeapSecond,TimeUncertaintyNanos,FullBiasNanos,BiasNanos,BiasUncertaintyNanos,DriftNanosPerSecond,DriftUncertaintyNanosPerSecond,HardwareClockDiscontinuityCount,Svid,TimeOffsetNanos,State,ReceivedSvTimeNanos,ReceivedSvTimeUncertaintyNanos,Cn0DbHz,PseudorangeRateMetersPerSecond,PseudorangeRateUncertaintyMetersPerSecond,AccumulatedDeltaRangeState,AccumulatedDeltaRangeMeters,AccumulatedDeltaRangeUncertaintyMeters,CarrierFrequencyHz,CarrierCycles,CarrierPhase,CarrierPhaseUncertainty,MultipathIndicator,SnrInDb,ConstellationType,AgcDb,BasebandCn0DbHz,FullInterSignalBiasNanos,FullInterSignalBiasUncertaintyNanos,SatelliteInterSignalBiasNanos,SatelliteInterSignalBiasUncertaintyNanos,CodeType,ChipsetElapsedRealtimeNanos
# 
# UncalAccel,utcTimeMillis,elapsedRealtimeNanos,UncalAccelXMps2,UncalAccelYMps2,UncalAccelZMps2,BiasXMps2,BiasYMps2,BiasZMps2
# 
# Accel,utcTimeMillis,elapsedRealtimeNanos,AccelXMps2,AccelYMps2,AccelZMps2
# 
# UncalGyro,utcTimeMillis,elapsedRealtimeNanos,UncalGyroXRadPerSec,UncalGyroYRadPerSec,UncalGyroZRadPerSec,DriftXRadPerSec,DriftYRadPerSec,DriftZRadPerSec
# 
# Gyro,utcTimeMillis,elapsedRealtimeNanos,GyroXRadPerSec,GyroYRadPerSec,GyroZRadPerSec
# 
# UncalMag,utcTimeMillis,elapsedRealtimeNanos,UncalMagXMicroT,UncalMagYMicroT,UncalMagZMicroT,BiasXMicroT,BiasYMicroT,BiasZMicroT
# 
# Mag,utcTimeMillis,elapsedRealtimeNanos,MagXMicroT,MagYMicroT,MagZMicroT
# 
# OrientationDeg,utcTimeMillis,elapsedRealtimeNanos,yawDeg,rollDeg,pitchDeg
# 
# Fix,Provider,LatitudeDegrees,LongitudeDegrees,AltitudeMeters,SpeedMps,AccuracyMeters,BearingDegrees,UnixTimeMillis,SpeedAccuracyMps,BearingAccuracyDegrees,elapsedRealtimeNanos,VerticalAccuracyMeters
# 
# Nav,Svid,Type,Status,MessageId,Sub-messageId,Data(Bytes)
# 
# Status,UnixTimeMillis,SignalCount,SignalIndex,ConstellationType,Svid,CarrierFrequencyHz,Cn0DbHz,AzimuthDegrees,ElevationDegrees,UsedInFix,HasAlmanacData,HasEphemerisData,BasebandCn0DbHz
# 
UncalAccel,1676594825775,31882597024415,-0.5916254,1.3549358,11.891132,0.037048545,-0.031444572,0.0098014325
UncalGyro,1676594825779,31882601250785,0.11728613,0.48365256,0.17088956,-0.0003414619,-0.0017146979,-0.00032713916
UncalAccel,1676594825783,31882605492240,-0.72083783,1.3543376,11.904293,0.037048545,-0.031444572,0.0098014325
UncalMag,1676594825779,31882601405642,-169.77519,739.55176,400.22098,-177.00775,769.7961,430.15182
UncalGyro,1676594825787,31882609726717,0.1553125,0.4240932,0.11575896,-0.0003414619,-0.0017146979,-0.00032713916
UncalMag,1676594825789,31882611406008,-169.77519,739.6372,400.0014,-177.00775,769.7961,430.15182
UncalAccel,1676594825791,31882613974031,-0.78664047,1.2532408,11.833106,0.037048545,-0.031444572,0.0098014325
OrientationDeg,1676594825783,31882605492240,186.0,3.0,-13.0
OrientationDeg,1676594825791,31882613974031,185.0,4.0,-13.0
UncalGyro,1676594825796,31882618217826,0.17379116,0.3129157,0.05009095,-0.0003414619,-0.0017146979,-0.00032713916
Fix,FLP,37.4311509000,-122.1551699000,-16.30000114440918,0.55147517,4.226,315.3524,1676594824990,,,31881812554538,2.6354742
UncalMag,1676594825799,31882621407636,-169.5678,739.5396,399.48898,-177.00775,769.7961,430.15182
UncalAccel,1676594825800,31882622459740,-0.75254273,1.1814562,11.804991,0.037048545,-0.031444572,0.0098014325
OrientationDeg,1676594825800,31882622459740,185.0,4.0,-13.0
UncalGyro,1676594825804,31882626696454,0.16875152,0.18860464,-0.018478673,-0.0003414619,-0.0017146979,-0.00032713916
UncalAccel,1676594825808,31882630935417,-0.61435723,1.1156535,11.863615,0.037048545,-0.031444572,0.0098014325
OrientationDeg,1676594825808,31882630935417,185.0,4.0,-13.0
UncalMag,1676594825809,31882631406171,-169.77519,739.5396,399.85498,-177.00775,769.7961,430.15182
UncalGyro,1676594825813,31882635176873,0.1432479,0.08353582,-0.08857546,-0.0003414619,-0.0017146979,-0.00032713916
UncalAccel,1676594825817,31882639418409,-0.46959144,1.006182,11.840883,0.037048545,-0.031444572,0.0098014325
UncalMag,1676594825819,31882641398644,-169.77519,739.5396,399.85498,-177.00775,769.7961,430.15182
OrientationDeg,1676594825817,31882639418409,186.0,4.0,-13.0
UncalGyro,1676594825821,31882643662621,0.11804971,-0.0038179078,-0.16157386,-0.0003414619,-0.0017146979,-0.00032713916
UncalAccel,1676594825825,31882647898938,-0.32961133,0.849452,11.727822,0.037048545,-0.031444572,0.0098014325
OrientationDeg,1676594825825,31882647898938,186.0,4.0,-13.0
UncalMag,1676594825829,31882651405562,-169.48239,739.2712,399.42798,-177.00775,769.7961,430.15182
UncalGyro,1676594825830,31882652146406,0.108123146,-0.08246681,-0.2454151,-0.0003414619,-0.0017146979,-0.00032713916
UncalAccel,1676594825834,31882656376092,-0.26081768,0.6963114,11.609976,0.037048545,-0.031444572,0.0098014325
OrientationDeg,1676594825834,31882656376092,186.0,4.0,-13.0
UncalGyro,1676594825838,31882660620558,0.11255192,-0.15775596,-0.34116822,-0.0003414619,-0.0017146979,-0.00032713916
UncalMag,1676594825839,31882661405847,-169.2872,739.1126,399.8672,-177.00775,769.7961,430.15182
UncalAccel,1676594825842,31882664856185,-0.28295127,0.58624154,11.443076,0.037048545,-0.031444572,0.0098014325
OrientationDeg,1676594825842,31882664856185,186.0,4.0,-13.0
UncalGyro,1676594825847,31882669101687,0.1337795,-0.24144448,-0.45112398,-0.0003414619,-0.0017146979,-0.00032713916
UncalMag,1676594825849,31882671405969,-169.2872,739.1126,399.8672,-177.00775,769.7961,430.15182
UncalAccel,1676594825851,31882673341831,-0.33379877,0.5096712,11.247463,0.037048545,-0.031444572,0.0098014325
OrientationDeg,1676594825851,31882673341831,186.0,4.0,-13.0
UncalGyro,1676594825855,31882677585188,0.17119499,-0.33643404,-0.5685628,-0.0003414619,-0.0017146979,-0.00032713916
UncalMag,1676594825859,31882681406417,-168.9578,739.2102,399.7574,-177.00775,769.7961,430.15182
UncalAccel,1676594825859,31882681820479,-0.32183465,0.381057,11.038689,0.037048545,-0.031444572,0.0098014325
OrientationDeg,1676594825859,31882681820479,187.0,4.0,-13.0
UncalGyro,1676594825864,31882686062443,0.21746802,-0.43600506,-0.68111473,-0.0003414619,-0.0017146979,-0.00032713916
UncalAccel,1676594825868,31882690311049,-0.276371,0.26679972,10.838888,0.037048545,-0.031444572,0.0098014325
OrientationDeg,1676594825868,31882690311049,187.0,3.0,-13.0
UncalMag,1676594825869,31882691405888,-169.4946,739.03937,400.22098,-177.00775,769.7961,430.15182
UncalGyro,1676594825872,31882694549972,0.26053402,-0.5323691,-0.78954333,-0.0003414619,-0.0017146979,-0.00032713916
UncalAccel,1676594825876,31882698790704,-0.293719,0.17108682,10.639088,0.037048545,-0.031444572,0.0098014325
OrientationDeg,1676594825876,31882698790704,187.0,3.0,-13.0
UncalMag,1676594825879,31882701407190,-169.18959,738.9418,399.8184,-177.00775,769.7961,430.15182
UncalGyro,1676594825881,31882703032576,0.2996294,-0.61819565,-0.89934635,-0.0003414619,-0.0017146979,-0.00032713916
UncalAccel,1676594825885,31882707270644,-0.2835495,0.03708875,10.6014,0.037048545,-0.031444572,0.0098014325
OrientationDeg,1676594825885,31882707270644,188.0,3.0,-13.0
UncalMag,1676594825889,31882711416387,-169.3848,739.1004,399.6232,-177.00775,769.7961,430.15182
UncalGyro,1676594825889,31882711501103,0.3266602,-0.66889745,-1.0045679,-0.0003414619,-0.0017146979,-0.00032713916
UncalAccel,1676594825893,31882715748398,-0.23090738,-0.0059820567,10.635498,0.037048545,-0.031444572,0.0098014325
OrientationDeg,1676594825893,31882715748398,188.0,3.0,-13.0
UncalGyro,1676594825897,31882719993606,0.35216382,-0.68630713,-1.1009319,-0.0003414619,-0.0017146979,-0.00032713916
UncalMag,1676594825899,31882721416265,-169.2018,738.7954,400.6358,-177.00775,769.7961,430.15182
UncalAccel,1676594825902,31882724236160,-0.20578274,-0.06281159,10.51167,0.037048545,-0.031444572,0.0098014325
OrientationDeg,1676594825902,31882724236160,189.0,3.0,-14.0
UncalGyro,1676594825906,31882728477421,0.38530326,-0.6834055,-1.1809553,-0.0003414619,-0.0017146979,-0.00032713916
UncalMag,1676594825909,31882731416469,-168.9578,739.3078,400.1478,-177.00775,769.7961,430.15182
UncalAccel,1676594825910,31882732720921,-0.07477571,-0.18664017,10.355538,0.037048545,-0.031444572,0.0098014325
OrientationDeg,1676594825910,31882732720921,190.0,2.0,-14.0
UncalGyro,1676594825914,31882736955775,0.41706824,-0.67057735,-1.2391402,-0.0003414619,-0.0017146979,-0.00032713916
UncalAccel,1676594825919,31882741193111,0.06580263,-0.25722843,10.213763,0.037048545,-0.031444572,0.0098014325
UncalMag,1676594825919,31882741403774,-168.7626,739.13696,400.343,-177.00775,769.7961,430.15182
OrientationDeg,1676594825919,31882741193111,190.0,2.0,-14.0
UncalGyro,1676594825923,31882745423692,0.4344779,-0.656222,-1.2782356,-0.0003414619,-0.0017146979,-0.00032713916
UncalAccel,1676594825927,31882749676600,0.20039889,-0.28953153,10.124033,0.037048545,-0.031444572,0.0098014325
OrientationDeg,1676594825927,31882749676600,191.0,2.0,-14.0
UncalMag,1676594825929,31882751424363,-168.9822,738.9662,400.3064,-177.00775,769.7961,430.15182
UncalGyro,1676594825931,31882753922145,0.43401974,-0.63438356,-1.299463,-0.0003414619,-0.0017146979,-0.00032713916
UncalAccel,1676594825936,31882758158575,0.3152544,-0.33200413,10.120443,0.037048545,-0.031444572,0.0098014325
OrientationDeg,1676594825936,31882758158575,192.0,2.0,-14.0
UncalMag,1676594825939,31882761413377,-168.4698,738.81976,401.1116,-177.00775,769.7961,430.15182
UncalGyro,1676594825940,31882762396164,0.42424592,-0.592692,-1.2982414,-0.0003414619,-0.0017146979,-0.00032713916
UncalAccel,1676594825944,31882766630692,0.26799613,-0.3278167,10.091131,0.037048545,-0.031444572,0.0098014325
OrientationDeg,1676594825944,31882766630692,192.0,2.0,-14.0
UncalGyro,1676594825948,31882770878617,0.42332962,-0.5526803,-1.2794572,-0.0003414619,-0.0017146979,-0.00032713916
UncalMag,1676594825949,31882771411221,-168.5674,738.893,400.75778,-177.00775,769.7961,430.15182
UncalAccel,1676594825953,31882775118944,0.1680958,-0.2943172,9.923634,0.037048545,-0.031444572,0.0098014325
OrientationDeg,1676594825953,31882775118944,193.0,2.0,-15.0
UncalGyro,1676594825957,31882779361039,0.44089198,-0.54153204,-1.2476922,-0.0003414619,-0.0017146979,-0.00032713916
UncalMag,1676594825959,31882781421760,-167.96959,738.49036,401.38,-177.00775,769.7961,430.15182
UncalAccel,1676594825961,31882783598141,0.0735793,-0.32362926,9.803394,0.037048545,-0.031444572,0.0098014325
OrientationDeg,1676594825961,31882783598141,194.0,2.0,-15.0
UncalGyro,1676594825965,31882787839240,0.47158796,-0.5529858,-1.2212723,-0.0003414619,-0.0017146979,-0.00032713916
UncalMag,1676594825969,31882791416104,-168.26239,738.80756,400.6114,-177.00775,769.7961,430.15182
UncalAccel,1676594825970,31882792078712,0.0065802624,-0.2853441,9.817153,0.037048545,-0.031444572,0.0098014325
OrientationDeg,1676594825970,31882792078712,194.0,2.0,-15.0
UncalGyro,1676594825974,31882796317899,0.5039638,-0.5687156,-1.2156218,-0.0003414619,-0.0017146979,-0.00032713916
UncalAccel,1676594825978,31882800549740,-0.07537391,-0.16630118,9.773484,0.037048545,-0.031444572,0.0098014325
OrientationDeg,1676594825978,31882800549740,195.0,1.0,-15.0
UncalMag,1676594825979,31882801405850,-167.5304,738.6612,400.9286,-177.00775,769.7961,430.15182
UncalGyro,1676594825982,31882804801074,0.5233588,-0.6058256,-1.2383766,-0.0003414619,-0.0017146979,-0.00032713916
UncalAccel,1676594825987,31882809041276,-0.15613168,-0.08973085,9.6580305,0.037048545,-0.031444572,0.0098014325
OrientationDeg,1676594825987,31882809041276,195.0,1.0,-15.0
UncalMag,1676594825989,31882811416471,-167.933,738.9784,400.28198,-177.00775,769.7961,430.15182
UncalGyro,1676594825991,31882813283974,0.5222898,-0.67363167,-1.2880094,-0.0003414619,-0.0017146979,-0.00032713916
UncalAccel,1676594825995,31882817521064,-0.212363,-0.041874398,9.504292,0.037048545,-0.031444572,0.0098014325
OrientationDeg,1676594825995,31882817521064,196.0,1.0,-15.0
UncalMag,1676594825999,31882821412971,-167.4328,738.5758,401.02618,-177.00775,769.7961,430.15182
UncalGyro,1676594825999,31882821759244,0.5004513,-0.76342887,-1.359786,-0.0003414619,-0.0017146979,-0.00032713916
UncalAccel,1676594826003,31882825991117,-0.2219343,0.015553347,9.49472,0.037048545,-0.031444572,0.0098014325
OrientationDeg,1676594826003,31882825991117,197.0,1.0,-16.0
UncalGyro,1676594826008,31882830243172,0.4625777,-0.841925,-1.450805,-0.0003414619,-0.0017146979,-0.00032713916
UncalMag,1676594826009,31882831405648,-166.896,738.9418,401.0994,-177.00775,769.7961,430.15182
UncalAccel,1676594826012,31882834482583,-0.19501504,0.08733802,9.608977,0.037048545,-0.031444572,0.0098014325
OrientationDeg,1676594826012,31882834482583,198.0,1.0,-16.0
UncalGyro,1676594826016,31882838726825,0.41599923,-0.87598073,-1.5494597,-0.0003414619,-0.0017146979,-0.00032713916
UncalMag,1676594826019,31882841416431,-167.01799,738.5392,402.3316,-177.00775,769.7961,430.15182
UncalAccel,1676594826020,31882842964465,-0.09990034,0.111266255,9.714262,0.037048545,-0.031444572,0.0098014325
OrientationDeg,1676594826020,31882842964465,198.0,1.0,-16.0
UncalGyro,1676594826025,31882847205482,0.3726278,-0.86758137,-1.6368134,-0.0003414619,-0.0017146979,-0.00032713916
UncalMag,1676594826029,31882851420785,-166.9204,738.50256,400.9896,-177.00775,769.7961,430.15182
UncalAccel,1676594826029,31882851445738,0.06759724,0.040677983,9.735199,0.037048545,-0.031444572,0.0098014325
OrientationDeg,1676594826029,31882851445738,199.0,0.0,-16.0
UncalGyro,1676594826033,31882855692382,0.33261612,-0.84559023,-1.700038,-0.0003414619,-0.0017146979,-0.00032713916
UncalAccel,1676594826038,31882859924203,0.16510476,-0.04965107,9.583255,0.037048545,-0.031444572,0.0098014325
UncalMag,1676594826039,31882861405526,-166.9326,738.2586,401.5386,-177.00775,769.7961,430.15182
OrientationDeg,1676594826037,31882859924203,200.0,0.0,-16.0
UncalGyro,1676594826042,31882864165708,0.2967278,-0.8512407,-1.7403551,-0.0003414619,-0.0017146979,-0.00032713916
UncalAccel,1676594826046,31882868403125,0.16271193,-0.21655045,9.373882,0.037048545,-0.031444572,0.0098014325
OrientationDeg,1676594826046,31882868403125,201.0,0.0,-16.0
UncalMag,1676594826049,31882871416269,-166.2982,738.3562,401.55078,-177.00775,769.7961,430.15182
UncalGyro,1676594826050,31882872644052,0.258396,-0.894154,-1.7623463,-0.0003414619,-0.0017146979,-0.00032713916
UncalAccel,1676594826054,31882876876331,0.14476576,-0.39421752,9.2793665,0.037048545,-0.031444572,0.0098014325
OrientationDeg,1676594826054,31882876876331,202.0,0.0,-16.0
UncalGyro,1676594826059,31882881126555,0.21594086,-0.9593639,-1.7829629,-0.0003414619,-0.0017146979,-0.00032713916
UncalMag,1676594826059,31882881403289,-166.0054,738.07556,400.86758,-177.00775,769.7961,430.15182
UncalAccel,1676594826063,31882885363575,0.116650105,-0.43728834,9.260223,0.037048545,-0.031444572,0.0098014325
OrientationDeg,1676594826063,31882885363575,203.0,0.0,-16.0
UncalGyro,1676594826067,31882889609678,0.1740966,-1.0319041,-1.8194622,-0.0003414619,-0.0017146979,-0.00032713916
UncalMag,1676594826069,31882891416351,-166.0786,738.61237,401.4776,-177.00775,769.7961,430.15182
UncalAccel,1676594826071,31882893844309,0.15972091,-0.3696911,9.217153,0.037048545,-0.031444572,0.0098014325
OrientationDeg,1676594826071,31882893844309,204.0,0.0,-16.0
UncalGyro,1676594826077,31882898089588,0.13607024,-1.0925325,-1.8764253,-0.0003414619,-0.0017146979,-0.00032713916
UncalMag,1676594826079,31882901416473,-165.0294,738.5392,400.953,-177.00775,769.7961,430.15182
UncalAccel,1676594826080,31882902328114,0.2219343,-0.3068795,9.165109,0.037048545,-0.031444572,0.0098014325
OrientationDeg,1676594826080,31882902328114,205.0,0.0,-17.0
UncalGyro,1676594826085,31882906567739,0.10293079,-1.1297953,-1.9456058,-0.0003414619,-0.0017146979,-0.00032713916
UncalAccel,1676594826088,31882910799326,0.26081768,-0.28773692,9.0646105,0.037048545,-0.031444572,0.0098014325
UncalMag,1676594826089,31882911407521,-164.7854,739.1492,401.0994,-177.00775,769.7961,430.15182
UncalGyro,1676594826093,31882915051025,0.06811147,-1.1294898,-2.018146,-0.0003414619,-0.0017146979,-0.00032713916
OrientationDeg,1676594826088,31882910799326,206.0,0.0,-17.0
UncalAccel,1676594826097,31882919289520,0.34217364,-0.23449662,9.031709,0.037048545,-0.031444572,0.0098014325
UncalMag,1676594826099,31882921416351,-164.456,739.4908,400.5626,-177.00775,769.7961,430.15182
OrientationDeg,1676594826097,31882919289520,207.0,0.0,-17.0
UncalGyro,1676594826102,31882923533193,0.02275473,-1.084744,-2.0748038,-0.0003414619,-0.0017146979,-0.00032713916
Status,0,32,0,3,15,1602000000,40.50,311.0,78.0,1,1,1,36.902718
Status,0,32,1,1,11,1176450050,42.70,116.0,77.0,1,1,1,39.09856
Status,0,32,2,1,11,1575420030,43.26,116.0,77.0,1,1,1,39.655396
Status,0,32,3,6,2,1575420030,41.93,111.0,75.0,1,1,1,38.334717
Status,0,32,4,6,2,1176450050,38.78,111.0,75.0,1,1,1,35.184948
Status,0,32,5,3,17,1604249980,41.18,326.0,72.0,1,1,1,37.575493
Status,0,32,6,1,12,1575420030,42.57,328.0,67.0,1,1,1,38.97494
Status,0,32,7,6,34,1575420030,42.09,208.0,61.0,1,1,1,38.492504
Status,0,32,8,6,36,1575420030,41.19,50.0,61.0,1,1,1,37.591362
Status,0,32,9,6,34,1176450050,38.52,208.0,61.0,1,1,1,34.918312
Status,0,32,10,6,36,1176450050,37.33,50.0,61.0,1,1,1,33.734936
Status,0,32,11,6,30,1575420030,39.53,316.0,47.0,0,1,1,35.92657
Status,0,32,12,6,30,1176450050,41.74,316.0,47.0,1,1,1,38.141125
Status,0,32,13,1,6,1176450050,39.96,47.0,43.0,1,1,1,36.36215
Status,0,32,14,3,14,1598062460,46.55,154.0,43.0,1,1,1,42.953194
Status,0,32,15,1,6,1575420030,40.36,47.0,43.0,1,1,1,36.761597
Status,0,32,16,1,24,1176450050,40.95,217.0,37.0,1,1,1,37.350697
Status,0,32,17,1,24,1575420030,42.85,217.0,37.0,1,1,1,39.2461
Status,0,32,18,3,18,1600312450,45.56,241.0,37.0,1,1,1,41.96063
Status,0,32,19,1,25,1176450050,42.54,313.0,36.0,1,1,1,38.937447
Status,0,32,20,1,25,1575420030,40.76,313.0,36.0,1,1,1,37.15707
Status,0,32,21,3,24,1603124990,43.17,35.0,29.0,1,1,1,39.567345
Status,0,32,22,1,20,1575420030,44.55,141.0,28.0,1,1,1,40.949265
Status,0,32,23,6,25,1575420030,41.43,127.0,24.0,1,1,1,37.831085
Status,0,32,24,1,19,1575420030,44.79,62.0,24.0,1,1,1,41.18637
Status,0,32,25,6,25,1176450050,40.84,127.0,24.0,1,1,1,37.243717
Status,0,32,26,3,16,1601437440,44.20,328.0,23.0,1,1,1,40.601246
Status,0,32,27,1,29,1575420030,43.01,266.0,16.0,1,1,1,39.41063
Status,0,32,28,6,11,1575420030,37.68,41.0,13.0,1,1,1,34.081993
Status,0,32,29,1,2,1575420030,48.87,218.0,13.0,1,1,1,45.265053
Status,0,32,30,6,15,1575420030,41.67,217.0,10.0,1,1,1,38.06524
Status,0,32,31,6,15,1176450050,41.38,217.0,10.0,1,1,1,37.784115
UncalAccel,1676594826105,31882927769775,0.33080772,-0.086141616,9.135797,0.037048545,-0.031444572,0.0098014325
UncalMag,1676594826109,31882931416555,-164.8708,739.56396,400.22098,-177.00775,769.7961,430.15182
OrientationDeg,1676594826105,31882927769775,208.0,-1.0,-17.0
Fix,GPS,37.4311322270,-122.1551477352,-7.413530033646293,0.0,4.195932,267.30313,1676594825999,0.113309756,176.80055,31882831402000,3.0
UncalGyro,1676594826110,31882932008688,-0.031612277,-1.0004445,-2.1116085,-0.0003414619,-0.0017146979,-0.00032713916
Raw,1676594825999,63066000000,,,-1360629980933681013,0.0,7.6532635067349215,199.0,1.0,60,2,0.0,16431,434843918771086,9,48.86505126953125,-579.737064095048,0.15,16,-36485.99305813006,340282346638528860000000000000000000000,1575420030,,,,0,,1,,45.265052795410156,0.0,1.0,0.0,1.0,C,31882831402000
Raw,1676594825999,63066000000,,,-1360629980933681013,0.0,7.6532635067349215,199.0,1.0,60,6,0.0,16431,434843927300861,29,32.62312698364258,535.8628541430603,0.644826963653887,16,33585.49339891806,340282346638528860000000000000000000000,1575420030,,,,1,,1,,29.023128509521484,0.320142130558394,1.0,0.320142130558394,1.0,C,31882831402000
Raw,1676594825999,63066000000,,,-1360629980933681013,0.0,7.6532635067349215,199.0,1.0,60,11,0.0,16431,434843931722256,13,42.650856018066406,22.837303598595526,0.15,16,1227.3740680955746,340282346638528860000000000000000000000,1575420030,,,,0,,1,,39.05085754394531,-0.20372681261465636,1.0,-0.20372681261465636,1.0,C,31882831402000
Raw,1676594825999,63066000000,,,-1360629980933681013,0.0,7.6532635067349215,199.0,1.0,60,12,0.0,16431,434843931318779,25,34.655147552490234,-188.41828297224833,0.5541719894612236,16,-11954.6469849807,340282346638528860000000000000000000000,1575420030,,,,0,,1,,31.05514907836914,-0.6984919076624261,1.0,-0.6984919076624261,1.0,C,31882831402000
Raw,1676594825999,63066000000,,,-1360629980933681013,0.0,7.6532635067349215,199.0,1.0,60,19,0.0,16431,434843922879894,23,35.6297492980957,570.0321527650908,0.5088273446438591,16,35861.737263023926,340282346638528860000000000000000000000,1575420030,,,,1,,1,,32.02975082397461,0.0,1.0,0.0,1.0,C,31882831402000
Raw,1676594825999,63066000000,,,-1360629980933681013,0.0,7.6532635067349215,199.0,1.0,60,20,0.0,16431,434843923125110,12,43.63580322265625,-468.84716744893217,0.15,16,-29478.96247054281,340282346638528860000000000000000000000,1575420030,,,,0,,1,,40.035804748535156,0.0,1.0,0.0,1.0,C,31882831402000
Raw,1676594825999,63066000000,,,-1360629980933681013,0.0,7.6532635067349215,199.0,1.0,60,24,0.0,16431,434843924640681,13,42.0581169128418,586.0845126329432,0.15,16,36776.56914610039,340282346638528860000000000000000000000,1575420030,,,,0,,1,,38.4581184387207,-0.20372681261465636,1.0,-0.20372681261465636,1.0,C,31882831402000
Raw,1676594825999,63066000000,,,-1360629980933681013,0.0,7.6532635067349215,199.0,1.0,60,25,0.0,16431,434843926681438,21,36.74595642089844,-462.8884974925927,0.15,16,-28974.6838332007,340282346638528860000000000000000000000,1575420030,,,,0,,1,,33.145957946777344,-2.0372682255564105,1.0,-2.0372682255564105,1.0,C,31882831402000
Raw,1676594825999,63066000000,,,-1360629980933681013,0.0,7.6532635067349215,199.0,1.0,60,29,0.0,16431,434843918586387,17,39.50867462158203,-432.14315653530025,0.15,16,-27093.039180446394,340282346638528860000000000000000000000,1575420030,,,,0,,1,,35.90867614746094,-0.6984919076624261,1.0,-0.6984919076624261,1.0,C,31882831402000
Raw,1676594825999,63066000000,,,-1360629980933681013,0.0,7.6532635067349215,199.0,1.0,60,6,0.0,81921,434843927301395,10,33.58266067504883,535.9336434052582,0.601677974590328,16,35226.959352703896,340282346638528860000000000000000000000,1176450050,,,,0,,1,,29.982662200927734,1.9208527336454408,2.439432515871557,1.9208527336454408,1.0,Q,31882831402000
Raw,1676594825999,63066000000,,,-1360629980933681013,0.0,7.6532635067349215,199.0,1.0,60,11,0.0,81921,434843931722785,7,42.69855880737305,22.33327306015441,0.15,16,1256.914355608429,340282346638528860000000000000000000000,1176450050,,,,0,,1,,39.09856033325195,0.0,2.439432515871557,0.0,1.0,Q,31882831402000
Raw,1676594825999,63066000000,,,-1360629980933681013,0.0,7.6532635067349215,199.0,1.0,60,24,0.0,81921,434843924641163,10,40.328819274902344,585.8622950164145,0.15,16,38543.96132537389,340282346638528860000000000000000000000,1176450050,,,,0,,1,,36.72882080078125,3.5215636101095664,2.439432515871557,3.5215636101095664,1.0,Q,31882831402000
Raw,1676594825999,63066000000,,,-1360629980933681013,0.0,7.6532635067349215,199.0,1.0,60,25,0.0,81921,434843926682052,7,41.46181106567383,-462.21887946928905,0.15,16,-28997.553325244575,340282346638528860000000000000000000000,1176450050,,,,0,,1,,37.861812591552734,1.0186341127782053,2.439432515871557,1.0186341127782053,1.0,Q,31882831402000
Raw,1676594825999,63066000000,,,-1360629980933681013,0.0,7.6532635067349215,199.0,1.0,60,14,0.0,32995,13625930694668,37,38.263153076171875,652.8756300210425,0.15,16,41438.28647772303,340282346638528860000000000000000000000,1598062460,,,,0,,3,,34.66315460205078,52.1540641784668,2.0000000474974513,52.1540641784668,2.0000000474974513,C,31882831402000
Raw,1676594825999,63066000000,,,-1360629980933681013,0.0,7.6532635067349215,199.0,1.0,60,18,0.0,32995,13625929351361,33,45.56062698364258,-414.6092322824013,0.15,16,-25833.220776516093,340282346638528860000000000000000000000,1600312450,,,,0,,3,,41.960628509521484,52.1540641784668,2.0000000474974513,52.1540641784668,2.0000000474974513,C,31882831402000
Raw,1676594825999,63066000000,,,-1360629980933681013,0.0,7.6532635067349215,199.0,1.0,60,16,0.0,32995,13625925234437,59,32.569915771484375,-668.0945374970861,0.6468482130872046,16,-41602.48029094055,340282346638528860000000000000000000000,1601437440,,,,0,,3,,28.96991729736328,52.1540641784668,2.0000000474974513,52.1540641784668,2.0000000474974513,C,31882831402000
Raw,1676594825999,63066000000,,,-1360629980933681013,0.0,7.6532635067349215,199.0,1.0,60,15,0.0,32995,13625935566233,35,38.937068939208984,-77.81323045652186,0.15,16,-5130.610087282048,340282346638528860000000000000000000000,1602000000,,,,0,,3,,35.33707046508789,52.1540641784668,2.0000000474974513,52.1540641784668,2.0000000474974513,C,31882831402000
Raw,1676594825999,63066000000,,,-1360629980933681013,0.0,7.6532635067349215,199.0,1.0,60,24,0.0,32867,13625926882476,46,35.63980484008789,703.0728854720551,0.5090950450323484,16,44591.72345608935,340282346638528860000000000000000000000,1603124990,,,,0,,3,,32.0398063659668,52.1540641784668,2.0000000474974513,52.1540641784668,2.0000000474974513,C,31882831402000
Raw,1676594825999,63066000000,,,-1360629980933681013,0.0,7.6532635067349215,199.0,1.0,60,17,0.0,32995,13625935581828,38,37.94130325317383,177.68881891675892,0.15,16,10957.693095055673,340282346638528860000000000000000000000,1604249980,,,,0,,3,,34.341304779052734,52.1540641784668,2.0000000474974513,52.1540641784668,2.0000000474974513,C,31882831402000
Raw,1676594825999,63066000000,,,-1360629980933681013,0.0,7.6532635067349215,199.0,1.0,60,2,0.0,85026,434843921625135,15,40.534149169921875,164.25683759497804,0.15,16,10365.888990506353,340282346638528860000000000000000000000,1575420030,,,,0,,6,,36.93415069580078,-5.878973752260207,1.5000000237487257,-5.878973752260207,1.5000000237487257,C,31882831402000
Raw,1676594825999,63066000000,,,-1360629980933681013,0.0,7.6532635067349215,199.0,1.0,60,11,0.0,85026,434843908709929,51,25.889984130859375,594.8038274851738,0.9471428130201742,16,35760.276117089124,340282346638528860000000000000000000000,1575420030,,,,0,,6,,22.28998374938965,-5.878973752260207,1.5000000237487257,-5.878973752260207,1.5000000237487257,C,31882831402000
Raw,1676594825999,63066000000,,,-1360629980933681013,0.0,7.6532635067349215,199.0,1.0,60,15,0.0,85026,434843907006046,16,40.267295837402344,-497.5024358424198,0.15,16,-31137.13193998309,340282346638528860000000000000000000000,1575420030,,,,0,,6,,36.66729736328125,-5.878973752260207,1.5000000237487257,-5.878973752260207,1.5000000237487257,C,31882831402000
Raw,1676594825999,63066000000,,,-1360629980933681013,0.0,7.6532635067349215,199.0,1.0,60,25,0.0,85026,434843911033702,21,36.43505096435547,508.53796035748405,0.15,16,31257.086397586787,340282346638528860000000000000000000000,1575420030,,,,0,,6,,32.835052490234375,-5.878973752260207,1.5000000237487257,-5.878973752260207,1.5000000237487257,C,31882831402000
Raw,1676594825999,63066000000,,,-1360629980933681013,0.0,7.6532635067349215,199.0,1.0,60,30,0.0,85026,434843916330649,34,32.406803131103516,-299.46437951660823,299.79324113959683,16,-18713.9264579042,340282346638528860000000000000000000000,1575420030,,,,0,,6,,28.806804656982422,-5.878973752260207,1.5000000237487257,-5.878973752260207,1.5000000237487257,C,31882831402000
Raw,1676594825999,63066000000,,,-1360629980933681013,0.0,7.6532635067349215,199.0,1.0,60,34,0.0,85026,434843919999968,14,41.40884017944336,-233.8075433228163,0.15,16,-15026.987460172646,340282346638528860000000000000000000000,1575420030,,,,0,,6,,37.808841705322266,-5.878973752260207,1.5000000237487257,-5.878973752260207,1.5000000237487257,C,31882831402000
Raw,1676594825999,63066000000,,,-1360629980933681013,0.0,7.6532635067349215,199.0,1.0,60,36,0.0,85026,434843920096461,24,35.105709075927734,297.0557041492282,0.5326115739129491,16,18725.166802408257,340282346638528860000000000000000000000,1575420030,,,,1,,6,,31.50571060180664,-5.878973752260207,1.5000000237487257,-5.878973752260207,1.5000000237487257,C,31882831402000
Raw,1676594825999,63066000000,,,-1360629980933681013,0.0,7.6532635067349215,199.0,1.0,60,2,0.0,84003,434843921625663,7,38.78494644165039,163.9540831336859,0.15,16,10422.720417896273,340282346638528860000000000000000000000,1176450050,,,,0,,6,,35.1849479675293,-4.216632805764675,2.9394325396202827,-4.216632805764675,1.5000000237487257,Q,31882831402000
Raw,1676594825999,63066000000,,,-1360629980933681013,0.0,7.6532635067349215,199.0,1.0,60,11,0.0,16384,434843908710452,1000000000,18.254478454589844,594.1037738281952,299792458,16,36319.12379043849,340282346638528860000000000000000000000,1176450050,,,,0,,6,,14.654479026794434,5.203299224376676,2.9394325396202827,5.203299224376676,1.5000000237487257,Q,31882831402000
Raw,1676594825999,63066000000,,,-1360629980933681013,0.0,7.6532635067349215,199.0,1.0,60,15,0.0,84003,434843907006509,9,40.82688903808594,-497.809825517799,0.15,16,-30696.268957249587,340282346638528860000000000000000000000,1176450050,,,,0,,6,,37.226890563964844,-11.050701141357418,2.9394325396202827,-11.050701141357418,1.5000000237487257,Q,31882831402000
Raw,1676594825999,63066000000,,,-1360629980933681013,0.0,7.6532635067349215,199.0,1.0,60,25,0.0,84003,434843911034235,10,39.102317810058594,508.34266788160835,0.15,16,31688.709671927267,340282346638528860000000000000000000000,1176450050,,,,0,,6,,35.5023193359375,-8.649541996419428,2.9394325396202827,-8.649541996419428,1.5000000237487257,Q,31882831402000
Raw,1676594825999,63066000000,,,-1360629980933681013,0.0,7.6532635067349215,199.0,1.0,60,30,0.0,84003,434843916331154,7,41.74112319946289,-298.39231584668323,0.15,16,-19719.099110434745,340282346638528860000000000000000000000,1176450050,,,,0,,6,,38.1411247253418,-8.2801328971982,2.9394325396202827,-8.2801328971982,1.5000000237487257,Q,31882831402000
Raw,1676594825999,63066000000,,,-1360629980933681013,0.0,7.6532635067349215,199.0,1.0,60,34,0.0,84003,434843920000473,8,38.518310546875,-234.07139265998762,0.15,16,-15315.050706224269,340282346638528860000000000000000000000,1176450050,,,,0,,6,,34.918312072753906,-9.942473843693731,2.9394325396202827,-9.942473843693731,1.5000000237487257,Q,31882831402000
Raw,1676594825999,63066000000,,,-1360629980933681013,0.0,7.6532635067349215,199.0,1.0,60,36,0.0,84003,434843920096981,8,33.72891616821289,297.1261525868608,0.5974024901810564,16,19181.74704452281,340282346638528860000000000000000000000,1176450050,,,,0,,6,,30.128917694091797,-10.865996591746804,2.9394325396202827,-10.865996591746804,1.5000000237487257,Q,31882831402000
UncalAccel,1676594826114,31882936240530,0.07597212,0.13758731,9.171091,0.037048545,-0.031444572,0.0098014325
OrientationDeg,1676594826114,31882936240530,209.0,-1.0,-16.0
Fix,FLP,37.4311541000,-122.1551697000,-16.30000114440918,0.4622342,3.988,331.50003,1676594826008,,,31882830243172,2.6002212
UncalGyro,1676594826118,31882940489746,-0.08552113,-0.9166033,-2.1267273,-0.0003414619,-0.0017146979,-0.00032713916
UncalMag,1676594826119,31882941406057,-163.3092,739.4298,400.5138,-177.00775,769.7961,430.15182
UncalAccel,1676594826122,31882944722189,-0.20997019,0.36131623,8.882157,0.037048545,-0.031444572,0.0098014325
OrientationDeg,1676594826122,31882944722189,210.0,-1.0,-16.0
UncalGyro,1676594826126,31882948972646,-0.14004086,-0.9082039,-2.1190915,-0.0003414619,-0.0017146979,-0.00032713916
UncalMag,1676594826129,31882951397635,-163.4556,740.4668,400.404,-177.00775,769.7961,430.15182
UncalAccel,1676594826131,31882953200766,-0.48095736,0.47976094,8.626724,0.037048545,-0.031444572,0.0098014325
OrientationDeg,1676594826131,31882953200766,211.0,-1.0,-16.0
UncalGyro,1676594826135,31882957452576,-0.20265454,-0.9673051,-2.0890064,-0.0003414619,-0.0017146979,-0.00032713916
UncalMag,1676594826139,31882961407034,-162.96759,739.8568,400.2454,-177.00775,769.7961,430.15182
UncalAccel,1676594826139,31882961688549,-0.7405786,0.56410795,8.681759,0.037048545,-0.031444572,0.0098014325
OrientationDeg,1676594826139,31882961688549,212.0,-1.0,-16.0
UncalGyro,1676594826144,31882965918712,-0.2864958,-1.0428997,-2.0402899,-0.0003414619,-0.0017146979,-0.00032713916
UncalAccel,1676594826148,31882970174602,-0.9242278,0.70648086,8.832506,0.037048545,-0.031444572,0.0098014325
OrientationDeg,1676594826148,31882970174602,213.0,-1.0,-16.0
UncalMag,1676594826149,31882971406058,-163.3336,740.62537,399.9526,-177.00775,769.7961,430.15182
UncalGyro,1676594826152,31882974415213,-0.38820487,-1.1027645,-1.9703459,-0.0003414619,-0.0017146979,-0.00032713916
UncalAccel,1676594826156,31882978660126,-1.0486546,0.83988076,8.764311,0.037048545,-0.031444572,0.0098014325
OrientationDeg,1676594826157,31882978660126,214.0,-2.0,-16.0
UncalMag,1676594826159,31882981405977,-162.7236,740.4668,399.7818,-177.00775,769.7961,430.15182
UncalGyro,1676594826160,31882982896587,-0.49449542,-1.1609493,-1.8799378,-0.0003414619,-0.0017146979,-0.00032713916
UncalAccel,1676594826165,31882987134919,-1.1048858,0.83988076,8.649456,0.037048545,-0.031444572,0.0098014325
OrientationDeg,1676594826165,31882987134919,215.0,-2.0,-16.0
UncalGyro,1676594826169,31882991376212,-0.5870415,-1.1921035,-1.7675385,-0.0003414619,-0.0017146979,-0.00032713916
UncalMag,1676594826169,31882991406262,-162.9066,740.82056,400.1112,-177.00775,769.7961,430.15182
UncalAccel,1676594826173,31882995614189,-1.0755738,0.7680961,8.640483,0.037048545,-0.031444572,0.0098014325
OrientationDeg,1676594826173,31882995614189,216.0,-2.0,-15.0
UncalGyro,1676594826177,31882999852693,-0.66248333,-1.1704178,-1.6337591,-0.0003414619,-0.0017146979,-0.00032713916
UncalMag,1676594826179,31883001416313,-162.565,741.2232,398.74478,-177.00775,769.7961,430.15182
UncalAccel,1676594826182,31883004096214,-0.99960166,0.8021938,8.669196,0.037048545,-0.031444572,0.0098014325
OrientationDeg,1676594826182,31883004096214,217.0,-2.0,-15.0
UncalGyro,1676594826186,31883008338085,-0.71929383,-1.0919216,-1.4958563,-0.0003414619,-0.0017146979,-0.00032713916
UncalMag,1676594826189,31883011413180,-162.65039,741.68677,399.9526,-177.00775,769.7961,430.15182
UncalAccel,1676594826190,31883012578381,-0.933799,0.8889336,8.779266,0.037048545,-0.031444572,0.0098014325
OrientationDeg,1676594826190,31883012578381,218.0,-3.0,-15.0
UncalGyro,1676594826194,31883016815676,-0.75854194,-0.9494373,-1.3658947,-0.0003414619,-0.0017146979,-0.00032713916
UncalAccel,1676594826199,31883021057975,-0.8979067,1.0516455,8.974281,0.037048545,-0.031444572,0.0098014325
OrientationDeg,1676594826199,31883021057975,218.0,-3.0,-14.0
UncalMag,1676594826199,31883021419934,-162.6016,742.3334,398.2934,-177.00775,769.7961,430.15182
UncalGyro,1676594826203,31883025299106,-0.77946407,-0.7443393,-1.2545645,-0.0003414619,-0.0017146979,-0.00032713916
UncalAccel,1676594826207,31883029539298,-0.9762716,1.2472588,9.068199,0.037048545,-0.031444572,0.0098014325
OrientationDeg,1676594826207,31883029539298,219.0,-3.0,-14.0
UncalMag,1676594826209,31883031416435,-162.748,743.285,398.0372,-177.00775,769.7961,430.15182
UncalGyro,1676594826211,31883033780021,-0.7855727,-0.5222898,-1.1641564,-0.0003414619,-0.0017146979,-0.00032713916
UncalAccel,1676594826216,31883038019340,-1.105484,1.457229,8.923434,0.037048545,-0.031444572,0.0098014325
UncalMag,1676594826219,31883041416436,-162.01599,743.3582,397.0612,-177.00775,769.7961,430.15182
UncalGyro,1676594826220,31883042261182,-0.7858781,-0.3481932,-1.08902,-0.0003414619,-0.0017146979,-0.00032713916
OrientationDeg,1676594826216,31883038019340,219.0,-3.0,-14.0
UncalAccel,1676594826224,31883046501224,-1.2005987,1.6438692,8.673384,0.037048545,-0.031444572,0.0098014325
OrientationDeg,1676594826224,31883046501224,220.0,-3.0,-13.0
UncalGyro,1676594826228,31883050739484,-0.79168135,-0.23197608,-1.0178542,-0.0003414619,-0.0017146979,-0.00032713916
UncalMag,1676594826229,31883051405856,-161.88179,743.90717,397.9274,-177.00775,769.7961,430.15182
UncalAccel,1676594826232,31883054969588,-1.3441681,1.8394824,8.56152,0.037048545,-0.031444572,0.0098014325
OrientationDeg,1676594826232,31883054969588,221.0,-3.0,-13.0
UncalGyro,1676594826237,31883059221663,-0.8210029,-0.13988814,-0.9424124,-0.0003414619,-0.0017146979,-0.00032713916
UncalMag,1676594826239,31883061416233,-161.65,744.1756,397.8542,-177.00775,769.7961,430.15182
UncalAccel,1676594826241,31883063461277,-1.5308083,2.0398812,8.454441,0.037048545,-0.031444572,0.0098014325
OrientationDeg,1676594826241,31883063461277,221.0,-3.0,-12.0
UncalGyro,1676594826245,31883067705447,-0.8895725,-0.05787948,-0.8578075,-0.0003414619,-0.0017146979,-0.00032713916
UncalMag,1676594826249,31883071416192,-161.4426,744.261,397.8786,-177.00775,769.7961,430.15182
UncalAccel,1676594826249,31883071940016,-1.6971095,2.2839491,8.175676,0.037048545,-0.031444572,0.0098014325
OrientationDeg,1676594826249,31883071940016,221.0,-3.0,-12.0
UncalGyro,1676594826254,31883076174971,-0.990518,-0.00061086525,-0.75945824,-0.0003414619,-0.0017146979,-0.00032713916
UncalAccel,1676594826258,31883080424788,-1.7724833,2.5184457,7.797013,0.037048545,-0.031444572,0.0098014325
UncalMag,1676594826259,31883081405979,-160.4666,744.7856,397.2442,-177.00775,769.7961,430.15182
OrientationDeg,1676594826258,31883080424788,222.0,-3.0,-12.0
UncalGyro,1676594826262,31883084665826,-1.1236867,0.03145956,-0.6383542,-0.0003414619,-0.0017146979,-0.00032713916
UncalAccel,1676594826266,31883088895522,-1.7336,2.6004,7.696514,0.037048545,-0.031444572,0.0098014325
OrientationDeg,1676594826266,31883088895522,222.0,-3.0,-11.0
UncalMag,1676594826269,31883091416315,-161.0522,745.3712,396.6708,-177.00775,769.7961,430.15182
UncalGyro,1676594826271,31883093144779,-1.3017539,0.08078693,-0.48731774,-0.0003414619,-0.0017146979,-0.00032713916
Fix,NLP,37.4311593000,-122.1536697000,-16.100000381469727,,77.6,,1676594826215,,,31883037000000,9.1742115
UncalAccel,1676594826275,31883097383243,-1.6959131,2.5429723,7.763513,0.037048545,-0.031444572,0.0098014325
OrientationDeg,1676594826275,31883097383243,222.0,-2.0,-10.0
UncalMag,1676594826279,31883101416478,-160.9424,745.4566,396.4512,-177.00775,769.7961,430.15182
UncalGyro,1676594826279,31883101625452,-1.5082263,0.20433442,-0.310625,-0.0003414619,-0.0017146979,-0.00032713916
UncalAccel,1676594826283,31883105851374,-1.9573289,2.012962,14.29891,0.037048545,-0.031444572,0.0098014325
OrientationDeg,1676594826283,31883105851374,222.0,-2.0,-10.0
UncalMag,1676594826289,31883111405614,-160.5764,746.3106,395.9266,-177.00775,769.7961,430.15182
UncalGyro,1676594826288,31883110092991,-1.1162035,1.7924314,0.08506299,-0.0003414619,-0.0017146979,-0.00032713916
UncalAccel,1676594826292,31883114330662,-1.1766706,1.869991,16.79582,0.037048545,-0.031444572,0.0098014325
OrientationDeg,1676594826292,31883114330662,222.0,-1.0,-9.0
UncalGyro,1676594826296,31883118568332,-0.3587306,2.0468566,0.70829827,-0.0003414619,-0.0017146979,-0.00032713916
UncalMag,1676594826299,31883121416275,-159.698,746.9328,395.56058,-177.00775,769.7961,430.15182
UncalAccel,1676594826300,31883122824050,-7.210771,0.8757731,-1.1688938,0.037048545,-0.031444572,0.0098014325
OrientationDeg,1676594826300,31883122824050,222.0,-1.0,-9.0
UncalGyro,1676594826305,31883127065067,1.3046554,-0.3474296,2.2386684,-0.0003414619,-0.0017146979,-0.00032713916
UncalAccel,1676594826309,31883131307704,-5.1535416,2.0398812,15.094523,0.037048545,-0.031444572,0.0098014325
OrientationDeg,1676594826309,31883131307704,220.0,-1.0,-10.0
UncalMag,1676594826309,31883131398412,-160.5154,745.542,396.3414,-177.00775,769.7961,430.15182
UncalGyro,1676594826313,31883135548447,1.8310685,-0.17821993,2.9552133,-0.0003414619,-0.0017146979,-0.00032713916
UncalAccel,1676594826317,31883139785141,-1.0480564,4.1353955,14.656637,0.037048545,-0.031444572,0.0098014325
OrientationDeg,1676594826317,31883139785141,219.0,-1.0,-11.0
UncalMag,1676594826319,31883141405981,-160.5154,745.542,396.3414,-177.00775,769.7961,430.15182
UncalGyro,1676594826322,31883144015986,1.3061826,0.59315014,2.8435776,-0.0003414619,-0.0017146979,-0.00032713916
UncalAccel,1676594826326,31883148258804,-1.7808583,4.825725,11.794223,0.037048545,-0.031444572,0.0098014325
OrientationDeg,1676594826326,31883148258804,217.0,-1.0,-12.0
UncalMag,1676594826329,31883151416398,-161.6256,744.5782,396.866,-177.00775,769.7961,430.15182
UncalGyro,1676594826330,31883152509649,0.5900958,1.1716396,2.3296874,-0.0003414619,-0.0017146979,-0.00032713916
UncalAccel,1676594826334,31883156751836,-2.164308,4.727619,8.76132,0.037048545,-0.031444572,0.0098014325
OrientationDeg,1676594826334,31883156751836,216.0,-1.0,-12.0
UncalGyro,1676594826338,31883160994452,-0.1339322,1.2368494,1.7073684,-0.0003414619,-0.0017146979,-0.00032713916
UncalMag,1676594826339,31883161406225,-162.49179,744.0536,397.36618,-177.00775,769.7961,430.15182
UncalAccel,1676594826343,31883165236660,-2.3449662,3.6927235,8.082955,0.037048545,-0.031444572,0.0098014325
OrientationDeg,1676594826343,31883165236660,216.0,0.0,-11.0
UncalGyro,1676594826347,31883169471359,-0.86132,0.98883814,1.1974486,-0.0003414619,-0.0017146979,-0.00032713916
UncalMag,1676594826349,31883171416398,-162.49179,744.0536,397.36618,-177.00775,769.7961,430.15182
UncalAccel,1676594826351,31883173710598,-1.7898313,2.6219354,8.817552,0.037048545,-0.031444572,0.0098014325
OrientationDeg,1676594826351,31883173710598,215.0,0.0,-11.0
UncalGyro,1676594826355,31883177950445,-1.4636332,0.7163922,0.84711736,-0.0003414619,-0.0017146979,-0.00032713916
UncalMag,1676594826359,31883181416480,-162.382,744.1268,396.6586,-177.00775,769.7961,430.15182
UncalAccel,1676594826360,31883182192643,-0.23090738,2.9198418,8.611171,0.037048545,-0.031444572,0.0098014325
OrientationDeg,1676594826360,31883182192643,215.0,0.0,-10.0
UncalGyro,1676594826364,31883186433611,-1.8562667,0.38728857,0.59635717,-0.0003414619,-0.0017146979,-0.00032713916
UncalAccel,1676594826368,31883190671983,0.8386843,4.173681,7.2993054,0.037048545,-0.031444572,0.0098014325
OrientationDeg,1676594826368,31883190671983,215.0,0.0,-9.0
UncalMag,1676594826369,31883191428036,-162.01599,745.06616,395.78018,-177.00775,769.7961,430.15182
UncalGyro,1676594826372,31883194910662,-2.0563252,0.00015271631,0.38759398,-0.0003414619,-0.0017146979,-0.00032713916
UncalAccel,1676594826377,31883199143704,1.6576279,4.743771,7.4398837,0.037048545,-0.031444572,0.0098014325
OrientationDeg,1676594826377,31883199143704,214.0,0.0,-8.0
UncalMag,1676594826379,31883201413225,-161.7598,745.8592,395.8412,-177.00775,769.7961,430.15182
UncalGyro,1676594826381,31883203393256,-2.0427334,-0.14049901,0.1685988,-0.0003414619,-0.0017146979,-0.00032713916
UncalAccel,1676594826385,31883207627346,2.0524435,5.156533,8.666803,0.037048545,-0.031444572,0.0098014325
OrientationDeg,1676594826385,31883207627346,214.0,0.0,-7.0
UncalMag,1676594826389,31883211416359,-162.1014,746.98157,395.7558,-177.00775,769.7961,430.15182
UncalGyro,1676594826389,31883211863543,-1.9679024,0.058643065,-0.117438845,-0.0003414619,-0.0017146979,-0.00032713916
UncalAccel,1676594826394,31883216104663,1.4673985,5.151149,9.517452,0.037048545,-0.031444572,0.0098014325
OrientationDeg,1676594826394,31883216104663,215.0,0.0,-6.0
UncalGyro,1676594826398,31883220353441,-1.9201022,0.50732356,-0.36163223,-0.0003414619,-0.0017146979,-0.00032713916
UncalMag,1676594826399,31883221405495,-161.65,747.555,394.426,-177.00775,769.7961,430.15182
UncalAccel,1676594826402,31883224586657,-0.587438,4.246662,9.91466,0.037048545,-0.031444572,0.0098014325
UncalGyro,1676594826406,31883228835598,-2.0865629,1.190729,-0.3034473,-0.0003414619,-0.0017146979,-0.00032713916
OrientationDeg,1676594826402,31883224586657,215.0,0.0,-5.0
UncalMag,1676594826409,31883231416278,-160.7472,748.6164,394.426,-177.00775,769.7961,430.15182
UncalAccel,1676594826411,31883233064918,-1.4255241,5.831907,7.051648,0.037048545,-0.031444572,0.0098014325
OrientationDeg,1676594826411,31883233064918,215.0,0.0,-4.0
UncalGyro,1676594826415,31883237319536,-1.905136,1.0722213,-0.43875396,-0.0003414619,-0.0017146979,-0.00032713916
UncalMag,1676594826419,31883241416441,-160.735,748.8604,393.633,-177.00775,769.7961,430.15182
UncalAccel,1676594826419,31883241555906,-2.6189444,5.3970113,7.728817,0.037048545,-0.031444572,0.0098014325
OrientationDeg,1676594826419,31883241555906,215.0,1.0,-4.0
UncalGyro,1676594826423,31883245800342,-1.892155,0.95004815,-0.51893,-0.0003414619,-0.0017146979,-0.00032713916
UncalAccel,1676594826428,31883250035540,-2.2354946,3.65384,11.954542,0.037048545,-0.031444572,0.0098014325
UncalMag,1676594826429,31883251405902,-160.735,748.8604,393.633,-177.00775,769.7961,430.15182
OrientationDeg,1676594826428,31883250035540,215.0,1.0,-3.0
UncalGyro,1676594826432,31883254268613,-2.060143,0.8686504,-0.45463645,-0.0003414619,-0.0017146979,-0.00032713916
UncalAccel,1676594826436,31883258517463,-1.1204392,2.4179473,10.22154,0.037048545,-0.031444572,0.0098014325
OrientationDeg,1676594826436,31883258517463,216.0,2.0,-2.0
UncalMag,1676594826439,31883261405902,-160.3934,750.9222,392.6692,-177.00775,769.7961,430.15182
UncalGyro,1676594826440,31883262754047,-2.1308508,0.63056564,-0.27656925,-0.0003414619,-0.0017146979,-0.00032713916
UncalAccel,1676594826444,31883266982765,0.910469,2.4735804,10.453644,0.037048545,-0.031444572,0.0098014325
OrientationDeg,1676594826444,31883266982765,216.0,2.0,-1.0
UncalGyro,1676594826449,31883271238808,-1.9396498,0.634689,-0.07696902,-0.0003414619,-0.0017146979,-0.00032713916
UncalMag,1676594826449,31883271415912,-159.4052,751.64197,392.81558,-177.00775,769.7961,430.15182
UncalAccel,1676594826453,31883275475818,2.1122642,2.6183462,11.414961,0.037048545,-0.031444572,0.0098014325
OrientationDeg,1676594826453,31883275475818,216.0,2.0,0.0
UncalGyro,1676594826457,31883279725350,-1.4920384,1.0824533,0.11942416,-0.0003414619,-0.0017146979,-0.00032713916
UncalMag,1676594826459,31883281416238,-158.94159,752.4472,393.1084,-177.00775,769.7961,430.15182
UncalAccel,1676594826461,31883283964140,2.4568307,2.7008986,11.989238,0.037048545,-0.031444572,0.0098014325
OrientationDeg,1676594826461,31883283964140,215.0,3.0,0.0
UncalGyro,1676594826466,31883288215239,-0.9440922,1.6809485,0.2667954,-0.0003414619,-0.0017146979,-0.00032713916
UncalMag,1676594826469,31883291416238,-158.3926,752.7766,392.2056,-177.00775,769.7961,430.15182
UncalAccel,1676594826470,31883292440408,1.8705891,2.806781,12.276377,0.037048545,-0.031444572,0.0098014325
OrientationDeg,1676594826470,31883292440408,215.0,4.0,0.0
UncalGyro,1676594826474,31883296681598,-0.48670688,2.0906863,0.3370449,-0.0003414619,-0.0017146979,-0.00032713916
UncalAccel,1676594826478,31883300918273,0.96789676,3.097509,12.536596,0.037048545,-0.031444572,0.0098014325
OrientationDeg,1676594826478,31883300918273,215.0,5.0,0.0
UncalMag,1676594826479,31883301414815,-157.563,752.80096,392.43738,-177.00775,769.7961,430.15182
UncalGyro,1676594826483,31883305164275,-0.17195857,2.257147,0.35323283,-0.0003414619,-0.0017146979,-0.00032713916
UncalAccel,1676594826487,31883309401762,0.2219343,3.6113675,12.156735,0.037048545,-0.031444572,0.0098014325
OrientationDeg,1676594826487,31883309401762,215.0,6.0,0.0
UncalMag,1676594826489,31883311416402,-156.221,752.6058,393.55978,-177.00775,769.7961,430.15182
UncalGyro,1676594826491,31883313643249,-0.048716504,2.1945333,0.29901853,-0.0003414619,-0.0017146979,-0.00032713916
UncalAccel,1676594826495,31883317883341,-0.5180461,3.8656049,11.759527,0.037048545,-0.031444572,0.0098014325
OrientationDeg,1676594826495,31883317883341,215.0,7.0,0.0
UncalMag,1676594826499,31883321405741,-156.74559,752.6058,394.06,-177.00775,769.7961,430.15182
UncalGyro,1676594826500,31883322127787,-0.07070765,1.9666806,0.20540343,-0.0003414619,-0.0017146979,-0.00032713916
UncalAccel,1676594826504,31883326375143,-1.0307083,3.7387853,11.374881,0.037048545,-0.031444572,0.0098014325
OrientationDeg,1676594826504,31883326375143,215.0,8.0,0.0
UncalGyro,1676594826508,31883330603373,-0.17730364,1.6242907,0.10781772,-0.0003414619,-0.0017146979,-0.00032713916
UncalMag,1676594826509,31883331405904,-155.8306,752.13,394.8896,-177.00775,769.7961,430.15182
UncalAccel,1676594826512,31883334840536,-1.3806586,3.611966,11.573485,0.037048545,-0.031444572,0.0098014325
OrientationDeg,1676594826512,31883334840536,215.0,9.0,0.0
UncalGyro,1676594826517,31883339082285,-0.29856038,1.3009902,0.021991149,-0.0003414619,-0.0017146979,-0.00032713916
UncalMag,1676594826519,31883341405701,-155.1474,753.10596,394.8652,-177.00775,769.7961,430.15182
UncalAccel,1676594826521,31883343324371,-1.4871392,3.399603,11.841481,0.037048545,-0.031444572,0.0098014325
UncalGyro,1676594826525,31883347567097,-0.38805214,1.050841,-0.047647487,-0.0003414619,-0.0017146979,-0.00032713916
OrientationDeg,1676594826521,31883343324371,215.0,9.0,0.0
UncalMag,1676594826529,31883351416484,-154.94,752.91077,394.3284,-177.00775,769.7961,430.15182
UncalAccel,1676594826529,31883351803691,-1.3944174,3.1130621,11.848062,0.037048545,-0.031444572,0.0098014325
OrientationDeg,1676594826529,31883351803691,215.0,10.0,1.0
UncalGyro,1676594826534,31883356036296,-0.40668353,0.8782715,-0.09101892,-0.0003414619,-0.0017146979,-0.00032713916
UncalAccel,1676594826538,31883360286083,-1.3202399,2.6823542,11.779267,0.037048545,-0.031444572,0.0098014325
UncalMag,1676594826539,31883361405864,-154.33,752.7766,395.0116,-177.00775,769.7961,430.15182
OrientationDeg,1676594826538,31883360286083,215.0,10.0,1.0
UncalGyro,1676594826542,31883364526908,-0.34422258,0.79702646,-0.09773844,-0.0003414619,-0.0017146979,-0.00032713916
UncalAccel,1676594826546,31883368769165,-1.3513466,2.2271197,11.78166,0.037048545,-0.031444572,0.0098014325
UncalMag,1676594826549,31883371416200,-154.2202,752.7766,394.8896,-177.00775,769.7961,430.15182
UncalGyro,1676594826551,31883373006847,-0.2359467,0.8249735,-0.07880162,-0.0003414619,-0.0017146979,-0.00032713916
OrientationDeg,1676594826546,31883368769165,215.0,11.0,1.0
UncalAccel,1676594826555,31883377243154,-1.5122639,1.7611175,11.897114,0.037048545,-0.031444572,0.0098014325
OrientationDeg,1676594826555,31883377243154,215.0,11.0,1.0
UncalMag,1676594826559,31883381413555,-153.9884,753.21576,394.98718,-177.00775,769.7961,430.15182
UncalGyro,1676594826559,31883381486268,-0.1142318,0.9392053,-0.0421497,-0.0003414619,-0.0017146979,-0.00032713916
UncalAccel,1676594826563,31883385718670,-1.7874385,1.3669,11.873784,0.037048545,-0.031444572,0.0098014325
OrientationDeg,1676594826563,31883385718670,215.0,11.0,1.0
UncalGyro,1676594826567,31883389971447,-0.0062613687,1.0801625,0.0033597588,-0.0003414619,-0.0017146979,-0.00032713916
UncalMag,1676594826569,31883391416282,-153.5492,753.5086,395.646,-177.00775,769.7961,430.15182
UncalAccel,1676594826572,31883394208559,-2.1379871,0.8859426,11.78824,0.037048545,-0.031444572,0.0098014325
OrientationDeg,1676594826572,31883394208559,215.0,12.0,1.0
UncalGyro,1676594826576,31883398452322,0.08277224,1.2005029,0.057421334,-0.0003414619,-0.0017146979,-0.00032713916
UncalMag,1676594826579,31883401413189,-152.9636,752.8864,394.9994,-177.00775,769.7961,430.15182
UncalAccel,1676594826580,31883402688325,-2.53041,0.61076796,11.400005,0.037048545,-0.031444572,0.0098014325
OrientationDeg,1676594826580,31883402688325,215.0,13.0,1.0
UncalGyro,1676594826584,31883406927643,0.13713925,1.2620476,0.10094548,-0.0003414619,-0.0017146979,-0.00032713916
UncalAccel,1676594826589,31883411170269,-2.9916265,0.51266223,11.054242,0.037048545,-0.031444572,0.0098014325
UncalMag,1676594826589,31883411413190,-152.4146,753.2646,395.8046,-177.00775,769.7961,430.15182
OrientationDeg,1676594826589,31883411170269,215.0,13.0,1.0
UncalGyro,1676594826593,31883415411817,0.16600263,1.2786937,0.13072516,-0.0003414619,-0.0017146979,-0.00032713916
UncalAccel,1676594826597,31883419652091,-3.4516466,0.3188436,10.698908,0.037048545,-0.031444572,0.0098014325
OrientationDeg,1676594826597,31883419652091,215.0,14.0,1.0
UncalMag,1676594826599,31883421405784,-152.3292,753.02057,396.2316,-177.00775,769.7961,430.15182
UncalGyro,1676594826601,31883423889397,0.19730948,1.2637274,0.150731,-0.0003414619,-0.0017146979,-0.00032713916
UncalAccel,1676594826606,31883428129692,-3.8530426,0.18305093,10.129416,0.037048545,-0.031444572,0.0098014325
OrientationDeg,1676594826606,31883428129692,214.0,15.0,0.0
UncalMag,1676594826609,31883431416364,-151.5118,752.67896,395.646,-177.00775,769.7961,430.15182
UncalGyro,1676594826610,31883432364667,0.24953845,1.1859949,0.15882497,-0.0003414619,-0.0017146979,-0.00032713916
UncalAccel,1676594826614,31883436613039,-4.19402,0.2632105,9.601799,0.037048545,-0.031444572,0.0098014325
OrientationDeg,1676594826614,31883436613039,214.0,15.0,0.0
UncalGyro,1676594826618,31883440853487,0.33368513,1.0641272,0.14294247,-0.0003414619,-0.0017146979,-0.00032713916
UncalMag,1676594826619,31883441405703,-151.3166,752.6058,396.3536,-177.00775,769.7961,430.15182
UncalAccel,1676594826623,31883445095116,-4.4967117,0.30089745,9.131609,0.037048545,-0.031444572,0.0098014325
OrientationDeg,1676594826623,31883445095116,214.0,16.0,0.0
UncalGyro,1676594826627,31883449334699,0.43569964,0.93218035,0.11362094,-0.0003414619,-0.0017146979,-0.00032713916
UncalMag,1676594826629,31883451416405,-151.0116,752.4594,397.0368,-177.00775,769.7961,430.15182
UncalAccel,1676594826631,31883453574934,-4.7138605,0.2955136,8.700901,0.037048545,-0.031444572,0.0098014325
OrientationDeg,1676594826631,31883453574934,214.0,16.0,0.0
UncalGyro,1676594826635,31883457816246,0.55878896,0.8035932,0.086437434,-0.0003414619,-0.0017146979,-0.00032713916
UncalMag,1676594826639,31883461413150,-150.3772,752.48376,397.2686,-177.00775,769.7961,430.15182
UncalAccel,1676594826640,31883462053785,-4.8496532,0.29012975,8.356335,0.037048545,-0.031444572,0.0098014325
OrientationDeg,1676594826640,31883462053785,215.0,16.0,0.0
UncalGyro,1676594826644,31883466292545,0.68844515,0.674548,0.0693332,-0.0003414619,-0.0017146979,-0.00032713916
UncalAccel,1676594826648,31883470535067,-4.8622155,0.31465617,8.122437,0.037048545,-0.031444572,0.0098014325
OrientationDeg,1676594826648,31883470535067,215.0,17.0,0.0
UncalMag,1676594826649,31883471405745,-150.7066,752.2276,397.8176,-177.00775,769.7961,430.15182
UncalGyro,1676594826652,31883474776330,0.8023715,0.54565537,0.06047566,-0.0003414619,-0.0017146979,-0.00032713916
UncalAccel,1676594826657,31883479016493,-4.7802615,0.32961133,7.993822,0.037048545,-0.031444572,0.0098014325
OrientationDeg,1676594826657,31883479016493,215.0,17.0,0.0
UncalMag,1676594826659,31883481416447,-149.999,751.8982,397.964,-177.00775,769.7961,430.15182
UncalGyro,1676594826661,31883483257155,0.8914051,0.42164972,0.059253927,-0.0003414619,-0.0017146979,-0.00032713916
UncalAccel,1676594826665,31883487497378,-4.636094,0.38344982,7.913663,0.037048545,-0.031444572,0.0098014325
OrientationDeg,1676594826665,31883487497378,215.0,17.0,-1.0
UncalMag,1676594826669,31883491416488,-150.1332,751.3736,397.72,-177.00775,769.7961,430.15182
UncalGyro,1676594826669,31883491735335,0.9521862,0.2967278,0.06291912,-0.0003414619,-0.0017146979,-0.00032713916
UncalAccel,1676594826673,31883495966648,-4.4979086,0.465404,7.895118,0.037048545,-0.031444572,0.0098014325
OrientationDeg,1676594826673,31883495966648,215.0,17.0,-1.0
UncalGyro,1676594826678,31883500221368,0.99021256,0.18524489,0.06582073,-0.0003414619,-0.0017146979,-0.00032713916
UncalMag,1676594826679,31883501409937,-150.04779,751.1174,398.1348,-177.00775,769.7961,430.15182
UncalAccel,1676594826682,31883504469873,-4.398008,0.51864433,7.895118,0.037048545,-0.031444572,0.0098014325
OrientationDeg,1676594826682,31883504469873,215.0,17.0,-2.0
UncalGyro,1676594826686,31883508701746,1.0129673,0.095753126,0.06566802,-0.0003414619,-0.0017146979,-0.00032713916
UncalMag,1676594826689,31883511416407,-149.9746,750.7026,398.7692,-177.00775,769.7961,430.15182
UncalAccel,1676594826690,31883512938715,-4.2975097,0.5240282,7.929216,0.037048545,-0.031444572,0.0098014325
OrientationDeg,1676594826690,31883512938715,215.0,17.0,-2.0
UncalGyro,1676594826695,31883517174839,1.0225884,0.030543262,0.07345655,-0.0003414619,-0.0017146979,-0.00032713916
UncalAccel,1676594826699,31883521408126,-4.206582,0.4863412,7.9633136,0.037048545,-0.031444572,0.0098014325
UncalMag,1676594826699,31883521422755,-149.5842,750.2146,399.367,-177.00775,769.7961,430.15182
OrientationDeg,1676594826699,31883521408126,215.0,17.0,-3.0
UncalGyro,1676594826703,31883525647994,1.018465,-0.02367103,0.09132435,-0.0003414619,-0.0017146979,-0.00032713916
UncalAccel,1676594826707,31883529889459,-4.054638,0.51146585,8.045268,0.037048545,-0.031444572,0.0098014325
OrientationDeg,1676594826707,31883529889459,215.0,17.0,-3.0
UncalMag,1676594826709,31883531405950,-149.9258,749.7388,398.53738,-177.00775,769.7961,430.15182
UncalGyro,1676594826712,31883534143621,1.0056369,-0.06963864,0.10430524,-0.0003414619,-0.0017146979,-0.00032713916
UncalAccel,1676594826716,31883538383254,-3.882953,0.57427746,8.065009,0.037048545,-0.031444572,0.0098014325
OrientationDeg,1676594826716,31883538383254,216.0,17.0,-4.0
UncalMag,1676594826719,31883541416326,-150.04779,749.51917,400.06238,-177.00775,769.7961,430.15182
UncalGyro,1676594826720,31883542624497,0.991587,-0.109650314,0.106137834,-0.0003414619,-0.0017146979,-0.00032713916
UncalAccel,1676594826724,31883546861241,-3.778267,0.66101724,8.12782,0.037048545,-0.031444572,0.0098014325
OrientationDeg,1676594826724,31883546861241,216.0,17.0,-4.0
UncalGyro,1676594826729,31883551102819,0.97066486,-0.13683382,0.0954477,-0.0003414619,-0.0017146979,-0.00032713916
UncalMag,1676594826729,31883551397609,-149.75499,749.0678,399.33038,-177.00775,769.7961,430.15182
UncalAccel,1676594826733,31883555343328,-3.6681972,0.68135625,8.070991,0.037048545,-0.031444572,0.0098014325
OrientationDeg,1676594826733,31883555343328,216.0,17.0,-4.0
UncalGyro,1676594826737,31883559584325,0.95325524,-0.16600263,0.074830994,-0.0003414619,-0.0017146979,-0.00032713916
UncalMag,1676594826739,31883561399481,-150.4138,748.6408,399.733,-177.00775,769.7961,430.15182
UncalAccel,1676594826741,31883563825476,-3.5623147,0.68195444,7.9710903,0.037048545,-0.031444572,0.0098014325
OrientationDeg,1676594826741,31883563825476,216.0,17.0,-5.0
UncalGyro,1676594826746,31883568063757,0.9450085,-0.20479257,0.055283304,-0.0003414619,-0.0017146979,-0.00032713916
UncalMag,1676594826749,31883571418321,-150.2186,748.4822,400.4162,-177.00775,769.7961,430.15182
UncalAccel,1676594826750,31883572303493,-3.409174,0.71665037,7.9100733,0.037048545,-0.031444572,0.0098014325
OrientationDeg,1676594826750,31883572303493,216.0,17.0,-5.0
UncalGyro,1676594826754,31883576544083,0.93935806,-0.23915374,0.04016439,-0.0003414619,-0.0017146979,-0.00032713916
UncalAccel,1676594826758,31883580784267,-3.2081769,0.7465607,7.9256268,0.037048545,-0.031444572,0.0098014325
OrientationDeg,1676594826758,31883580784267,216.0,17.0,-6.0
UncalMag,1676594826759,31883581405707,-150.1576,747.799,400.7334,-177.00775,769.7961,430.15182
UncalGyro,1676594826763,31883585025784,0.9317222,-0.26236662,0.029474247,-0.0003414619,-0.0017146979,-0.00032713916
UncalAccel,1676594826767,31883589265407,-3.013162,0.80997044,8.002795,0.037048545,-0.031444572,0.0098014325
OrientationDeg,1676594826767,31883589265407,216.0,17.0,-6.0
UncalMag,1676594826769,31883591413276,-151.1946,747.7624,400.2698,-177.00775,769.7961,430.15182
UncalGyro,1676594826771,31883593503140,0.915687,-0.27000242,0.021991149,-0.0003414619,-0.0017146979,-0.00032713916
UncalAccel,1676594826775,31883597742702,-2.8612177,0.887139,8.132008,0.037048545,-0.031444572,0.0098014325
OrientationDeg,1676594826775,31883597742702,216.0,17.0,-7.0
UncalMag,1676594826779,31883601416409,-149.7428,747.71356,400.70898,-177.00775,769.7961,430.15182
UncalGyro,1676594826779,31883601984249,0.88270026,-0.2603813,0.010995574,-0.0003414619,-0.0017146979,-0.00032713916
UncalAccel,1676594826784,31883606216529,-2.7858438,0.95473623,8.242078,0.037048545,-0.031444572,0.0098014325
OrientationDeg,1676594826784,31883606216529,216.0,17.0,-7.0
UncalGyro,1676594826788,31883610468644,0.8330675,-0.24602598,-0.008093964,-0.0003414619,-0.0017146979,-0.00032713916
UncalMag,1676594826789,31883611405870,-150.304,746.9084,400.28198,-177.00775,769.7961,430.15182
UncalAccel,1676594826792,31883614707150,-2.7625136,0.9738788,8.289934,0.037048545,-0.031444572,0.0098014325
OrientationDeg,1676594826792,31883614707150,217.0,17.0,-7.0
