# 
# Header Description:
# 
# Version: v3.0.5.6 Platform: 13 Manufacturer: Google Model: Pixel 7
# 
# Raw,utcTimeMillis,TimeNanos,LeapSecond,TimeUncertaintyNanos,FullBiasNanos,BiasNanos,BiasUncertaintyNanos,DriftNanosPerSecond,DriftUncertaintyNanosPerSecond,HardwareClockDiscontinuityCount,Svid,TimeOffsetNanos,State,ReceivedSvTimeNanos,ReceivedSvTimeUncertaintyNanos,Cn0DbHz,PseudorangeRateMetersPerSecond,PseudorangeRateUncertaintyMetersPerSecond,AccumulatedDeltaRangeState,AccumulatedDeltaRangeMeters,AccumulatedDeltaRangeUncertaintyMeters,CarrierFrequencyHz,CarrierCycles,CarrierPhase,CarrierPhaseUncertainty,MultipathIndicator,SnrInDb,ConstellationType,AgcDb,BasebandCn0DbHz,FullInterSignalBiasNanos,FullInterSignalBiasUncertaintyNanos,SatelliteInterSignalBiasNanos,SatelliteInterSignalBiasUncertaintyNanos,CodeType,ChipsetElapsedRealtimeNanos
# 
# UncalAccel,utcTimeMillis,elapsedRealtimeNanos,UncalAccelXMps2,UncalAccelYMps2,UncalAccelZMps2,BiasXMps2,BiasYMps2,BiasZMps2
# 
# Accel,utcTimeMillis,elapsedRealtimeNanos,AccelXMps2,AccelYMps2,AccelZMps2
# 
# UncalGyro,utcTimeMillis,elapsedRealtimeNanos,UncalGyroXRadPerSec,UncalGyroYRadPerSec,UncalGyroZRadPerSec,DriftXRadPerSec,DriftYRadPerSec,DriftZRadPerSec
# 
# Gyro,utcTimeMillis,elapsedRealtimeNanos,GyroXRadPerSec,GyroYRadPerSec,GyroZRadPerSec
# 
# UncalMag,utcTimeMillis,elapsedRealtimeNanos,UncalMagXMicroT,UncalMagYMicroT,UncalMagZMicroT,BiasXMicroT,BiasYMicroT,BiasZMicroT
# 
# Mag,utcTimeMillis,elapsedRealtimeNanos,MagXMicroT,MagYMicroT,MagZMicroT
# 
# OrientationDeg,utcTimeMillis,elapsedRealtimeNanos,yawDeg,rollDeg,pitchDeg
# 
# Fix,Provider,LatitudeDegrees,LongitudeDegrees,AltitudeMeters,SpeedMps,AccuracyMeters,BearingDegrees,UnixTimeMillis,SpeedAccuracyMps,BearingAccuracyDegrees,elapsedRealtimeNanos,VerticalAccuracyMeters
# 
# Nav,Svid,Type,Status,MessageId,Sub-messageId,Data(Bytes)
# 
# Status,UnixTimeMillis,SignalCount,SignalIndex,ConstellationType,Svid,CarrierFrequencyHz,Cn0DbHz,AzimuthDegrees,ElevationDegrees,UsedInFix,HasAlmanacData,HasEphemerisData,BasebandCn0DbHz
# 
UncalGyro,1676594611461,31668283218490,-0.14462234,0.6068946,0.16691893,-0.00038485642,-0.0017173458,-0.00033888634
UncalMag,1676594611462,31668284934098,-154.147,779.6532,390.1804,-174.57417,771.0116,430.86337
UncalAccel,1676594611465,31668287453689,-1.4733806,1.3076776,14.923436,0.037048545,-0.031444572,0.0098014325
UncalGyro,1676594611469,31668291693141,0.00992656,0.38438696,0.17837265,-0.00038485642,-0.0017173458,-0.00033888634
UncalMag,1676594611472,31668294935034,-154.4398,779.9948,390.3878,-174.57417,771.0116,430.86337
UncalAccel,1676594611473,31668295933608,-1.5876378,1.451247,14.726627,0.037048545,-0.031444572,0.0098014325
OrientationDeg,1676594611473,31668295933608,305.0,2.0,-7.0
UncalGyro,1676594611478,31668300172724,0.09865474,0.12629639,0.14782938,-0.00038485642,-0.0017173458,-0.00033888634
Fix,FLP,37.4311400000,-122.1551337000,-15.80000114440918,0.8767302,5.698,9.330593,1676594611079,,,31667901598313,2.006878
UncalAccel,1676594611482,31668304416560,-1.5888343,1.5379868,14.210376,0.037048545,-0.031444572,0.0098014325
OrientationDeg,1676594611482,31668304416560,305.0,2.0,-7.0
UncalMag,1676594611482,31668304933813,-154.3788,779.4092,390.9734,-174.57417,771.0116,430.86337
UncalGyro,1676594611486,31668308657262,0.13087788,-0.16203201,0.08460484,-0.00038485642,-0.0017173458,-0.00033888634
UncalAccel,1676594611490,31668312896103,-1.3992031,1.5308083,13.772489,0.037048545,-0.031444572,0.0098014325
OrientationDeg,1676594611490,31668312896103,305.0,2.0,-8.0
UncalMag,1676594611492,31668314934872,-153.7078,780.0314,390.8636,-174.57417,771.0116,430.86337
UncalGyro,1676594611495,31668317139196,0.12140947,-0.4268421,0.0,-0.00038485642,-0.0017173458,-0.00033888634
UncalAccel,1676594611499,31668321374690,-1.0845468,1.5044873,13.292728,0.037048545,-0.031444572,0.0098014325
OrientationDeg,1676594611499,31668321374690,305.0,2.0,-8.0
UncalMag,1676594611502,31668324936581,-154.4642,779.6288,389.9364,-174.57417,771.0116,430.86337
UncalGyro,1676594611503,31668325617549,0.09010262,-0.6238461,-0.09468412,-0.00038485642,-0.0017173458,-0.00033888634
UncalAccel,1676594611507,31668329851985,-0.73100734,1.4213367,12.746566,0.037048545,-0.031444572,0.0098014325
OrientationDeg,1676594611507,31668329851985,305.0,1.0,-8.0
UncalGyro,1676594611512,31668334091620,0.058337633,-0.744492,-0.18402316,-0.00038485642,-0.0017173458,-0.00033888634
UncalMag,1676594611512,31668334934140,-155.1962,779.6044,389.47278,-174.57417,771.0116,430.86337
UncalAccel,1676594611516,31668338339677,-0.39481574,1.2664014,12.076576,0.037048545,-0.031444572,0.0098014325
OrientationDeg,1676594611516,31668338339677,305.0,1.0,-8.0
UncalGyro,1676594611520,31668342581000,0.03894266,-0.805884,-0.25503623,-0.00038485642,-0.0017173458,-0.00033888634
UncalMag,1676594611522,31668344937029,-154.7448,780.1656,390.3146,-174.57417,771.0116,430.86337
UncalAccel,1676594611524,31668346820064,-0.19322042,1.0869397,11.438889,0.037048545,-0.031444572,0.0098014325
OrientationDeg,1676594611524,31668346820064,305.0,1.0,-8.0
UncalGyro,1676594611529,31668351057308,0.038331795,-0.81016004,-0.3119994,-0.00038485642,-0.0017173458,-0.00033888634
UncalMag,1676594611532,31668354935442,-155.7086,779.7874,390.1316,-174.57417,771.0116,430.86337
UncalAccel,1676594611533,31668355294817,-0.078963146,0.9445667,10.948958,0.037048545,-0.031444572,0.0098014325
OrientationDeg,1676594611533,31668355294817,305.0,0.0,-8.0
UncalGyro,1676594611537,31668359537075,0.05390886,-0.75533485,-0.35827246,-0.00038485642,-0.0017173458,-0.00033888634
UncalAccel,1676594611541,31668363778887,-0.060418773,0.7680961,10.515259,0.037048545,-0.031444572,0.0098014325
OrientationDeg,1676594611541,31668363778887,306.0,0.0,-8.0
UncalMag,1676594611542,31668364934140,-155.7086,779.7874,389.8876,-174.57417,771.0116,430.86337
UncalGyro,1676594611546,31668368018643,0.08353582,-0.66523224,-0.3894266,-0.00038485642,-0.0017173458,-0.00033888634
UncalAccel,1676594611550,31668372258165,-0.08015956,0.54376894,10.130014,0.037048545,-0.031444572,0.0098014325
OrientationDeg,1676594611550,31668372258165,306.0,0.0,-8.0
UncalMag,1676594611552,31668374934059,-155.9038,780.01917,389.0946,-174.57417,771.0116,430.86337
UncalGyro,1676594611554,31668376500485,0.115453534,-0.5740606,-0.39645153,-0.00038485642,-0.0017173458,-0.00033888634
UncalAccel,1676594611559,31668380740344,-0.06699903,0.35294133,9.772886,0.037048545,-0.031444572,0.0098014325
OrientationDeg,1676594611558,31668380740344,306.0,0.0,-8.0
UncalMag,1676594611562,31668384934141,-156.40399,780.2754,389.2898,-174.57417,771.0116,430.86337
UncalGyro,1676594611563,31668384981402,0.14614952,-0.4999932,-0.39095375,-0.00038485642,-0.0017173458,-0.00033888634
UncalAccel,1676594611567,31668389217628,-0.041874398,0.2620141,9.683155,0.037048545,-0.031444572,0.0098014325
OrientationDeg,1676594611567,31668389217628,306.0,0.0,-8.0
UncalGyro,1676594611571,31668393460131,0.16310102,-0.43844852,-0.37568212,-0.00038485642,-0.0017173458,-0.00033888634
UncalMag,1676594611572,31668394934060,-156.40399,780.2754,389.2898,-174.57417,771.0116,430.86337
UncalAccel,1676594611575,31668397699542,-0.14656039,0.28055847,9.629316,0.037048545,-0.031444572,0.0098014325
OrientationDeg,1676594611575,31668397699542,306.0,0.0,-8.0
UncalGyro,1676594611579,31668401941444,0.16157386,-0.39920044,-0.3622431,-0.00038485642,-0.0017173458,-0.00033888634
UncalMag,1676594611582,31668404935199,-156.6114,780.33636,388.58218,-174.57417,771.0116,430.86337
UncalAccel,1676594611584,31668406180020,-0.25244278,0.32303107,9.671789,0.037048545,-0.031444572,0.0098014325
OrientationDeg,1676594611584,31668406180020,306.0,0.0,-8.0
UncalGyro,1676594611588,31668410420612,0.15454891,-0.3727805,-0.36713,-0.00038485642,-0.0017173458,-0.00033888634
UncalAccel,1676594611592,31668414662179,-0.32004002,0.3367898,9.776475,0.037048545,-0.031444572,0.0098014325
UncalMag,1676594611592,31668414925719,-157.2458,780.251,389.0702,-174.57417,771.0116,430.86337
OrientationDeg,1676594611592,31668414662179,307.0,0.0,-8.0
UncalGyro,1676594611596,31668418904244,0.160963,-0.36209038,-0.39400807,-0.00038485642,-0.0017173458,-0.00033888634
UncalAccel,1676594611601,31668423140969,-0.38703907,0.3074777,9.795019,0.037048545,-0.031444572,0.0098014325
OrientationDeg,1676594611601,31668423140969,307.0,0.0,-8.0
UncalMag,1676594611602,31668424934223,-157.0506,779.90936,389.10678,-174.57417,771.0116,430.86337
UncalGyro,1676594611605,31668427384855,0.17898351,-0.3744604,-0.42928556,-0.00038485642,-0.0017173458,-0.00033888634
UncalAccel,1676594611609,31668431621580,-0.35413775,0.2213361,9.915258,0.037048545,-0.031444572,0.0098014325
OrientationDeg,1676594611609,31668431621580,307.0,-1.0,-8.0
UncalMag,1676594611612,31668434934590,-157.5752,779.9826,389.1312,-174.57417,771.0116,430.86337
UncalGyro,1676594611613,31668435863279,0.20097467,-0.3839288,-0.46196684,-0.00038485642,-0.0017173458,-0.00033888634
UncalAccel,1676594611618,31668440100218,-0.30269206,0.21655045,10.039685,0.037048545,-0.031444572,0.0098014325
OrientationDeg,1676594611618,31668440100218,307.0,-1.0,-8.0
UncalGyro,1676594611622,31668444342396,0.23411411,-0.3839288,-0.50228393,-0.00038485642,-0.0017173458,-0.00033888634
UncalMag,1676594611622,31668444933939,-157.136,780.3486,389.4484,-174.57417,771.0116,430.86337
UncalAccel,1676594611626,31668448583647,-0.2650051,0.212363,10.130613,0.037048545,-0.031444572,0.0098014325
OrientationDeg,1676594611626,31668448583647,308.0,-1.0,-8.0
UncalGyro,1676594611630,31668452826364,0.2753475,-0.37614027,-0.5502369,-0.00038485642,-0.0017173458,-0.00033888634
UncalMag,1676594611632,31668454935282,-157.67279,780.0436,388.42358,-174.57417,771.0116,430.86337
UncalAccel,1676594611635,31668457062896,-0.23569304,0.12622139,10.145568,0.037048545,-0.031444572,0.0098014325
OrientationDeg,1676594611635,31668457062896,308.0,-1.0,-9.0
UncalGyro,1676594611639,31668461306711,0.322995,-0.36071593,-0.59986967,-0.00038485642,-0.0017173458,-0.00033888634
UncalMag,1676594611642,31668464940816,-157.868,780.22656,388.7164,-174.57417,771.0116,430.86337
UncalAccel,1676594611643,31668465543557,-0.2440679,0.025722843,10.050453,0.037048545,-0.031444572,0.0098014325
OrientationDeg,1676594611643,31668465543557,308.0,-1.0,-9.0
UncalGyro,1676594611647,31668469784809,0.38056904,-0.34254268,-0.6569856,-0.00038485642,-0.0017173458,-0.00033888634
UncalAccel,1676594611652,31668474025950,-0.24705894,-0.046061836,9.840483,0.037048545,-0.031444572,0.0098014325
UncalMag,1676594611652,31668474934143,-158.173,780.3852,388.2772,-174.57417,771.0116,430.86337
UncalGyro,1676594611656,31668478264302,0.44012842,-0.3184135,-0.72250086,-0.00038485642,-0.0017173458,-0.00033888634
UncalAccel,1676594611660,31668482505676,-0.18424734,-0.078963146,9.793225,0.037048545,-0.031444572,0.0098014325
UncalMag,1676594611662,31668484934184,-158.7952,780.54376,388.082,-174.57417,771.0116,430.86337
OrientationDeg,1676594611652,31668474025950,308.0,-1.0,-9.0
OrientationDeg,1676594611660,31668482505676,309.0,-1.0,-9.0
UncalGyro,1676594611664,31668486747426,0.47739118,-0.27259862,-0.79244494,-0.00038485642,-0.0017173458,-0.00033888634
UncalAccel,1676594611668,31668490990702,-0.1268196,-0.078963146,9.817751,0.037048545,-0.031444572,0.0098014325
OrientationDeg,1676594611668,31668490990702,309.0,-1.0,-9.0
UncalMag,1676594611672,31668494935608,-158.75859,779.4092,388.3016,-174.57417,771.0116,430.86337
UncalGyro,1676594611673,31668495227671,0.4804455,-0.21471913,-0.8564331,-0.00038485642,-0.0017173458,-0.00033888634
UncalAccel,1676594611677,31668499469666,-0.07836494,-0.15493527,9.799207,0.037048545,-0.031444572,0.0098014325
OrientationDeg,1676594611677,31668499469666,310.0,-1.0,-10.0
UncalGyro,1676594611681,31668503706126,0.43676865,-0.16630806,-0.90133166,-0.00038485642,-0.0017173458,-0.00033888634
UncalMag,1676594611682,31668504934022,-158.6366,779.68976,388.6066,-174.57417,771.0116,430.86337
UncalAccel,1676594611686,31668507947265,-0.069391854,-0.27517462,9.909875,0.037048545,-0.031444572,0.0098014325
OrientationDeg,1676594611685,31668507947265,310.0,-1.0,-10.0
UncalGyro,1676594611690,31668512185303,0.34681875,-0.13637567,-0.9309586,-0.00038485642,-0.0017173458,-0.00033888634
UncalMag,1676594611692,31668514944439,-158.905,780.373,388.5334,-174.57417,771.0116,430.86337
UncalAccel,1676594611695,31668516429748,-0.07477571,-0.33260235,10.029516,0.037048545,-0.031444572,0.0098014325
OrientationDeg,1676594611694,31668516429748,311.0,-1.0,-10.0
UncalGyro,1676594611698,31668520684510,0.23380867,-0.14065172,-0.9625709,-0.00038485642,-0.0017173458,-0.00033888634
UncalAccel,1676594611702,31668524919496,-0.1274178,-0.35712877,10.052846,0.037048545,-0.031444572,0.0098014325
OrientationDeg,1676594611702,31668524919496,311.0,-1.0,-10.0
UncalMag,1676594611702,31668524949769,-159.4418,780.19,388.63098,-174.57417,771.0116,430.86337
UncalGyro,1676594611707,31668529158611,0.10903945,-0.18860464,-1.0129673,-0.00038485642,-0.0017173458,-0.00033888634
UncalAccel,1676594611711,31668533385103,-0.10827523,-0.45762733,10.1395855,0.037048545,-0.031444572,0.0098014325
OrientationDeg,1676594611711,31668533385103,312.0,-1.0,-10.0
UncalMag,1676594611712,31668534933778,-159.027,780.12897,389.0824,-174.57417,771.0116,430.86337
UncalGyro,1676594611715,31668537638550,-0.024281893,-0.24617869,-1.082606,-0.00038485642,-0.0017173458,-0.00033888634
UncalAccel,1676594611719,31668541877656,-0.08135597,-0.5587241,10.441082,0.037048545,-0.031444572,0.0098014325
OrientationDeg,1676594611719,31668541877656,312.0,-1.0,-10.0
UncalMag,1676594611722,31668544944602,-159.71019,780.87317,388.0698,-174.57417,771.0116,430.86337
UncalGyro,1676594611724,31668546121796,-0.15424347,-0.2958115,-1.1714869,-0.00038485642,-0.0017173458,-0.00033888634
UncalAccel,1676594611728,31668550357738,-0.0634098,-0.587438,10.6510515,0.037048545,-0.031444572,0.0098014325
OrientationDeg,1676594611728,31668550357738,313.0,-1.0,-10.0
UncalGyro,1676594611732,31668554597169,-0.26282477,-0.35140023,-1.2799155,-0.00038485642,-0.0017173458,-0.00033888634
UncalMag,1676594611732,31668554934430,-159.7956,781.1416,388.3748,-174.57417,771.0116,430.86337
UncalAccel,1676594611736,31668558838655,-0.04546363,-0.6693921,10.804193,0.037048545,-0.031444572,0.0098014325
OrientationDeg,1676594611736,31668558838655,313.0,-1.0,-10.0
UncalGyro,1676594611741,31668563077150,-0.33628133,-0.4173737,-1.4037683,-0.00038485642,-0.0017173458,-0.00033888634
UncalMag,1676594611742,31668564944440,-159.81999,780.87317,388.1918,-174.57417,771.0116,430.86337
UncalAccel,1676594611745,31668567309002,-0.02213361,-0.7507481,10.991431,0.037048545,-0.031444572,0.0098014325
OrientationDeg,1676594611745,31668567309002,314.0,-1.0,-9.0
UncalGyro,1676594611749,31668571560447,-0.3717115,-0.4802928,-1.5354098,-0.00038485642,-0.0017173458,-0.00033888634
UncalMag,1676594611752,31668574944644,-160.2226,781.1172,388.021,-174.57417,771.0116,430.86337
UncalAccel,1676594611753,31668575799491,0.00059820566,-0.8033902,11.135,0.037048545,-0.031444572,0.0098014325
OrientationDeg,1676594611753,31668575799491,315.0,-2.0,-9.0
UncalGyro,1676594611758,31668580040926,-0.37094793,-0.5459608,-1.6762142,-0.00038485642,-0.0017173458,-0.00033888634
UncalAccel,1676594611762,31668584266991,-0.0047856453,-0.82313097,11.230115,0.037048545,-0.031444572,0.0098014325
OrientationDeg,1676594611762,31668584266991,316.0,-2.0,-9.0
UncalMag,1676594611762,31668584935489,-160.5276,781.3002,388.67978,-174.57417,771.0116,430.86337
UncalGyro,1676594611766,31668588511934,-0.34513888,-0.6177375,-1.832443,-0.00038485642,-0.0017173458,-0.00033888634
UncalAccel,1676594611770,31668592761131,-0.0526421,-0.80877405,11.2349,0.037048545,-0.031444572,0.0098014325
OrientationDeg,1676594611770,31668592761131,317.0,-2.0,-9.0
UncalMag,1676594611772,31668594944603,-161.40599,782.3006,387.6062,-174.57417,771.0116,430.86337
UncalGyro,1676594611775,31668597005698,-0.31108314,-0.6924158,-2.0028744,-0.00038485642,-0.0017173458,-0.00033888634
UncalAccel,1676594611779,31668601243533,-0.081954174,-0.7513463,11.324632,0.037048545,-0.031444572,0.0098014325
OrientationDeg,1676594611779,31668601243533,318.0,-2.0,-9.0
UncalMag,1676594611782,31668604944522,-161.6134,782.3128,388.0942,-174.57417,771.0116,430.86337
UncalGyro,1676594611783,31668605479678,-0.28313604,-0.7463246,-2.1800253,-0.00038485642,-0.0017173458,-0.00033888634
UncalAccel,1676594611787,31668609710299,-0.050249275,-0.70348984,11.468201,0.037048545,-0.031444572,0.0098014325
OrientationDeg,1676594611787,31668609710299,319.0,-2.0,-9.0
UncalGyro,1676594611791,31668613958906,-0.27046058,-0.7704538,-2.3443482,-0.00038485642,-0.0017173458,-0.00033888634
UncalMag,1676594611792,31668614933780,-162.4308,782.65436,388.326,-174.57417,771.0116,430.86337
UncalAccel,1676594611796,31668618201734,-0.017347964,-0.61734825,11.477174,0.037048545,-0.031444572,0.0098014325
OrientationDeg,1676594611796,31668618201734,320.0,-2.0,-9.0
UncalGyro,1676594611800,31668622456455,-0.26893342,-0.798859,-2.4868324,-0.00038485642,-0.0017173458,-0.00033888634
UncalMag,1676594611802,31668624944441,-162.7114,783.1668,388.326,-174.57417,771.0116,430.86337
UncalAccel,1676594611804,31668626683648,0.0041874396,-0.4779663,11.104491,0.037048545,-0.031444572,0.0098014325
OrientationDeg,1676594611804,31668626683648,322.0,-3.0,-9.0
UncalGyro,1676594611808,31668630924930,-0.26221392,-0.8730792,-2.606104,-0.00038485642,-0.0017173458,-0.00033888634
UncalMag,1676594611812,31668634944360,-163.0042,783.423,388.15518,-174.57417,771.0116,430.86337
UncalAccel,1676594611813,31668635161605,-0.14955142,-0.52163535,11.203794,0.037048545,-0.031444572,0.0098014325
UncalGyro,1676594611817,31668639408919,-0.2454151,-0.9221011,-2.7026205,-0.00038485642,-0.0017173458,-0.00033888634
OrientationDeg,1676594611813,31668635161605,323.0,-3.0,-9.0
UncalAccel,1676594611821,31668643645786,-0.3068795,-0.5180461,11.150554,0.037048545,-0.031444572,0.0098014325
UncalMag,1676594611822,31668644931665,-163.41899,783.5938,388.448,-174.57417,771.0116,430.86337
OrientationDeg,1676594611821,31668643645786,324.0,-3.0,-8.0
UncalGyro,1676594611825,31668647885624,-0.20937407,-0.97051215,-2.784171,-0.00038485642,-0.0017173458,-0.00033888634
UncalAccel,1676594611830,31668652123519,-0.4546363,-0.35114673,10.934003,0.037048545,-0.031444572,0.0098014325
OrientationDeg,1676594611830,31668652123519,326.0,-3.0,-8.0
UncalMag,1676594611832,31668654944605,-164.7122,784.4844,387.1182,-174.57417,771.0116,430.86337
UncalGyro,1676594611834,31668656366102,-0.15653422,-1.0332786,-2.8591547,-0.00038485642,-0.0017173458,-0.00033888634
UncalAccel,1676594611838,31668660604679,-0.5922236,-0.22671995,10.717453,0.037048545,-0.031444572,0.0098014325
OrientationDeg,1676594611838,31668660604679,327.0,-4.0,-8.0
UncalGyro,1676594611842,31668664846847,-0.10323623,-1.087951,-2.9234483,-0.00038485642,-0.0017173458,-0.00033888634
UncalMag,1676594611842,31668664935247,-165.127,784.56976,387.1548,-174.57417,771.0116,430.86337
UncalAccel,1676594611847,31668669084822,-0.6305088,-0.12143575,10.673783,0.037048545,-0.031444572,0.0098014325
OrientationDeg,1676594611847,31668669084822,328.0,-4.0,-9.0
UncalGyro,1676594611851,31668673328333,-0.07009678,-1.1129965,-2.959184,-0.00038485642,-0.0017173458,-0.00033888634
UncalMag,1676594611852,31668674944605,-166.4812,784.66736,388.42358,-174.57417,771.0116,430.86337
UncalAccel,1676594611855,31668677572392,-0.62093747,-0.030508488,10.582856,0.037048545,-0.031444572,0.0098014325
OrientationDeg,1676594611855,31668677572392,330.0,-4.0,-9.0
UncalGyro,1676594611859,31668681806106,-0.079870634,-1.1136073,-2.967278,-0.00038485642,-0.0017173458,-0.00033888634
UncalMag,1676594611862,31668684954046,-167.12779,784.45996,387.655,-174.57417,771.0116,430.86337
UncalAccel,1676594611864,31668686039443,-0.66341007,0.089132644,10.419546,0.037048545,-0.031444572,0.0098014325
OrientationDeg,1676594611864,31668686039443,331.0,-4.0,-9.0
UncalGyro,1676594611868,31668690272425,-0.12705997,-1.1049025,-2.942996,-0.00038485642,-0.0017173458,-0.00033888634
UncalAccel,1676594611872,31668694526800,-0.71365935,0.19980069,10.046266,0.037048545,-0.031444572,0.0098014325
OrientationDeg,1676594611872,31668694526800,333.0,-5.0,-9.0
UncalMag,1676594611872,31668694933864,-167.8842,785.6434,387.2402,-174.57417,771.0116,430.86337
UncalGyro,1676594611876,31668698768672,-0.18891008,-1.1047498,-2.8970284,-0.00038485642,-0.0017173458,-0.00033888634
UncalAccel,1676594611881,31668703010341,-0.73100734,0.27696922,9.711869,0.037048545,-0.031444572,0.0098014325
OrientationDeg,1676594611881,31668703010341,334.0,-5.0,-9.0
UncalMag,1676594611882,31668704944606,-168.4942,785.985,387.2158,-174.57417,771.0116,430.86337
UncalGyro,1676594611885,31668707245712,-0.25610524,-1.1133019,-2.8414397,-0.00038485642,-0.0017173458,-0.00033888634
UncalAccel,1676594611889,31668711477351,-0.67178494,0.31585258,9.4636135,0.037048545,-0.031444572,0.0098014325
OrientationDeg,1676594611889,31668711477351,336.0,-5.0,-9.0
UncalMag,1676594611892,31668714944525,-169.763,785.7898,387.4354,-174.57417,771.0116,430.86337
UncalGyro,1676594611893,31668715728927,-0.33353242,-1.1162035,-2.7812696,-0.00038485642,-0.0017173458,-0.00033888634
UncalAccel,1676594611897,31668719968379,-0.58564335,0.28773692,9.526425,0.037048545,-0.031444572,0.0098014325
OrientationDeg,1676594611897,31668719968379,337.0,-6.0,-9.0
UncalGyro,1676594611902,31668724213232,-0.41813725,-1.063211,-2.7139215,-0.00038485642,-0.0017173458,-0.00033888634
UncalMag,1676594611902,31668724933946,-170.7634,786.46075,387.14258,-174.57417,771.0116,430.86337
UncalAccel,1676594611906,31668728448858,-0.55752766,0.34037903,9.497711,0.037048545,-0.031444572,0.0098014325
OrientationDeg,1676594611906,31668728448858,338.0,-6.0,-9.0
UncalGyro,1676594611910,31668732690171,-0.4970916,-0.9448558,-2.6335928,-0.00038485642,-0.0017173458,-0.00033888634
UncalMag,1676594611912,31668734944363,-171.99559,786.79016,387.25238,-174.57417,771.0116,430.86337
UncalAccel,1676594611914,31668736929032,-0.5138587,0.48993045,9.334999,0.037048545,-0.031444572,0.0098014325
OrientationDeg,1676594611914,31668736929032,340.0,-6.0,-8.0
UncalGyro,1676594611919,31668741169643,-0.56046885,-0.7658723,-2.5392141,-0.00038485642,-0.0017173458,-0.00033888634
UncalMag,1676594611922,31668744944567,-173.23999,786.9244,386.7034,-174.57417,771.0116,430.86337
UncalAccel,1676594611923,31668745403896,-0.53659046,0.65264237,9.076574,0.037048545,-0.031444572,0.0098014325
OrientationDeg,1676594611923,31668745403896,341.0,-6.0,-8.0
UncalGyro,1676594611927,31668749639939,-0.6084218,-0.56123245,-2.4288,-0.00038485642,-0.0017173458,-0.00033888634
UncalAccel,1676594611931,31668753888769,-0.59581286,0.6963114,8.665009,0.037048545,-0.031444572,0.0098014325
OrientationDeg,1676594611931,31668753888769,342.0,-6.0,-8.0
UncalMag,1676594611932,31668754934272,-173.9354,787.5466,387.72818,-174.57417,771.0116,430.86337
UncalGyro,1676594611936,31668758133062,-0.6453791,-0.37598756,-2.307696,-0.00038485642,-0.0017173458,-0.00033888634
UncalAccel,1676594611940,31668762368496,-0.60717875,0.6681957,8.235497,0.037048545,-0.031444572,0.0098014325
OrientationDeg,1676594611940,31668762368496,343.0,-6.0,-8.0
UncalMag,1676594611942,31668764944526,-174.2526,787.571,388.7042,-174.57417,771.0116,430.86337
UncalGyro,1676594611944,31668766594885,-0.689056,-0.23564127,-2.1766655,-0.00038485642,-0.0017173458,-0.00033888634
UncalAccel,1676594611948,31668770855791,-0.6771688,0.5623133,8.092526,0.037048545,-0.031444572,0.0098014325
OrientationDeg,1676594611948,31668770855791,344.0,-6.0,-8.0
UncalMag,1676594611952,31668774944649,-174.826,788.4128,387.94778,-174.57417,771.0116,430.86337
UncalGyro,1676594611953,31668775092333,-0.75670934,-0.12980886,-2.0438025,-0.00038485642,-0.0017173458,-0.00033888634
UncalAccel,1676594611957,31668779336270,-0.78783685,0.5377869,8.221141,0.037048545,-0.031444572,0.0098014325
OrientationDeg,1676594611957,31668779336270,345.0,-6.0,-7.0
UncalGyro,1676594611961,31668783571978,-0.83092946,-0.041996986,-1.9310977,-0.00038485642,-0.0017173458,-0.00033888634
UncalMag,1676594611962,31668784933947,-175.3384,788.6568,387.77698,-174.57417,771.0116,430.86337
UncalAccel,1676594611965,31668787812618,-1.0474582,0.6125626,8.309675,0.037048545,-0.031444572,0.0098014325
OrientationDeg,1676594611965,31668787812618,346.0,-6.0,-7.0
UncalGyro,1676594611970,31668792054695,-0.8793405,0.09315695,-1.8495473,-0.00038485642,-0.0017173458,-0.00033888634
UncalMag,1676594611972,31668794944364,-175.6312,788.9984,387.8746,-174.57417,771.0116,430.86337
UncalAccel,1676594611974,31668796289740,-1.346561,-0.2213361,13.127624,0.037048545,-0.031444572,0.0098014325
OrientationDeg,1676594611974,31668796289740,347.0,-5.0,-7.0
UncalGyro,1676594611978,31668800520749,-0.8013025,0.7432703,-1.7223345,-0.00038485642,-0.0017173458,-0.00033888634
UncalAccel,1676594611982,31668804769763,-2.0207388,1.16351,7.603792,0.037048545,-0.031444572,0.0098014325
UncalMag,1676594611982,31668804933704,-175.70439,789.43756,388.0942,-174.57417,771.0116,430.86337
OrientationDeg,1676594611982,31668804769763,348.0,-5.0,-6.0
UncalGyro,1676594611987,31668809014514,-0.5297729,0.677755,-1.6685784,-0.00038485642,-0.0017173458,-0.00033888634
UncalAccel,1676594611991,31668813256742,-1.933999,1.3579268,11.855838,0.037048545,-0.031444572,0.0098014325
OrientationDeg,1676594611991,31668813256742,349.0,-4.0,-6.0
UncalMag,1676594611992,31668814945952,-174.4478,789.462,387.94778,-174.57417,771.0116,430.86337
UncalGyro,1676594611995,31668817491412,-0.0050396384,0.7200574,-1.4964671,-0.00038485642,-0.0017173458,-0.00033888634
UncalAccel,1676594611999,31668821717486,-1.2466606,1.3621143,6.2997036,0.037048545,-0.031444572,0.0098014325
OrientationDeg,1676594611999,31668821717486,349.0,-4.0,-7.0
UncalMag,1676594612002,31668824944569,-175.09439,789.096,387.8746,-174.57417,771.0116,430.86337
UncalGyro,1676594612003,31668825976824,0.24969117,0.2837469,-1.3733778,-0.00038485642,-0.0017173458,-0.00033888634
UncalAccel,1676594612008,31668830214577,-1.4596218,0.75553375,7.0749784,0.037048545,-0.031444572,0.0098014325
OrientationDeg,1676594612008,31668830214577,350.0,-4.0,-7.0
UncalGyro,1676594612012,31668834460163,0.33658674,0.014966198,-1.2240212,-0.00038485642,-0.0017173458,-0.00033888634
UncalMag,1676594612012,31668834940866,-174.6552,789.5596,388.3382,-174.57417,771.0116,430.86337
UncalAccel,1676594612016,31668838694690,-3.057429,0.12502499,8.876774,0.037048545,-0.031444572,0.0098014325
OrientationDeg,1676594612016,31668838694690,351.0,-4.0,-7.0
UncalGyro,1676594612020,31668842936359,0.99265605,-0.50411654,-0.21884248,-0.00038485642,-0.0017173458,-0.00033888634
UncalMag,1676594612022,31668844944569,-175.6312,788.9252,388.2162,-174.57417,771.0116,430.86337
UncalAccel,1676594612025,31668847175728,-6.8967133,-0.73818576,9.272188,0.037048545,-0.031444572,0.0098014325
OrientationDeg,1676594612025,31668847175728,350.0,-4.0,-8.0
UncalGyro,1676594612029,31668851414448,1.8573358,-0.9575313,1.557401,-0.00038485642,-0.0017173458,-0.00033888634
UncalMag,1676594612032,31668854944366,-176.04599,788.8886,387.1304,-174.57417,771.0116,430.86337
UncalAccel,1676594612033,31668855645984,-2.8731818,3.7944186,12.33859,0.037048545,-0.031444572,0.0098014325
OrientationDeg,1676594612033,31668855645984,349.0,-5.0,-9.0
UncalGyro,1676594612037,31668859898436,2.1299343,-0.34605515,2.1229095,-0.00038485642,-0.0017173458,-0.00033888634
UncalAccel,1676594612042,31668864137063,-0.56350976,4.4261236,9.992428,0.037048545,-0.031444572,0.0098014325
UncalMag,1676594612042,31668864957997,-175.68,788.2054,387.4354,-174.57417,771.0116,430.86337
OrientationDeg,1676594612042,31668864137063,348.0,-5.0,-10.0
UncalGyro,1676594612046,31668868381560,1.8408424,0.004886922,1.8820758,-0.00038485642,-0.0017173458,-0.00033888634
UncalAccel,1676594612050,31668872614348,-1.0223335,3.8554354,8.4604225,0.037048545,-0.031444572,0.0098014325
UncalMag,1676594612052,31668874944692,-176.04599,787.3026,386.6302,-174.57417,771.0116,430.86337
OrientationDeg,1676594612050,31668872614348,347.0,-5.0,-10.0
UncalGyro,1676594612054,31668876847472,1.2741122,0.17287487,1.4517213,-0.00038485642,-0.0017173458,-0.00033888634
UncalAccel,1676594612059,31668881099618,-2.2504497,3.2093735,9.419945,0.037048545,-0.031444572,0.0098014325
OrientationDeg,1676594612059,31668881099618,346.0,-5.0,-11.0
UncalMag,1676594612062,31668884933380,-175.68,786.2778,387.3378,-174.57417,771.0116,430.86337
UncalGyro,1676594612063,31668885345825,0.5888741,0.36377025,1.1097895,-0.00038485642,-0.0017173458,-0.00033888634
UncalAccel,1676594612067,31668889573008,-2.8025935,3.1058838,9.149555,0.037048545,-0.031444572,0.0098014325
OrientationDeg,1676594612067,31668889573008,346.0,-5.0,-11.0
UncalGyro,1676594612071,31668893823263,-0.058337633,0.4970916,0.8145888,-0.00038485642,-0.0017173458,-0.00033888634
UncalMag,1676594612072,31668894933869,-175.3506,786.6072,386.4472,-174.57417,771.0116,430.86337
UncalAccel,1676594612076,31668898059397,-2.3539393,2.984448,8.714062,0.037048545,-0.031444572,0.0098014325
OrientationDeg,1676594612076,31668898059397,345.0,-5.0,-11.0
UncalGyro,1676594612080,31668902313700,-0.57451874,0.61651576,0.5713117,-0.00038485642,-0.0017173458,-0.00033888634
UncalMag,1676594612082,31668904944448,-175.2408,786.7048,386.45938,-174.57417,771.0116,430.86337
UncalAccel,1676594612084,31668906541534,-1.0869397,2.5082762,9.106484,0.037048545,-0.031444572,0.0098014325
OrientationDeg,1676594612084,31668906541534,345.0,-4.0,-10.0
UncalGyro,1676594612088,31668910792918,-0.89659745,0.8167268,0.34009922,-0.00038485642,-0.0017173458,-0.00033888634
UncalMag,1676594612092,31668914944408,-174.8382,786.534,386.5326,-174.57417,771.0116,430.86337
UncalAccel,1676594612093,31668915014232,0.6161518,1.875973,9.464211,0.037048545,-0.031444572,0.0098014325
OrientationDeg,1676594612093,31668915014232,345.0,-4.0,-10.0
UncalGyro,1676594612097,31668919250366,-1.0384709,1.0774136,0.04841107,-0.00038485642,-0.0017173458,-0.00033888634
UncalAccel,1676594612101,31668923497265,2.120639,1.8430717,9.172886,0.037048545,-0.031444572,0.0098014325
UncalMag,1676594612102,31668924933870,-173.2766,788.07117,387.106,-174.57417,771.0116,430.86337
OrientationDeg,1676594612101,31668923497265,345.0,-3.0,-9.0
UncalGyro,1676594612105,31668927742310,-1.0732902,1.255328,-0.36209038,-0.00038485642,-0.0017173458,-0.00033888634
Raw,1676594611999,131999000000,,,-1360629698000560698,0.0,6.825616884380612,209.0,1.0,58,2,0.0,16431,434629918191331,16,40.083526611328125,-585.3510581685723,0.15,16,-77014.57239048899,340282346638528860000000000000000000000,1575420030,,,,0,,1,,36.48352813720703,0.0,1.0,0.0,1.0,C,31668828458000
Raw,1676594611999,131999000000,,,-1360629698000560698,0.0,6.825616884380612,209.0,1.0,58,6,0.0,16431,434629927514587,16,40.326210021972656,522.449362553943,0.15,16,68540.03848856327,340282346638528860000000000000000000000,1575420030,,,,0,,1,,36.72621154785156,0.320142130558394,1.0,0.320142130558394,1.0,C,31668828458000
Raw,1676594611999,131999000000,,,-1360629698000560698,0.0,6.825616884380612,209.0,1.0,58,11,0.0,16431,434629931566306,17,39.060508728027344,0.0018972163553416278,0.15,16,-633.2420413154008,340282346638528860000000000000000000000,1575420030,,,,0,,1,,35.46051025390625,-0.20372681261465636,1.0,-0.20372681261465636,1.0,C,31668828458000
Raw,1676594611999,131999000000,,,-1360629698000560698,0.0,6.825616884380612,209.0,1.0,58,12,0.0,16431,434629931015095,10,45.241119384765625,-202.37903656575236,0.15,16,-26914.244323865347,340282346638528860000000000000000000000,1575420030,,,,0,,1,,41.64112091064453,-0.6984919076624261,1.0,-0.6984919076624261,1.0,C,31668828458000
Raw,1676594611999,131999000000,,,-1360629698000560698,0.0,6.825616884380612,209.0,1.0,58,19,0.0,16431,434629923122831,29,32.88233184814453,571.2914654511521,0.6324193518644345,16,75343.443162487,340282346638528860000000000000000000000,1575420030,,,,1,,1,,29.282331466674805,0.0,1.0,0.0,1.0,C,31668828458000
Raw,1676594611999,131999000000,,,-1360629698000560698,0.0,6.825616884380612,209.0,1.0,58,20,0.0,16431,434629922624068,35,30.283214569091797,-474.8062463947499,0.7492090133312508,16,-62478.47916118185,340282346638528860000000000000000000000,1575420030,,,,0,,1,,26.68321418762207,0.0,1.0,0.0,1.0,C,31668828458000
Raw,1676594611999,131999000000,,,-1360629698000560698,0.0,6.825616884380612,209.0,1.0,58,24,0.0,16431,434629924891268,19,37.82291030883789,575.8995839853187,0.15,16,75710.14560608508,340282346638528860000000000000000000000,1575420030,,,,0,,1,,34.2229118347168,-0.20372681261465636,1.0,-0.20372681261465636,1.0,C,31668828458000
Raw,1676594611999,131999000000,,,-1360629698000560698,0.0,6.825616884380612,209.0,1.0,58,25,0.0,16431,434629926185317,13,45.24445724487305,-468.9012903898904,0.15,16,-61749.82200186995,340282346638528860000000000000000000000,1575420030,,,,0,,1,,41.64445877075195,-2.0372682255564105,1.0,-2.0372682255564105,1.0,C,31668828458000
Raw,1676594611999,131999000000,,,-1360629698000560698,0.0,6.825616884380612,209.0,1.0,58,29,0.0,16431,434629918113427,11,46.626609802246094,-434.09870564320954,0.15,16,-56908.893971750505,340282346638528860000000000000000000000,1575420030,,,,0,,1,,43.026611328125,-0.6984919076624261,1.0,-0.6984919076624261,1.0,C,31668828458000
Raw,1676594611999,131999000000,,,-1360629698000560698,0.0,6.825616884380612,209.0,1.0,58,6,0.0,81921,434629927515089,10,37.66730880737305,521.7957632852051,0.15,16,70118.64131350363,340282346638528860000000000000000000000,1176450050,,,,0,,1,,34.06731033325195,1.9208527336454408,1.8740112755948477,1.9208527336454408,1.0,Q,31668828458000
Raw,1676594611999,131999000000,,,-1360629698000560698,0.0,6.825616884380612,209.0,1.0,58,11,0.0,81921,434629931566808,7,42.04814147949219,-0.49365083281476885,0.15,16,-666.5931350219046,340282346638528860000000000000000000000,1176450050,,,,0,,1,,38.448143005371094,0.0,1.8740112755948477,0.0,1.0,Q,31668828458000
Raw,1676594611999,131999000000,,,-1360629698000560698,0.0,6.825616884380612,209.0,1.0,58,24,0.0,81921,434629924891791,8,40.85686492919922,575.0743795479884,0.15,16,77504.54400583432,340282346638528860000000000000000000000,1176450050,,,,0,,1,,37.256866455078125,3.5215636101095664,1.8740112755948477,3.5215636101095664,1.0,Q,31668828458000
Raw,1676594611999,131999000000,,,-1360629698000560698,0.0,6.825616884380612,209.0,1.0,58,25,0.0,81921,434629926185838,8,42.50682067871094,-468.93741779380457,0.15,16,-63177.07964843149,340282346638528860000000000000000000000,1176450050,,,,0,,1,,38.906822204589844,1.0186341127782053,1.8740112755948477,1.0186341127782053,1.0,Q,31668828458000
Raw,1676594611999,131999000000,,,-1360629698000560698,0.0,6.825616884380612,209.0,1.0,58,14,0.0,32995,13411930989500,38,37.93712615966797,632.5010011818804,0.15,16,83416.49367873032,340282346638528860000000000000000000000,1598062460,,,,0,,3,,34.337127685546875,50.29141902923584,2.0000000474974513,50.29141902923584,2.0000000474974513,C,31668828458000
Raw,1676594611999,131999000000,,,-1360629698000560698,0.0,6.825616884380612,209.0,1.0,58,18,0.0,32995,13411928885472,33,41.96731948852539,-431.2180564179016,0.15,16,-57480.580731162714,340282346638528860000000000000000000000,1600312450,,,,0,,3,,38.3673210144043,50.29141902923584,2.0000000474974513,50.29141902923584,2.0000000474974513,C,31668828458000
Raw,1676594611999,131999000000,,,-1360629698000560698,0.0,6.825616884380612,209.0,1.0,58,16,0.0,32995,13411924591297,33,45.15988540649414,-674.8227552392541,0.15,16,-88186.6644803417,340282346638528860000000000000000000000,1601437440,,,,0,,3,,41.55988693237305,50.29141902923584,2.0000000474974513,50.29141902923584,2.0000000474974513,C,31668828458000
Raw,1676594611999,131999000000,,,-1360629698000560698,0.0,6.825616884380612,209.0,1.0,58,15,0.0,32995,13411935336452,33,40.03403854370117,-106.25667638272023,0.15,16,-14834.543780256696,340282346638528860000000000000000000000,1602000000,,,,0,,3,,36.43404006958008,50.29141902923584,2.0000000474974513,50.29141902923584,2.0000000474974513,C,31668828458000
Raw,1676594611999,131999000000,,,-1360629698000560698,0.0,6.825616884380612,209.0,1.0,58,24,0.0,32995,13411927218989,39,37.7594108581543,701.3417693403485,0.15,16,92466.58494494212,340282346638528860000000000000000000000,1603124990,,,,0,,3,,34.1594123840332,50.29141902923584,2.0000000474974513,50.29141902923584,2.0000000474974513,C,31668828458000
Raw,1676594611999,131999000000,,,-1360629698000560698,0.0,6.825616884380612,209.0,1.0,58,17,0.0,32995,13411935537270,33,41.53813934326172,157.3584631886199,0.15,16,20265.50453496927,340282346638528860000000000000000000000,1604249980,,,,0,,3,,37.938140869140625,50.29141902923584,2.0000000474974513,50.29141902923584,2.0000000474974513,C,31668828458000
Raw,1676594611999,131999000000,,,-1360629698000560698,0.0,6.825616884380612,209.0,1.0,58,2,0.0,85026,434629921574639,21,36.44083023071289,154.01103768000382,0.15,16,20428.302211288392,340282346638528860000000000000000000000,1575420030,,,,0,,6,,32.8408317565918,-5.529727786779403,1.5000000237487257,-5.529727786779403,1.5000000237487257,C,31668828458000
Raw,1676594611999,131999000000,,,-1360629698000560698,0.0,6.825616884380612,209.0,1.0,58,11,0.0,85026,434629908969630,36,30.048938751220703,592.6429997416276,0.7601659905649512,16,77779.68302303381,340282346638528860000000000000000000000,1575420030,,,,0,,6,,26.448938369750977,-5.529727786779403,1.5000000237487257,-5.529727786779403,1.5000000237487257,C,31668828458000
Raw,1676594611999,131999000000,,,-1360629698000560698,0.0,6.825616884380612,209.0,1.0,58,25,0.0,85026,434629911230829,24,34.911808013916016,503.87513948059836,0.5418949161429454,16,66542.55719724612,340282346638528860000000000000000000000,1575420030,,,,0,,6,,31.311809539794922,-5.529727786779403,1.5000000237487257,-5.529727786779403,1.5000000237487257,C,31668828458000
Raw,1676594611999,131999000000,,,-1360629698000560698,0.0,6.825616884380612,209.0,1.0,58,30,0.0,85026,434629915952377,15,40.48115539550781,-302.06906309145097,0.15,16,-39555.862569231045,340282346638528860000000000000000000000,1575420030,,,,0,,6,,36.88115692138672,-5.529727786779403,1.5000000237487257,-5.529727786779403,1.5000000237487257,C,31668828458000
Raw,1676594611999,131999000000,,,-1360629698000560698,0.0,6.825616884380612,209.0,1.0,58,34,0.0,85026,434629919664706,16,39.8029899597168,-245.95649056879597,0.15,16,-33088.997614205895,340282346638528860000000000000000000000,1575420030,,,,0,,6,,36.2029914855957,-5.529727786779403,1.5000000237487257,-5.529727786779403,1.5000000237487257,C,31668828458000
Raw,1676594611999,131999000000,,,-1360629698000560698,0.0,6.825616884380612,209.0,1.0,58,36,0.0,85026,434629920140549,15,40.57984161376953,285.7531435873077,0.15,16,37768.37673784255,340282346638528860000000000000000000000,1575420030,,,,0,,6,,36.97984313964844,-5.529727786779403,1.5000000237487257,-5.529727786779403,1.5000000237487257,C,31668828458000
Raw,1676594611999,131999000000,,,-1360629698000560698,0.0,6.825616884380612,209.0,1.0,58,2,0.0,84003,434629921575198,8,39.12889862060547,153.48955905397656,0.15,16,20332.34152801934,340282346638528860000000000000000000000,1176450050,,,,0,,6,,35.528900146484375,-3.8673868402838703,2.3740112993435734,-3.8673868402838703,1.5000000237487257,Q,31668828458000
Raw,1676594611999,131999000000,,,-1360629698000560698,0.0,6.825616884380612,209.0,1.0,58,11,0.0,84003,434629908970135,47,25.25841522216797,593.6624741811379,0.9763101399682292,16,77185.10768326865,340282346638528860000000000000000000000,1176450050,,,,0,,6,,21.658414840698242,5.55254518985748,2.3740112993435734,5.55254518985748,1.5000000237487257,Q,31668828458000
Raw,1676594611999,131999000000,,,-1360629698000560698,0.0,6.825616884380612,209.0,1.0,58,25,0.0,84003,434629911231357,9,34.066009521484375,503.0746448242471,0.5806492320503498,16,68013.3176410593,340282346638528860000000000000000000000,1176450050,,,,0,,6,,30.46600914001465,-8.300296030938624,2.3740112993435734,-8.300296030938624,1.5000000237487257,Q,31668828458000
Raw,1676594611999,131999000000,,,-1360629698000560698,0.0,6.825616884380612,209.0,1.0,58,30,0.0,84003,434629915952883,8,39.0641975402832,-302.270831234066,0.15,16,-39261.13134501866,340282346638528860000000000000000000000,1176450050,,,,0,,6,,35.46419906616211,-7.930886931717395,2.3740112993435734,-7.930886931717395,1.5000000237487257,Q,31668828458000
Raw,1676594611999,131999000000,,,-1360629698000560698,0.0,6.825616884380612,209.0,1.0,58,34,0.0,84003,434629919665179,12,37.16548538208008,-246.23381951752208,0.15,16,-33119.760064026246,340282346638528860000000000000000000000,1176450050,,,,0,,6,,33.565486907958984,-9.593227878212927,2.3740112993435734,-9.593227878212927,1.5000000237487257,Q,31668828458000
Raw,1676594611999,131999000000,,,-1360629698000560698,0.0,6.825616884380612,209.0,1.0,58,36,0.0,84003,434629920141069,9,39.830810546875,285.44497001542845,0.15,16,38025.47819555367,340282346638528860000000000000000000000,1176450050,,,,0,,6,,36.230812072753906,-10.516750626265999,2.3740112993435734,-10.516750626265999,1.5000000237487257,Q,31668828458000
UncalAccel,1676594612109,31668931982830,2.0398812,1.4608182,8.038688,0.037048545,-0.031444572,0.0098014325
UncalMag,1676594612112,31668934944775,-173.2766,788.16876,387.4842,-174.57417,771.0116,430.86337
OrientationDeg,1676594612109,31668931982830,346.0,-3.0,-9.0
Status,0,31,0,3,15,1602000000,41.28,317.0,77.0,1,1,1,37.67952
Status,0,31,1,1,11,1176450050,42.51,123.0,76.0,1,1,1,38.912907
Status,0,31,2,1,11,1575420030,41.83,123.0,76.0,1,1,1,38.233093
Status,0,31,3,6,2,1176450050,39.82,107.0,76.0,1,1,1,36.21733
Status,0,31,4,6,2,1575420030,40.32,107.0,76.0,1,1,1,36.717285
Status,0,31,5,3,17,1604249980,42.22,320.0,73.0,1,1,1,38.620975
Status,0,31,6,1,12,1575420030,45.24,327.0,65.0,1,1,1,41.64112
Status,0,31,7,6,36,1575420030,42.53,51.0,63.0,1,1,1,38.926964
Status,0,31,8,6,36,1176450050,40.04,51.0,63.0,1,1,1,36.443237
Status,0,31,9,6,34,1575420030,39.80,207.0,59.0,1,1,1,36.20299
Status,0,31,10,6,34,1176450050,37.17,207.0,59.0,1,1,1,33.565487
Status,0,31,11,6,30,1176450050,39.06,315.0,46.0,1,1,1,35.4642
Status,0,31,12,6,30,1575420030,43.64,315.0,46.0,1,1,1,40.037178
Status,0,31,13,3,14,1598062460,42.47,153.0,45.0,1,1,1,38.865776
Status,0,31,14,1,6,1176450050,42.54,48.0,44.0,1,1,1,38.93958
Status,0,31,15,1,6,1575420030,44.59,48.0,44.0,1,1,1,40.986145
Status,0,31,16,1,24,1575420030,40.15,218.0,38.0,1,1,1,36.5495
Status,0,31,17,1,24,1176450050,41.79,218.0,38.0,1,1,1,38.188026
Status,0,31,18,3,18,1600312450,41.97,239.0,36.0,1,1,1,38.36732
Status,0,31,19,1,25,1176450050,42.51,312.0,35.0,1,1,1,38.906822
Status,0,31,20,1,25,1575420030,45.64,312.0,35.0,1,1,1,42.036057
Status,0,31,21,3,24,1603124990,45.13,34.0,30.0,1,1,1,41.53363
Status,0,31,22,1,20,1575420030,41.04,142.0,26.0,1,1,1,37.43991
Status,0,31,23,6,25,1575420030,41.60,126.0,25.0,1,1,1,37.99532
Status,0,31,24,1,19,1575420030,43.71,61.0,25.0,0,1,1,40.10654
Status,0,31,25,6,25,1176450050,34.07,126.0,25.0,1,1,1,30.46601
Status,0,31,26,3,16,1601437440,47.94,328.0,22.0,1,1,1,44.34453
Status,0,31,27,1,29,1575420030,46.63,265.0,15.0,1,1,1,43.02661
Status,0,31,28,6,11,1176450050,28.85,41.0,14.0,1,1,1,25.247505
Status,0,31,29,6,11,1575420030,33.39,41.0,14.0,1,1,1,29.78659
Status,0,31,30,1,2,1575420030,43.96,217.0,11.0,1,1,1,40.355488
UncalGyro,1676594612114,31668936219828,-0.9282097,1.1334605,-0.72692966,-0.00038485642,-0.0017173458,-0.00033888634
Fix,GPS,37.4311408655,-122.1551558820,-16.475416838070476,1.020061,3.097878,27.092783,1676594611999,0.12666644,127.3006,31668828458000,3.0
UncalAccel,1676594612118,31668940460857,1.3908281,0.46061835,7.9633136,0.037048545,-0.031444572,0.0098014325
OrientationDeg,1676594612118,31668940460857,346.0,-2.0,-8.0
UncalGyro,1676594612122,31668944702434,-0.6432411,0.7991645,-0.9579894,-0.00038485642,-0.0017173458,-0.00033888634
Fix,FLP,37.4311485000,-122.1551357000,-15.80000114440918,0.98045146,4.936,357.31442,1676594612097,,,31668919250366,2.06409
UncalMag,1676594612122,31668944943636,-172.5446,788.1078,388.0576,-174.57417,771.0116,430.86337
UncalAccel,1676594612126,31668948942078,1.7623138,-0.40438703,8.127222,0.037048545,-0.031444572,0.0098014325
OrientationDeg,1676594612126,31668948942078,347.0,-2.0,-8.0
UncalGyro,1676594612131,31668953183087,-0.39721513,0.453262,-1.1643091,-0.00038485642,-0.0017173458,-0.00033888634
UncalMag,1676594612132,31668954944409,-173.23999,788.7788,387.3866,-174.57417,771.0116,430.86337
UncalAccel,1676594612136,31668957422547,2.079961,-0.8955139,8.175078,0.037048545,-0.031444572,0.0098014325
OrientationDeg,1676594612135,31668957422547,347.0,-2.0,-8.0
UncalGyro,1676594612139,31668961663545,-0.19410244,0.24572055,-1.4117095,-0.00038485642,-0.0017173458,-0.00033888634
UncalMag,1676594612142,31668964944491,-172.6544,788.0224,388.04538,-174.57417,771.0116,430.86337
UncalAccel,1676594612143,31668965896465,1.4901303,-1.0522437,7.9094753,0.037048545,-0.031444572,0.0098014325
OrientationDeg,1676594612143,31668965896465,348.0,-1.0,-8.0
UncalGyro,1676594612148,31668970135224,-0.016187929,0.16615535,-1.6948457,-0.00038485642,-0.0017173458,-0.00033888634
UncalAccel,1676594612152,31668974382722,0.6975078,-0.9457632,6.9972115,0.037048545,-0.031444572,0.0098014325
OrientationDeg,1676594612152,31668974382722,349.0,-1.0,-8.0
UncalMag,1676594612152,31668974933789,-173.362,788.5226,387.93558,-174.57417,771.0116,430.86337
UncalGyro,1676594612156,31668978625459,0.12736541,0.11881329,-1.9995147,-0.00038485642,-0.0017173458,-0.00033888634
UncalAccel,1676594612160,31668982865673,-0.59700924,-1.0253245,6.8315086,0.037048545,-0.031444572,0.0098014325
OrientationDeg,1676594612160,31668982865673,350.0,-1.0,-8.0
UncalMag,1676594612162,31668984937940,-173.5694,788.49817,387.09378,-174.57417,771.0116,430.86337
UncalGyro,1676594612165,31668987104768,0.302531,0.14508049,-2.2124012,-0.00038485642,-0.0017173458,-0.00033888634
UncalAccel,1676594612169,31668991344444,-1.0456635,-0.92243314,6.6185474,0.037048545,-0.031444572,0.0098014325
OrientationDeg,1676594612169,31668991344444,351.0,-1.0,-8.0
UncalMag,1676594612172,31668994927768,-173.6792,788.4128,387.3134,-174.57417,771.0116,430.86337
UncalGyro,1676594612173,31668995584719,0.42271876,0.21960606,-2.251344,-0.00038485642,-0.0017173458,-0.00033888634
UncalAccel,1676594612177,31668999817863,-1.0073783,-2.6679974,7.839485,0.037048545,-0.031444572,0.0098014325
OrientationDeg,1676594612177,31668999817863,352.0,0.0,-8.0
UncalGyro,1676594612182,31669004062910,0.0571159,0.5502369,-1.5045611,-0.00038485642,-0.0017173458,-0.00033888634
UncalMag,1676594612182,31669004944858,-173.5816,788.1444,386.88638,-174.57417,771.0116,430.86337
UncalAccel,1676594612186,31669008299390,2.0871396,1.2215359,5.128417,0.037048545,-0.031444572,0.0098014325
OrientationDeg,1676594612186,31669008299390,353.0,0.0,-8.0
UncalGyro,1676594612190,31669012537845,0.14278975,0.4616614,-0.94974273,-0.00038485642,-0.0017173458,-0.00033888634
UncalMag,1676594612192,31669014944411,-174.4478,787.7052,387.533,-174.57417,771.0116,430.86337
UncalAccel,1676594612194,31669016786023,4.799404,3.4139597,10.527822,0.037048545,-0.031444572,0.0098014325
OrientationDeg,1676594612194,31669016786023,353.0,0.0,-8.0
UncalGyro,1676594612199,31669021027407,0.45020768,0.95554596,-0.28160888,-0.00038485642,-0.0017173458,-0.00033888634
UncalMag,1676594612202,31669024944451,-173.4596,788.5104,387.3378,-174.57417,771.0116,430.86337
UncalAccel,1676594612203,31669025266361,3.9260237,3.1357942,4.71087,0.037048545,-0.031444572,0.0098014325
OrientationDeg,1676594612203,31669025266361,353.0,0.0,-9.0
UncalGyro,1676594612207,31669029498304,0.79152864,1.0447323,0.21105394,-0.00038485642,-0.0017173458,-0.00033888634
UncalAccel,1676594612211,31669033746728,3.394219,3.3487554,7.23111,0.037048545,-0.031444572,0.0098014325
OrientationDeg,1676594612211,31669033746728,353.0,0.0,-9.0
UncalMag,1676594612212,31669034934279,-173.10579,787.5466,386.9718,-174.57417,771.0116,430.86337
UncalGyro,1676594612215,31669037987715,1.014189,1.2986995,0.1611157,-0.00038485642,-0.0017173458,-0.00033888634
UncalAccel,1676594612220,31669042229384,1.9980069,2.8259234,8.20798,0.037048545,-0.031444572,0.0098014325
OrientationDeg,1676594612220,31669042229384,353.0,1.0,-10.0
UncalMag,1676594612222,31669044944655,-172.691,787.3758,386.801,-174.57417,771.0116,430.86337
UncalGyro,1676594612224,31669046470228,1.0393872,1.5882497,0.0143553335,-0.00038485642,-0.0017173458,-0.00033888634
UncalAccel,1676594612228,31669050714247,1.1276177,3.1549366,8.577671,0.037048545,-0.031444572,0.0098014325
OrientationDeg,1676594612229,31669050714247,353.0,2.0,-10.0
UncalGyro,1676594612232,31669054943862,0.8562804,1.7664696,-0.13332134,-0.00038485642,-0.0017173458,-0.00033888634
UncalMag,1676594612232,31669054953892,-171.7882,786.80237,387.6062,-174.57417,771.0116,430.86337
UncalAccel,1676594612237,31669059181858,0.7692925,3.6227336,8.2678,0.037048545,-0.031444572,0.0098014325
OrientationDeg,1676594612237,31669059181858,353.0,3.0,-11.0
UncalGyro,1676594612241,31669063427688,0.49938235,1.6982054,-0.33200526,-0.00038485642,-0.0017173458,-0.00033888634
UncalMag,1676594612242,31669064944493,-170.9586,786.6072,386.45938,-174.57417,771.0116,430.86337
UncalAccel,1676594612245,31669067666375,0.2321038,3.9834516,8.195417,0.037048545,-0.031444572,0.0098014325
OrientationDeg,1676594612245,31669067666375,353.0,4.0,-11.0
UncalGyro,1676594612249,31669071912611,-0.012370021,1.3680327,-0.6036876,-0.00038485642,-0.0017173458,-0.00033888634
UncalMag,1676594612252,31669074944615,-170.43399,786.6194,386.3252,-174.57417,771.0116,430.86337
UncalAccel,1676594612254,31669076148848,-0.54376894,4.1018963,8.853444,0.037048545,-0.031444572,0.0098014325
OrientationDeg,1676594612254,31669076148848,354.0,4.0,-11.0
UncalGyro,1676594612259,31669080391067,-0.6630942,0.8718574,-0.9083566,-0.00038485642,-0.0017173458,-0.00033888634
UncalAccel,1676594612262,31669084629359,-0.72442704,3.9613178,9.483355,0.037048545,-0.031444572,0.0098014325
OrientationDeg,1676594612262,31669084629359,354.0,4.0,-10.0
UncalMag,1676594612262,31669084946203,-170.11679,786.7292,386.82538,-174.57417,771.0116,430.86337
UncalGyro,1676594612267,31669088870121,-1.3480269,0.4260785,-1.1954633,-0.00038485642,-0.0017173458,-0.00033888634
UncalAccel,1676594612271,31669093106959,-0.1794617,3.5042887,9.823135,0.037048545,-0.031444572,0.0098014325
OrientationDeg,1676594612271,31669093106959,355.0,5.0,-9.0
UncalMag,1676594612272,31669094934525,-170.3608,787.85156,386.61798,-174.57417,771.0116,430.86337
UncalGyro,1676594612275,31669097352279,-1.8576412,0.2041817,-1.397507,-0.00038485642,-0.0017173458,-0.00033888634
UncalAccel,1676594612279,31669101590622,0.6963114,2.8528428,10.18505,0.037048545,-0.031444572,0.0098014325
OrientationDeg,1676594612279,31669101590622,355.0,5.0,-8.0
UncalMag,1676594612282,31669104944535,-170.6536,788.3152,387.7038,-174.57417,771.0116,430.86337
UncalGyro,1676594612283,31669105832585,-2.07572,0.236863,-1.4799738,-0.00038485642,-0.0017173458,-0.00033888634
UncalAccel,1676594612288,31669110070572,1.5266209,1.8705891,10.510473,0.037048545,-0.031444572,0.0098014325
OrientationDeg,1676594612288,31669110070572,356.0,5.0,-7.0
UncalGyro,1676594612292,31669114312129,-2.0468566,0.4277584,-1.4555391,-0.00038485642,-0.0017173458,-0.00033888634
UncalMag,1676594612292,31669114951778,-170.6658,789.8768,387.594,-174.57417,771.0116,430.86337
UncalAccel,1676594612296,31669118551651,2.097309,0.85842514,10.390234,0.037048545,-0.031444572,0.0098014325
OrientationDeg,1676594612296,31669118551651,357.0,5.0,-6.0
UncalGyro,1676594612300,31669122792252,-1.8640553,0.64980793,-1.3625349,-0.00038485642,-0.0017173458,-0.00033888634
UncalMag,1676594612302,31669124944576,-170.59259,791.12115,388.3748,-174.57417,771.0116,430.86337
UncalAccel,1676594612305,31669127029231,2.3144577,0.12801601,9.984651,0.037048545,-0.031444572,0.0098014325
OrientationDeg,1676594612305,31669127029231,357.0,6.0,-5.0
UncalGyro,1676594612309,31669131271622,-1.5978707,0.8434522,-1.2289082,-0.00038485642,-0.0017173458,-0.00033888634
UncalMag,1676594612312,31669134944414,-170.6902,791.109,388.0088,-174.57417,771.0116,430.86337
UncalAccel,1676594612313,31669135502081,2.224727,-0.28414768,9.547362,0.037048545,-0.031444572,0.0098014325
UncalGyro,1676594612317,31669139752885,-1.2933544,1.0074695,-1.0705414,-0.00038485642,-0.0017173458,-0.00033888634
OrientationDeg,1676594612313,31669135502081,358.0,6.0,-4.0
UncalAccel,1676594612321,31669143982164,1.9214365,-0.50129634,9.321838,0.037048545,-0.031444572,0.0098014325
OrientationDeg,1676594612321,31669143982164,358.0,7.0,-4.0
UncalMag,1676594612322,31669144934201,-170.11679,791.9142,388.5456,-174.57417,771.0116,430.86337
UncalGyro,1676594612326,31669148237107,-0.9973902,1.1665999,-0.89751375,-0.00038485642,-0.0017173458,-0.00033888634
UncalAccel,1676594612330,31669152473527,1.4003994,-0.5617151,9.276375,0.037048545,-0.031444572,0.0098014325
OrientationDeg,1676594612330,31669152473527,358.0,7.0,-3.0
UncalMag,1676594612332,31669154944495,-169.58,792.2802,388.74078,-174.57417,771.0116,430.86337
UncalGyro,1676594612335,31669156717453,-0.7644979,1.3063353,-0.72616607,-0.00038485642,-0.0017173458,-0.00033888634
UncalAccel,1676594612338,31669160954128,0.6693921,-0.45583272,9.141779,0.037048545,-0.031444572,0.0098014325
OrientationDeg,1676594612338,31669160954128,359.0,8.0,-3.0
UncalMag,1676594612343,31669164944658,-169.37259,792.30457,389.3508,-174.57417,771.0116,430.86337
UncalGyro,1676594612343,31669165193824,-0.61269784,1.3524556,-0.5858198,-0.00038485642,-0.0017173458,-0.00033888634
UncalAccel,1676594612347,31669169425676,-0.17228323,-0.23569304,8.963513,0.037048545,-0.031444572,0.0098014325
OrientationDeg,1676594612347,31669169425676,359.0,9.0,-3.0
UncalGyro,1676594612351,31669173675869,-0.5511532,1.2753339,-0.49541172,-0.00038485642,-0.0017173458,-0.00033888634
UncalMag,1676594612352,31669174944455,-168.9334,792.4876,389.26538,-174.57417,771.0116,430.86337
UncalAccel,1676594612355,31669177914892,-0.9559326,0.018544376,8.6757765,0.037048545,-0.031444572,0.0098014325
OrientationDeg,1676594612355,31669177914892,359.0,9.0,-2.0
UncalGyro,1676594612360,31669182158525,-0.56153786,1.0844386,-0.45707992,-0.00038485642,-0.0017173458,-0.00033888634
UncalMag,1676594612362,31669184944578,-168.6162,792.6462,388.57,-174.57417,771.0116,430.86337
UncalAccel,1676594612364,31669186395565,-1.5678971,0.32183465,8.407781,0.037048545,-0.031444572,0.0098014325
OrientationDeg,1676594612364,31669186395565,359.0,10.0,-2.0
UncalGyro,1676594612369,31669190635993,-0.6151413,0.81581056,-0.46670106,-0.00038485642,-0.0017173458,-0.00033888634
UncalAccel,1676594612372,31669194875649,-2.0219352,0.5347959,8.279764,0.037048545,-0.031444572,0.0098014325
UncalMag,1676594612372,31669194937335,-168.4698,793.3782,389.7046,-174.57417,771.0116,430.86337
OrientationDeg,1676594612372,31669194875649,359.0,10.0,-2.0
UncalGyro,1676594612377,31669199129219,-0.6782131,0.52122074,-0.514654,-0.00038485642,-0.0017173458,-0.00033888634
UncalAccel,1676594612381,31669203356503,-2.2606192,0.54317075,8.187641,0.037048545,-0.031444572,0.0098014325
OrientationDeg,1676594612381,31669203356503,359.0,10.0,-1.0
UncalMag,1676594612382,31669204932127,-168.1404,793.57336,390.2292,-174.57417,771.0116,430.86337
UncalGyro,1676594612385,31669207598762,-0.70814556,0.23884831,-0.57696223,-0.00038485642,-0.0017173458,-0.00033888634
UncalAccel,1676594612389,31669211830920,-2.3078775,0.39900318,8.226524,0.037048545,-0.031444572,0.0098014325
OrientationDeg,1676594612389,31669211830920,0.0,10.0,-1.0
UncalMag,1676594612392,31669214944578,-168.3356,793.915,389.94858,-174.57417,771.0116,430.86337
UncalGyro,1676594612394,31669216078152,-0.6927212,-0.0062613687,-0.62964934,-0.00038485642,-0.0017173458,-0.00033888634
UncalAccel,1676594612398,31669220317095,-2.2462623,0.212363,8.375478,0.037048545,-0.031444572,0.0098014325
OrientationDeg,1676594612398,31669220317095,0.0,10.0,-1.0
UncalGyro,1676594612402,31669224559436,-0.6436992,-0.2180789,-0.66920286,-0.00038485642,-0.0017173458,-0.00033888634
UncalMag,1676594612402,31669224927326,-167.994,794.281,390.27798,-174.57417,771.0116,430.86337
UncalAccel,1676594612406,31669228798389,-2.1798615,0.0059820567,8.592028,0.037048545,-0.031444572,0.0098014325
OrientationDeg,1676594612406,31669228798389,0.0,10.0,0.0
UncalGyro,1676594612411,31669233040281,-0.5636759,-0.39278635,-0.6954701,-0.00038485642,-0.0017173458,-0.00033888634
UncalMag,1676594612412,31669234944416,-168.116,794.11017,390.3512,-174.57417,771.0116,430.86337
UncalAccel,1676594612415,31669237278470,-2.1475582,-0.19501504,8.913264,0.037048545,-0.031444572,0.0098014325
OrientationDeg,1676594612415,31669237278470,1.0,10.0,0.0
UncalGyro,1676594612419,31669241519682,-0.46792278,-0.5120578,-0.69898254,-0.00038485642,-0.0017173458,-0.00033888634
UncalMag,1676594612423,31669244944376,-168.3112,794.1834,390.1316,-174.57417,771.0116,430.86337
UncalAccel,1676594612423,31669245758767,-2.033301,-0.3481557,9.129216,0.037048545,-0.031444572,0.0098014325
OrientationDeg,1676594612423,31669245758767,1.0,10.0,0.0
UncalGyro,1676594612427,31669249996784,-0.36987892,-0.5871942,-0.68294734,-0.00038485642,-0.0017173458,-0.00033888634
UncalAccel,1676594612432,31669254224547,-1.9142581,-0.42891344,9.216555,0.037048545,-0.031444572,0.0098014325
OrientationDeg,1676594612432,31669254224547,1.0,9.0,0.0
UncalMag,1676594612432,31669254935465,-169.1408,794.41516,389.729,-174.57417,771.0116,430.86337
UncalGyro,1676594612436,31669258477293,-0.2848159,-0.65179324,-0.6601926,-0.00038485642,-0.0017173458,-0.00033888634
OrientationDeg,1676594612440,31669262720162,1.0,9.0,0.0
UncalAccel,1676594612440,31669262720162,-1.847259,-0.5485546,9.284152,0.037048545,-0.031444572,0.0098014325
UncalMag,1676594612442,31669264933837,-169.7386,794.7812,390.6806,-174.57417,771.0116,430.86337
UncalGyro,1676594612444,31669266965717,-0.22434026,-0.73456544,-0.6301075,-0.00038485642,-0.0017173458,-0.00033888634
UncalAccel,1676594612449,31669271201659,-1.896312,-0.46241298,9.450453,0.037048545,-0.031444572,0.0098014325
OrientationDeg,1676594612449,31669271201659,2.0,9.0,0.0
UncalMag,1676594612452,31669274944661,-170.27539,794.586,390.4,-174.57417,771.0116,430.86337
UncalGyro,1676594612453,31669275442616,-0.20051652,-0.8355109,-0.6097962,-0.00038485642,-0.0017173458,-0.00033888634
UncalAccel,1676594612457,31669279680571,-1.9710877,-0.3056831,9.687941,0.037048545,-0.031444572,0.0098014325
OrientationDeg,1676594612457,31669279680571,2.0,8.0,0.0
UncalGyro,1676594612461,31669283919372,-0.20005837,-0.9405798,-0.6097962,-0.00038485642,-0.0017173458,-0.00033888634
UncalMag,1676594612462,31669284936849,-170.6292,795.7084,390.3146,-174.57417,771.0116,430.86337
UncalAccel,1676594612466,31669288150461,-1.9770697,-0.22911277,9.849456,0.037048545,-0.031444572,0.0098014325
OrientationDeg,1676594612466,31669288150461,2.0,8.0,0.0
UncalGyro,1676594612470,31669292402760,-0.19746219,-1.0358747,-0.62109727,-0.00038485642,-0.0017173458,-0.00033888634
UncalMag,1676594612472,31669294941732,-170.9708,795.1838,390.32678,-174.57417,771.0116,430.86337
UncalAccel,1676594612474,31669296642292,-1.911267,-0.2865405,10.031311,0.037048545,-0.031444572,0.0098014325
OrientationDeg,1676594612474,31669296642292,3.0,7.0,0.0
UncalGyro,1676594612478,31669300887044,-0.17440203,-1.1012373,-0.63163465,-0.00038485642,-0.0017173458,-0.00033888634
UncalMag,1676594612482,31669304943034,-171.6418,794.5616,390.43658,-174.57417,771.0116,430.86337
UncalAccel,1676594612483,31669305122467,-1.7353946,-0.37686956,10.20479,0.037048545,-0.031444572,0.0098014325
OrientationDeg,1676594612483,31669305122467,3.0,7.0,0.0
UncalGyro,1676594612487,31669309363403,-0.13500121,-1.1230757,-0.63697976,-0.00038485642,-0.0017173458,-0.00033888634
UncalAccel,1676594612491,31669313602448,-1.5403795,-0.44745782,10.430912,0.037048545,-0.031444572,0.0098014325
UncalMag,1676594612492,31669314935100,-172.4348,795.2326,390.2536,-174.57417,771.0116,430.86337
OrientationDeg,1676594612491,31669313602448,3.0,6.0,1.0
UncalGyro,1676594612495,31669317844025,-0.09132435,-1.0995574,-0.63529986,-0.00038485642,-0.0017173458,-0.00033888634
UncalAccel,1676594612500,31669322082510,-1.3686945,-0.6047859,10.557134,0.037048545,-0.031444572,0.0098014325
