# 
# Header Description:
# 
# Version: v3.0.5.6 Platform: 13 Manufacturer: Google Model: Pixel 7
# 
# Raw,utcTimeMillis,TimeNanos,LeapSecond,TimeUncertaintyNanos,FullBiasNanos,BiasNanos,BiasUncertaintyNanos,DriftNanosPerSecond,DriftUncertaintyNanosPerSecond,HardwareClockDiscontinuityCount,Svid,TimeOffsetNanos,State,ReceivedSvTimeNanos,ReceivedSvTimeUncertaintyNanos,Cn0DbHz,PseudorangeRateMetersPerSecond,PseudorangeRateUncertaintyMetersPerSecond,AccumulatedDeltaRangeState,AccumulatedDeltaRangeMeters,AccumulatedDeltaRangeUncertaintyMeters,CarrierFrequencyHz,CarrierCycles,CarrierPhase,CarrierPhaseUncertainty,MultipathIndicator,SnrInDb,ConstellationType,AgcDb,BasebandCn0DbHz,FullInterSignalBiasNanos,FullInterSignalBiasUncertaintyNanos,SatelliteInterSignalBiasNanos,SatelliteInterSignalBiasUncertaintyNanos,CodeType,ChipsetElapsedRealtimeNanos
# 
# UncalAccel,utcTimeMillis,elapsedRealtimeNanos,UncalAccelXMps2,UncalAccelYMps2,UncalAccelZMps2,BiasXMps2,BiasYMps2,BiasZMps2
# 
# Accel,utcTimeMillis,elapsedRealtimeNanos,AccelXMps2,AccelYMps2,AccelZMps2
# 
# UncalGyro,utcTimeMillis,elapsedRealtimeNanos,UncalGyroXRadPerSec,UncalGyroYRadPerSec,UncalGyroZRadPerSec,DriftXRadPerSec,DriftYRadPerSec,DriftZRadPerSec
# 
# Gyro,utcTimeMillis,elapsedRealtimeNanos,GyroXRadPerSec,GyroYRadPerSec,GyroZRadPerSec
# 
# UncalMag,utcTimeMillis,elapsedRealtimeNanos,UncalMagXMicroT,UncalMagYMicroT,UncalMagZMicroT,BiasXMicroT,BiasYMicroT,BiasZMicroT
# 
# Mag,utcTimeMillis,elapsedRealtimeNanos,MagXMicroT,MagYMicroT,MagZMicroT
# 
# OrientationDeg,utcTimeMillis,elapsedRealtimeNanos,yawDeg,rollDeg,pitchDeg
# 
# Fix,Provider,LatitudeDegrees,LongitudeDegrees,AltitudeMeters,SpeedMps,AccuracyMeters,BearingDegrees,UnixTimeMillis,SpeedAccuracyMps,BearingAccuracyDegrees,elapsedRealtimeNanos,VerticalAccuracyMeters
# 
# Nav,Svid,Type,Status,MessageId,Sub-messageId,Data(Bytes)
# 
# Status,UnixTimeMillis,SignalCount,SignalIndex,ConstellationType,Svid,CarrierFrequencyHz,Cn0DbHz,AzimuthDegrees,ElevationDegrees,UsedInFix,HasAlmanacData,HasEphemerisData,BasebandCn0DbHz
# 
UncalAccel,1676594780073,31836895887786,-2.3856442,0.15672988,16.414762,0.037048545,-0.031444572,0.0098014325
UncalGyro,1676594780078,31836900123300,-0.38041633,0.3840815,-0.13622294,-0.00039626006,-0.001722953,-0.00032043146
UncalMag,1676594780079,31836901404499,-156.9774,788.2542,391.4614,-174.57417,771.0116,430.86337
UncalAccel,1676594780082,31836904361714,-2.0512471,0.068793654,15.891932,0.037048545,-0.031444572,0.0098014325
UncalGyro,1676594780086,31836908603829,0.040927973,0.3200934,-0.1656972,-0.00039626006,-0.001722953,-0.00032043146
UncalMag,1676594780089,31836911406656,-156.6236,788.8764,391.4736,-174.57417,771.0116,430.86337
UncalAccel,1676594780090,31836912846140,-1.8065811,-0.048454657,15.221343,0.037048545,-0.031444572,0.0098014325
UncalGyro,1676594780095,31836917083779,0.3594942,0.20647246,-0.2322815,-0.00039626006,-0.001722953,-0.00032043146
OrientationDeg,1676594780082,31836904361714,325.0,8.0,-3.0
OrientationDeg,1676594780090,31836912846140,325.0,8.0,-3.0
UncalAccel,1676594780099,31836921321675,-1.558924,-0.0317049,14.749957,0.037048545,-0.031444572,0.0098014325
UncalMag,1676594780099,31836921402302,-156.7578,788.2542,391.3394,-174.57417,771.0116,430.86337
OrientationDeg,1676594780099,31836921321675,325.0,8.0,-3.0
UncalGyro,1676594780103,31836925562296,0.5545129,0.116980694,-0.32788193,-0.00039626006,-0.001722953,-0.00032043146
UncalAccel,1676594780107,31836929803751,-1.3453646,0.17168503,14.196617,0.037048545,-0.031444572,0.0098014325
OrientationDeg,1676594780107,31836929803751,325.0,8.0,-4.0
UncalMag,1676594780109,31836931404622,-157.4166,787.876,390.7782,-174.57417,771.0116,430.86337
UncalGyro,1676594780112,31836934043721,0.6507242,0.05497787,-0.4454735,-0.00039626006,-0.001722953,-0.00032043146
UncalAccel,1676594780117,31836938285461,-1.2299109,0.26021945,13.395021,0.037048545,-0.031444572,0.0098014325
OrientationDeg,1676594780116,31836938285461,326.0,8.0,-4.0
UncalMag,1676594780119,31836941404907,-157.3922,788.15656,391.32718,-174.57417,771.0116,430.86337
UncalGyro,1676594780120,31836942526519,0.6797403,-0.025350908,-0.55833083,-0.00039626006,-0.001722953,-0.00032043146
UncalAccel,1676594780124,31836946765584,-1.1796615,0.17108682,12.494123,0.037048545,-0.031444572,0.0098014325
OrientationDeg,1676594780124,31836946765584,326.0,8.0,-4.0
UncalGyro,1676594780129,31836951005727,0.6733262,-0.14095716,-0.6556111,-0.00039626006,-0.001722953,-0.00032043146
UncalMag,1676594780129,31836951404460,-156.892,787.8272,391.3516,-174.57417,771.0116,430.86337
UncalAccel,1676594780133,31836955242859,-1.1060823,0.081954174,11.697911,0.037048545,-0.031444572,0.0098014325
OrientationDeg,1676594780133,31836955242859,326.0,8.0,-5.0
UncalGyro,1676594780137,31836959484507,0.6536258,-0.27366763,-0.7466301,-0.00039626006,-0.001722953,-0.00032043146
UncalMag,1676594780139,31836961415040,-157.22139,787.6198,390.58298,-174.57417,771.0116,430.86337
UncalAccel,1676594780141,31836963724457,-0.991825,0.044865426,11.121242,0.037048545,-0.031444572,0.0098014325
OrientationDeg,1676594780141,31836963724457,327.0,8.0,-5.0
UncalGyro,1676594780145,31836967965504,0.63407815,-0.39354995,-0.8402451,-0.00039626006,-0.001722953,-0.00032043146
UncalMag,1676594780149,31836971409140,-157.6362,787.693,390.6196,-174.57417,771.0116,430.86337
UncalAccel,1676594780150,31836972206106,-0.94636136,0.026919255,10.773086,0.037048545,-0.031444572,0.0098014325
OrientationDeg,1676594780150,31836972206106,327.0,8.0,-5.0
Nav,18,769,1,-1,10,85,104,17,14,-28,-128,121,0,25,-75,120
UncalGyro,1676594780154,31836976451234,0.62125,-0.4699081,-0.9390526,-0.00039626006,-0.001722953,-0.00032043146
Nav,16,769,1,-1,10,85,104,17,14,-28,-128,121,0,25,-75,120
Nav,15,769,1,-1,10,85,104,17,14,-28,-128,121,0,25,-75,120
Nav,24,769,1,-1,10,85,104,17,14,-28,-128,121,0,25,-75,120
Nav,17,769,1,-1,10,85,104,17,14,-28,-128,121,0,25,-75,120
UncalAccel,1676594780158,31836980685903,-1.015155,-0.031106694,10.463215,0.037048545,-0.031444572,0.0098014325
UncalMag,1676594780159,31836981404745,-157.96559,787.3514,390.9002,-174.57417,771.0116,430.86337
OrientationDeg,1676594780158,31836980685903,328.0,8.0,-5.0
UncalGyro,1676594780162,31836984928509,0.61850107,-0.5009095,-1.0360274,-0.00039626006,-0.001722953,-0.00032043146
UncalAccel,1676594780167,31836989157461,-1.0899308,-0.05503492,10.185648,0.037048545,-0.031444572,0.0098014325
OrientationDeg,1676594780167,31836989157461,328.0,7.0,-5.0
UncalMag,1676594780169,31836991405763,-158.3682,787.5832,390.2414,-174.57417,771.0116,430.86337
UncalGyro,1676594780171,31836993407370,0.6272059,-0.51007247,-1.1246029,-0.00039626006,-0.001722953,-0.00032043146
UncalAccel,1676594780175,31836997640859,-1.0689936,-0.15014961,10.024133,0.037048545,-0.031444572,0.0098014325
OrientationDeg,1676594780175,31836997640859,329.0,7.0,-6.0
UncalMag,1676594780179,31837001407350,-158.5878,787.4978,390.59518,-174.57417,771.0116,430.86337
UncalGyro,1676594780180,31837001879182,0.63713247,-0.50793445,-1.193478,-0.00039626006,-0.001722953,-0.00032043146
Status,0,33,0,3,15,1602000000,41.15,313.0,78.0,1,1,1,37.55214
Status,0,33,1,1,11,1575420030,40.70,117.0,76.0,1,1,1,37.102844
Status,0,33,2,1,11,1176450050,42.75,117.0,76.0,1,1,1,39.148556
Status,0,33,3,6,2,1575420030,39.52,110.0,75.0,1,1,1,35.924892
Status,0,33,4,6,2,1176450050,39.11,110.0,75.0,1,1,1,35.509525
Status,0,33,5,3,17,1604249980,43.65,325.0,72.0,1,1,1,40.050377
Status,0,33,6,1,12,1575420030,44.00,328.0,66.0,1,1,1,40.40314
Status,0,33,7,6,36,1575420030,41.62,50.0,62.0,1,1,1,38.019005
Status,0,33,8,6,36,1176450050,40.27,50.0,62.0,1,1,1,36.66582
Status,0,33,9,6,34,1575420030,38.19,208.0,60.0,1,1,1,34.585526
Status,0,33,10,6,34,1176450050,38.18,208.0,60.0,1,1,1,34.576828
Status,0,33,11,6,30,1575420030,44.76,316.0,47.0,1,1,1,41.16255
Status,0,33,12,6,30,1176450050,39.30,316.0,47.0,1,1,1,35.698025
Status,0,33,13,3,14,1598062460,39.08,154.0,44.0,1,1,1,35.48149
Status,0,33,14,1,6,1575420030,44.46,47.0,43.0,1,1,1,40.85896
Status,0,33,15,1,6,1176450050,40.42,47.0,43.0,1,1,1,36.818565
Status,0,33,16,1,24,1176450050,41.95,217.0,37.0,1,1,1,38.35446
Status,0,33,17,1,24,1575420030,39.73,217.0,37.0,1,1,1,36.127926
Status,0,33,18,3,18,1600312450,41.67,241.0,37.0,1,1,1,38.074604
Status,0,33,19,1,25,1575420030,44.27,313.0,36.0,1,1,1,40.671757
Status,0,33,20,1,25,1176450050,41.60,313.0,36.0,1,1,1,38.000217
Status,0,33,21,3,24,1603124990,48.10,34.0,29.0,1,1,1,44.50345
Status,0,33,22,1,20,1575420030,39.23,141.0,28.0,1,1,1,35.626213
Status,0,33,23,6,25,1575420030,38.42,127.0,25.0,1,1,1,34.82164
Status,0,33,24,6,25,1176450050,37.12,127.0,25.0,1,1,1,33.519108
Status,0,33,25,1,19,1575420030,47.59,62.0,24.0,1,1,1,43.98584
Status,0,33,26,3,16,1601437440,44.54,328.0,23.0,1,1,1,40.94296
Status,0,33,27,1,29,1575420030,44.90,266.0,16.0,1,1,1,41.29738
Status,0,33,28,1,2,1575420030,44.86,218.0,13.0,1,1,1,41.264095
Status,0,33,29,6,11,1575420030,37.49,41.0,13.0,1,1,1,33.888573
Status,0,33,30,6,11,1176450050,31.35,41.0,13.0,1,1,1,27.750328
Status,0,33,31,6,15,1176450050,41.15,216.0,10.0,1,1,1,37.552074
Status,0,33,32,6,15,1575420030,34.80,216.0,10.0,1,1,1,31.202799
UncalAccel,1676594780184,31837006123588,-1.0390832,-0.24586253,9.920045,0.037048545,-0.031444572,0.0098014325
OrientationDeg,1676594780184,31837006123588,330.0,7.0,-6.0
Fix,GPS,37.4311456325,-122.1551459023,-7.1538746223301874,0.0,3.9114943,5.2394853,1676594779999,0.11467346,180.0,31836830773000,3.0
UncalGyro,1676594780188,31837010366283,0.6391178,-0.5172501,-1.233795,-0.00039626006,-0.001722953,-0.00032043146
UncalMag,1676594780189,31837011404583,-158.5024,787.0708,390.6074,-174.57417,771.0116,430.86337
Raw,1676594779999,17066000000,,,-1360629980933690173,0.0,7.798330308295073,,,60,2,0.0,16431,434797918682011,13,44.7491340637207,-579.3033307533387,0.15,25,-9786.422008865773,0.0008390498114749789,1575420030,,,,0,,1,,41.14913558959961,0.0,1.0,0.0,1.0,C,31836830773000
Raw,1676594779999,17066000000,,,-1360629980933690173,0.0,7.798330308295073,,,60,6,0.0,16431,434797927382850,13,42.51031494140625,534.6357834608696,0.15,25,9003.380512998163,0.0010300298454239964,1575420030,,,,0,,1,,38.910316467285156,0.320142130558394,1.0,0.320142130558394,1.0,C,31836830773000
Raw,1676594779999,17066000000,,,-1360629980933690173,0.0,7.798330308295073,,,60,11,0.0,16431,434797931725341,26,33.89278030395508,19.36625462971061,0.5885280042947381,25,302.83350172980215,0.0026190902572125196,1575420030,,,,1,,1,,30.29277992248535,-0.20372681261465636,1.0,-0.20372681261465636,1.0,C,31836830773000
Raw,1676594779999,17066000000,,,-1360629980933690173,0.0,7.798330308295073,,,60,12,0.0,16431,434797931289544,12,43.539466857910156,-190.10267205606215,0.15,25,-3201.8671673235153,0.0009149393881671131,1575420030,,,,0,,1,,39.93946838378906,-0.6984919076624261,1.0,-0.6984919076624261,1.0,C,31836830773000
Raw,1676594779999,17066000000,,,-1360629980933690173,0.0,7.798330308295073,,,60,19,0.0,16431,434797922967313,22,35.946861267089844,571.5615689190954,0.4945828082689634,16,9628.365545964885,340282346638528860000000000000000000000,1575420030,,,,1,,1,,32.34686279296875,0.0,1.0,0.0,1.0,C,31836830773000
Raw,1676594779999,17066000000,,,-1360629980933690173,0.0,7.798330308295073,,,60,20,0.0,16423,434797923052974,34,30.634117126464844,-468.86045960697606,0.7335064534305364,16,-7872.399871394714,340282346638528860000000000000000000000,1575420030,,,,0,,1,,27.034116744995117,0.0,1.0,0.0,1.0,C,31836830773000
Raw,1676594779999,17066000000,,,-1360629980933690173,0.0,7.798330308295073,,,60,24,0.0,16431,434797924730369,16,39.72792434692383,585.5907941677538,0.15,25,9869.88819537285,0.001418957719579339,1575420030,,,,0,,1,,36.127925872802734,-0.20372681261465636,1.0,-0.20372681261465636,1.0,C,31836830773000
Raw,1676594779999,17066000000,,,-1360629980933690173,0.0,7.798330308295073,,,60,25,0.0,16431,434797926610512,15,40.65650939941406,-461.8806451707567,0.15,25,-7699.023265622531,0.0012750880559906363,1575420030,,,,0,,1,,37.05651092529297,-2.0372682255564105,1.0,-2.0372682255564105,1.0,C,31836830773000
Raw,1676594779999,17066000000,,,-1360629980933690173,0.0,7.798330308295073,,,60,29,0.0,16431,434797918520076,23,35.6683349609375,-430.7736552673007,0.5099054020332867,25,-7211.402384060529,0.002134875860065222,1575420030,,,,0,,1,,32.068336486816406,-0.6984919076624261,1.0,-0.6984919076624261,1.0,C,31836830773000
Raw,1676594779999,17066000000,,,-1360629980933690173,0.0,7.798330308295073,,,60,6,0.0,81921,434797927383372,6,35.6425895690918,534.4440014780157,0.5090599307827082,25,10631.219601026925,0.0030412981286644936,1176450050,,,,0,,1,,32.0425910949707,1.9208527336454408,7.671281903963041,1.9208527336454408,1.0,Q,31836830773000
Raw,1676594779999,17066000000,,,-1360629980933690173,0.0,7.798330308295073,,,60,11,0.0,81921,434797931725831,7,42.28099822998047,19.327464533880587,0.15,25,339.0735363274849,0.0014162457082420588,1176450050,,,,0,,1,,38.680999755859375,0.0,7.671281903963041,0.0,1.0,Q,31836830773000
Raw,1676594779999,17066000000,,,-1360629980933690173,0.0,7.798330308295073,,,60,24,0.0,81921,434797924730870,7,39.17560958862305,585.4860246964026,0.15,25,11653.28623589443,0.0020249206572771072,1176450050,,,,0,,1,,35.57561111450195,3.5215636101095664,7.671281903963041,3.5215636101095664,1.0,Q,31836830773000
Raw,1676594779999,17066000000,,,-1360629980933690173,0.0,7.798330308295073,,,60,25,0.0,81921,434797926611010,7,37.58658218383789,-461.8583893266473,0.15,25,-7703.530720017731,0.0024314168840646744,1176450050,,,,0,,1,,33.9865837097168,1.0186341127782053,7.671281903963041,1.0186341127782053,1.0,Q,31836830773000
Raw,1676594779999,17066000000,,,-1360629980933690173,0.0,7.798330308295073,,,60,14,0.0,32867,13579930795043,43,36.602203369140625,650.2053377173934,0.15,17,11497.61550082773,0.09580346758284661,1598062460,,,,0,,3,,33.00220489501953,52.1540641784668,2.0000000474974513,52.1540641784668,2.0000000474974513,C,31836830773000
Raw,1676594779999,17066000000,,,-1360629980933690173,0.0,7.798330308295073,,,60,18,0.0,32867,13579929288078,33,41.54993438720703,-416.54201430935336,0.15,17,-6680.697978624024,0.09479940691851564,1600312450,,,,0,,3,,37.94993591308594,52.1540641784668,2.0000000474974513,52.1540641784668,2.0000000474974513,C,31836830773000
Raw,1676594779999,17066000000,,,-1360629980933690173,0.0,7.798330308295073,,,60,16,0.0,32867,13579925132474,33,43.916709899902344,-667.7828875146415,0.15,17,-10837.01871387305,0.0945094864911528,1601437440,,,,0,,3,,40.31671142578125,52.1540641784668,2.0000000474974513,52.1540641784668,2.0000000474974513,C,31836830773000
Raw,1676594779999,17066000000,,,-1360629980933690173,0.0,7.798330308295073,,,60,15,0.0,32867,13579935554377,40,37.545867919921875,-82.37890781170341,0.15,17,-1404.113105493848,0.09536211518247067,1602000000,,,,0,,3,,33.94586944580078,52.1540641784668,2.0000000474974513,52.1540641784668,2.0000000474974513,C,31836830773000
Raw,1676594779999,17066000000,,,-1360629980933690173,0.0,7.798330308295073,,,60,24,0.0,32867,13579926990359,38,38.120460510253906,703.9247423903862,0.15,17,12273.495330401964,0.09518044228832215,1603124990,,,,0,,3,,34.52046203613281,52.1540641784668,2.0000000474974513,52.1540641784668,2.0000000474974513,C,31836830773000
Raw,1676594779999,17066000000,,,-1360629980933690173,0.0,7.798330308295073,,,60,17,0.0,32867,13579935609385,33,42.3167724609375,174.62736225959748,0.15,17,2900.529540119247,0.09447126259144323,1604249980,,,,0,,3,,38.716773986816406,52.1540641784668,2.0000000474974513,52.1540641784668,2.0000000474974513,C,31836830773000
Raw,1676594779999,17066000000,,,-1360629980933690173,0.0,7.798330308295073,,,60,2,0.0,85026,434797921650127,28,33.0189094543457,163.48947108636696,0.6260127154130188,25,2863.4068607837535,0.0028963028453290462,1575420030,,,,0,,6,,29.418909072875977,-5.878973752260207,1.5000000237487257,-5.878973752260207,1.5000000237487257,C,31836830773000
Raw,1676594779999,17066000000,,,-1360629980933690173,0.0,7.798330308295073,,,60,11,0.0,85026,434797908800936,20,37.207122802734375,595.0366788281376,0.15,25,8472.473507332821,0.0018967471551150084,1575420030,,,,0,,6,,33.60712432861328,-5.878973752260207,1.5000000237487257,-5.878973752260207,1.5000000237487257,C,31836830773000
Raw,1676594779999,17066000000,,,-1360629980933690173,0.0,7.798330308295073,,,60,15,0.0,85026,434797906929553,39,29.181947708129883,-496.196089366357,0.7987866726218291,16,-8262.437064804662,340282346638528860000000000000000000000,1575420030,,,,0,,6,,25.581947326660156,-5.878973752260207,1.5000000237487257,-5.878973752260207,1.5000000237487257,C,31836830773000
Raw,1676594779999,17066000000,,,-1360629980933690173,0.0,7.798330308295073,,,60,25,0.0,85026,434797911111596,24,34.929203033447266,508.8822613332775,0.5410912158717966,25,7865.979820271,0.00232449802570045,1575420030,,,,0,,6,,31.329204559326172,-5.878973752260207,1.5000000237487257,-5.878973752260207,1.5000000237487257,C,31836830773000
Raw,1676594779999,17066000000,,,-1360629980933690173,0.0,7.798330308295073,,,60,30,0.0,85026,434797916284779,11,44.762550354003906,-297.4639778959149,0.15,25,-4973.102336898237,0.0007947637932375073,1575420030,,,,0,,6,,41.16255187988281,-5.878973752260207,1.5000000237487257,-5.878973752260207,1.5000000237487257,C,31836830773000
Raw,1676594779999,17066000000,,,-1360629980933690173,0.0,7.798330308295073,,,60,34,0.0,85026,434797919963850,27,33.76370620727539,-234.8969549631114,0.5929360907614187,25,-4208.867330601979,0.002658300334587693,1575420030,,,,1,,6,,30.163707733154297,-5.878973752260207,1.5000000237487257,-5.878973752260207,1.5000000237487257,C,31836830773000
Raw,1676594779999,17066000000,,,-1360629980933690173,0.0,7.798330308295073,,,60,36,0.0,85026,434797920141855,16,39.9581298828125,296.35234449396694,0.15,25,5141.010070001008,0.0013818442821502686,1575420030,,,,0,,6,,36.358131408691406,-5.878973752260207,1.5000000237487257,-5.878973752260207,1.5000000237487257,C,31836830773000
Raw,1676594779999,17066000000,,,-1360629980933690173,0.0,7.798330308295073,,,60,2,0.0,84003,434797921650645,6,38.88581848144531,163.57450681539137,0.15,25,2915.9579298301437,0.0020936185028403997,1176450050,,,,0,,6,,35.28582000732422,-4.216632805764675,8.171281927711767,-4.216632805764675,1.5000000237487257,Q,31836830773000
Raw,1676594779999,17066000000,,,-1360629980933690173,0.0,7.798330308295073,,,60,11,0.0,84003,434797908801457,49,25.474075317382812,595.1916858404034,0.9665817287844995,16,9045.814386240341,340282346638528860000000000000000000000,1176450050,,,,0,,6,,21.874074935913086,5.203299224376676,8.171281927711767,5.203299224376676,1.5000000237487257,Q,31836830773000
Raw,1676594779999,17066000000,,,-1360629980933690173,0.0,7.798330308295073,,,60,15,0.0,84003,434797906930083,6,39.92055130004883,-496.1896477820742,0.15,25,-7781.683215058248,0.0018584930803626776,1176450050,,,,0,,6,,36.320552825927734,-11.050701141357418,8.171281927711767,-11.050701141357418,1.5000000237487257,Q,31836830773000
Raw,1676594779999,17066000000,,,-1360629980933690173,0.0,7.798330308295073,,,60,25,0.0,84003,434797911112113,7,37.11067199707031,508.9983461801942,0.15,25,8358.22764818201,0.002568354131653905,1176450050,,,,0,,6,,33.51067352294922,-8.649541996419428,8.171281927711767,-8.649541996419428,1.5000000237487257,Q,31836830773000
Raw,1676594779999,17066000000,,,-1360629980933690173,0.0,7.798330308295073,,,60,30,0.0,84003,434797916285283,7,38.81850051879883,-297.50630830691625,0.15,25,-5966.991361762073,0.0021099080331623554,1176450050,,,,0,,6,,35.218502044677734,-8.2801328971982,8.171281927711767,-8.2801328971982,1.5000000237487257,Q,31836830773000
Raw,1676594779999,17066000000,,,-1360629980933690173,0.0,7.798330308295073,,,60,34,0.0,84003,434797919964344,7,34.55564880371094,-234.78196075480344,0.560201422319111,25,-4489.53226290793,0.003249598667025566,1176450050,,,,0,,6,,30.955650329589844,-9.942473843693731,8.171281927711767,-9.942473843693731,1.5000000237487257,Q,31836830773000
Raw,1676594779999,17066000000,,,-1360629980933690173,0.0,7.798330308295073,,,60,36,0.0,84003,434797920142352,8,39.69313430786133,296.37255539068497,0.15,25,5584.872115380929,0.0019077955512329936,1176450050,,,,0,,6,,36.093135833740234,-10.865996591746804,8.171281927711767,-10.865996591746804,1.5000000237487257,Q,31836830773000
UncalAccel,1676594780192,31837014610811,-0.94695956,-0.34097722,9.863813,0.037048545,-0.031444572,0.0098014325
UncalGyro,1676594780197,31837018849835,0.6238461,-0.5271767,-1.244638,-0.00039626006,-0.001722953,-0.00032043146
UncalMag,1676594780199,31837021404950,-159.2466,786.9854,391.0954,-174.57417,771.0116,430.86337
UncalAccel,1676594780201,31837023086733,-0.9092726,-0.44147578,10.036097,0.037048545,-0.031444572,0.0098014325
OrientationDeg,1676594780192,31837014610811,330.0,7.0,-6.0
OrientationDeg,1676594780201,31837023086733,331.0,7.0,-6.0
Fix,FLP,37.4311458000,-122.1551466000,-16.200000762939453,0.00006654973,5.753,,1676594780008,0.11467346,,31836830773000,2.3672488
UncalGyro,1676594780205,31837027327811,0.5795584,-0.5323691,-1.2403619,-0.00039626006,-0.001722953,-0.00032043146
UncalMag,1676594780209,31837031405805,-159.088,786.0826,389.89978,-174.57417,771.0116,430.86337
UncalAccel,1676594780209,31837031569266,-1.015155,-0.4660022,10.092926,0.037048545,-0.031444572,0.0098014325
OrientationDeg,1676594780209,31837031569266,332.0,6.0,-6.0
UncalGyro,1676594780213,31837035800947,0.5120578,-0.56291234,-1.2421945,-0.00039626006,-0.001722953,-0.00032043146
UncalAccel,1676594780218,31837040046002,-1.0480564,-0.6149554,10.112667,0.037048545,-0.031444572,0.0098014325
OrientationDeg,1676594780218,31837040046002,332.0,6.0,-7.0
UncalMag,1676594780219,31837041406212,-160.0884,786.7414,389.485,-174.57417,771.0116,430.86337
UncalGyro,1676594780222,31837044285942,0.40485093,-0.6107125,-1.2507466,-0.00039626006,-0.001722953,-0.00032043146
UncalAccel,1676594780226,31837048530845,-1.119841,-0.70648086,10.226924,0.037048545,-0.031444572,0.0098014325
OrientationDeg,1676594780226,31837048530845,333.0,6.0,-7.0
UncalMag,1676594780229,31837051404503,-160.2836,787.0952,389.9364,-174.57417,771.0116,430.86337
UncalGyro,1676594780230,31837052768262,0.27351493,-0.66859204,-1.280679,-0.00039626006,-0.001722953,-0.00032043146
UncalAccel,1676594780235,31837057007632,-1.2155539,-0.7118647,10.188639,0.037048545,-0.031444572,0.0098014325
OrientationDeg,1676594780235,31837057007632,334.0,6.0,-7.0
UncalGyro,1676594780239,31837061249626,0.1414153,-0.7489208,-1.3353515,-0.00039626006,-0.001722953,-0.00032043146
UncalMag,1676594780239,31837061404829,-160.7838,787.43677,389.668,-174.57417,771.0116,430.86337
UncalAccel,1676594780243,31837065486839,-1.1766706,-0.8458628,10.194023,0.037048545,-0.031444572,0.0098014325
OrientationDeg,1676594780243,31837065486839,334.0,5.0,-7.0
UncalGyro,1676594780247,31837069730583,0.01786781,-0.8385653,-1.3926201,-0.00039626006,-0.001722953,-0.00032043146
UncalMag,1676594780249,31837071405684,-161.8208,787.388,389.0702,-174.57417,771.0116,430.86337
UncalAccel,1676594780251,31837073968641,-1.1096715,-1.0468599,10.319646,0.037048545,-0.031444572,0.0098014325
OrientationDeg,1676594780251,31837073968641,335.0,5.0,-6.0
UncalGyro,1676594780256,31837078209028,-0.08597928,-0.9219484,-1.4503468,-0.00039626006,-0.001722953,-0.00032043146
UncalMag,1676594780259,31837081407922,-162.62599,788.0834,389.26538,-174.57417,771.0116,430.86337
UncalAccel,1676594780260,31837082450057,-1.1048858,-1.1856437,10.4351,0.037048545,-0.031444572,0.0098014325
OrientationDeg,1676594780260,31837082450057,336.0,5.0,-6.0
UncalGyro,1676594780264,31837086688297,-0.1525636,-1.0056369,-1.5195273,-0.00039626006,-0.001722953,-0.00032043146
UncalAccel,1676594780268,31837090928663,-1.1138589,-1.3393825,10.454841,0.037048545,-0.031444572,0.0098014325
UncalMag,1676594780269,31837091402795,-163.1384,788.2298,388.8262,-174.57417,771.0116,430.86337
OrientationDeg,1676594780268,31837090928663,336.0,4.0,-6.0
UncalGyro,1676594780273,31837095167922,-0.17562376,-1.0917689,-1.600467,-0.00039626006,-0.001722953,-0.00032043146
UncalAccel,1676594780277,31837099405165,-1.0313065,-1.5206388,10.484751,0.037048545,-0.031444572,0.0098014325
OrientationDeg,1676594780277,31837099405165,337.0,4.0,-6.0
UncalMag,1676594780279,31837101404952,-163.5898,787.7174,389.31418,-174.57417,771.0116,430.86337
UncalGyro,1676594780282,31837103653873,-0.16523905,-1.1643091,-1.6826283,-0.00039626006,-0.001722953,-0.00032043146
UncalAccel,1676594780285,31837107888268,-0.8967103,-1.6779668,10.491331,0.037048545,-0.031444572,0.0098014325
OrientationDeg,1676594780285,31837107888268,338.0,3.0,-6.0
UncalMag,1676594780289,31837111406824,-163.785,787.876,388.875,-174.57417,771.0116,430.86337
UncalGyro,1676594780290,31837112131371,-0.13713925,-1.2179126,-1.7600555,-0.00039626006,-0.001722953,-0.00032043146
UncalAccel,1676594780294,31837116368830,-0.7435696,-1.8640088,10.555339,0.037048545,-0.031444572,0.0098014325
OrientationDeg,1676594780294,31837116368830,339.0,3.0,-6.0
UncalGyro,1676594780298,31837120612482,-0.10094548,-1.2515101,-1.8298469,-0.00039626006,-0.001722953,-0.00032043146
UncalMag,1676594780299,31837121404708,-165.0172,788.1932,388.6188,-174.57417,771.0116,430.86337
UncalAccel,1676594780302,31837124849481,-0.60358953,-2.0404794,10.561919,0.037048545,-0.031444572,0.0098014325
OrientationDeg,1676594780302,31837124849481,340.0,2.0,-6.0
UncalGyro,1676594780307,31837129091923,-0.05390886,-1.2812898,-1.90086,-0.00039626006,-0.001722953,-0.00032043146
UncalMag,1676594780309,31837131407068,-166.347,788.6812,388.5334,-174.57417,771.0116,430.86337
UncalAccel,1676594780311,31837133328730,-0.4971089,-2.1882362,10.486546,0.037048545,-0.031444572,0.0098014325
OrientationDeg,1676594780311,31837133328730,341.0,2.0,-5.0
UncalGyro,1676594780315,31837137573755,0.010079277,-1.3130548,-1.9984456,-0.00039626006,-0.001722953,-0.00032043146
UncalMag,1676594780319,31837141405807,-167.0424,789.1936,388.6676,-174.57417,771.0116,430.86337
UncalAccel,1676594780319,31837141814061,-0.46301118,-2.283351,10.454242,0.037048545,-0.031444572,0.0098014325
OrientationDeg,1676594780319,31837141814061,342.0,1.0,-5.0
UncalGyro,1676594780324,31837146050776,0.087201014,-1.3400856,-2.1368067,-0.00039626006,-0.001722953,-0.00032043146
UncalAccel,1676594780328,31837150290908,-0.47198427,-2.3264217,10.406385,0.037048545,-0.031444572,0.0098014325
UncalMag,1676594780329,31837151404790,-167.7988,788.8276,388.7286,-174.57417,771.0116,430.86337
OrientationDeg,1676594780328,31837150290908,343.0,1.0,-5.0
UncalGyro,1676594780332,31837154530614,0.17455475,-1.3675746,-2.3229678,-0.00039626006,-0.001722953,-0.00032043146
UncalAccel,1676594780336,31837158776128,-0.50428736,-2.3455644,10.2682,0.037048545,-0.031444572,0.0098014325
OrientationDeg,1676594780336,31837158776128,344.0,0.0,-5.0
UncalMag,1676594780339,31837161406052,-168.1892,789.3522,388.8628,-174.57417,771.0116,430.86337
UncalGyro,1676594780341,31837163012894,0.26343563,-1.40667,-2.5456283,-0.00039626006,-0.001722953,-0.00032043146
UncalAccel,1676594780345,31837167250493,-0.46061835,-2.3838496,10.225728,0.037048545,-0.031444572,0.0098014325
OrientationDeg,1676594780345,31837167250493,345.0,0.0,-6.0
UncalMag,1676594780349,31837171404506,-169.9094,788.608,388.36258,-174.57417,771.0116,430.86337
UncalGyro,1676594780349,31837171489588,0.34972036,-1.4480561,-2.780506,-0.00039626006,-0.001722953,-0.00032043146
UncalAccel,1676594780353,31837175729051,-0.29132617,-2.2767708,9.911072,0.037048545,-0.031444572,0.0098014325
OrientationDeg,1676594780353,31837175729051,347.0,0.0,-6.0
UncalGyro,1676594780357,31837179971156,0.43478334,-1.5184582,-3.008206,-0.00039626006,-0.001722953,-0.00032043146
UncalMag,1676594780359,31837181404750,-170.6048,789.01056,387.7404,-174.57417,771.0116,430.86337
UncalAccel,1676594780362,31837184211910,-0.36191443,-2.373082,9.806385,0.037048545,-0.031444572,0.0098014325
OrientationDeg,1676594780362,31837184211910,348.0,-1.0,-6.0
UncalGyro,1676594780366,31837188452988,0.5093089,-1.5526668,-3.2107077,-0.00039626006,-0.001722953,-0.00032043146
UncalMag,1676594780369,31837191406704,-171.959,789.279,388.936,-174.57417,771.0116,430.86337
UncalAccel,1676594780371,31837192694647,-0.40438703,-2.5268207,9.830314,0.037048545,-0.031444572,0.0098014325
OrientationDeg,1676594780370,31837192694647,350.0,-1.0,-6.0
UncalGyro,1676594780374,31837196938859,0.5844453,-1.529912,-3.3774738,-0.00039626006,-0.001722953,-0.00032043146
UncalAccel,1676594780379,31837201173478,-0.50129634,-2.5746772,9.429516,0.037048545,-0.031444572,0.0098014325
UncalMag,1676594780379,31837201403652,-173.3376,788.7666,387.3988,-174.57417,771.0116,430.86337
OrientationDeg,1676594780379,31837201173478,352.0,-2.0,-7.0
UncalGyro,1676594780383,31837205421902,0.66706485,-1.5346462,-3.5161405,-0.00039626006,-0.001722953,-0.00032043146
UncalAccel,1676594780387,31837209651190,-0.6789634,-2.565106,8.812167,0.037048545,-0.031444572,0.0098014325
OrientationDeg,1676594780387,31837209651190,353.0,-2.0,-7.0
UncalMag,1676594780389,31837211415249,-175.2652,788.05896,388.2406,-174.57417,771.0116,430.86337
UncalGyro,1676594780391,31837213903296,0.75640386,-1.6052011,-3.6375499,-0.00039626006,-0.001722953,-0.00032043146
UncalAccel,1676594780396,31837218142848,-0.910469,-2.5704896,8.457432,0.037048545,-0.031444572,0.0098014325
OrientationDeg,1676594780396,31837218142848,355.0,-3.0,-7.0
UncalMag,1676594780400,31837221415046,-175.8752,788.303,388.0698,-174.57417,771.0116,430.86337
UncalGyro,1676594780400,31837222385830,0.84207773,-1.694082,-3.738648,-0.00039626006,-0.001722953,-0.00032043146
UncalAccel,1676594780404,31837226622748,-1.1001002,-2.6434708,8.323434,0.037048545,-0.031444572,0.0098014325
OrientationDeg,1676594780404,31837226622748,357.0,-3.0,-8.0
UncalGyro,1676594780408,31837230863126,0.92164296,-1.761888,-3.8150063,-0.00039626006,-0.001722953,-0.00032043146
UncalMag,1676594780409,31837231404508,-177.0586,787.8272,387.5086,-174.57417,771.0116,430.86337
UncalAccel,1676594780413,31837235102618,-1.1790633,-2.7391837,8.032107,0.037048545,-0.031444572,0.0098014325
OrientationDeg,1676594780413,31837235102618,359.0,-4.0,-8.0
UncalGyro,1676594780417,31837239340899,0.9934196,-1.8318322,-3.8614318,-0.00039626006,-0.001722953,-0.00032043146
UncalMag,1676594780419,31837241415087,-179.157,787.7052,387.6428,-174.57417,771.0116,430.86337
UncalAccel,1676594780422,31837243571358,-0.9409775,-2.6889346,7.475178,0.037048545,-0.031444572,0.0098014325
OrientationDeg,1676594780421,31837243571358,1.0,-4.0,-9.0
UncalGyro,1676594780425,31837247824103,1.0589349,-1.9440787,-3.8817432,-0.00039626006,-0.001722953,-0.00032043146
UncalMag,1676594780429,31837251412117,-180.4502,786.9854,387.8746,-174.57417,771.0116,430.86337
UncalAccel,1676594780430,31837252063707,-0.96849495,-2.4681966,7.210771,0.037048545,-0.031444572,0.0098014325
OrientationDeg,1676594780430,31837252063707,3.0,-5.0,-10.0
UncalGyro,1676594780434,31837256305265,1.1032226,-2.0412061,-3.9086213,-0.00039626006,-0.001722953,-0.00032043146
UncalAccel,1676594780438,31837260543668,-0.8219346,-2.2229323,7.2825556,0.037048545,-0.031444572,0.0098014325
UncalMag,1676594780439,31837261401375,-182.3656,786.4974,387.20358,-174.57417,771.0116,430.86337
OrientationDeg,1676594780438,31837260543668,4.0,-6.0,-10.0
UncalGyro,1676594780443,31837264784056,1.1174252,-2.0606012,-3.943746,-0.00039626006,-0.001722953,-0.00032043146
UncalAccel,1676594780447,31837269024249,-0.6269195,-2.044667,7.2873416,0.037048545,-0.031444572,0.0098014325
OrientationDeg,1676594780447,31837269024249,6.0,-6.0,-11.0
UncalMag,1676594780449,31837271415251,-183.549,785.8752,387.67938,-174.57417,771.0116,430.86337
UncalGyro,1676594780451,31837273262002,1.0841331,-2.0152445,-3.9683332,-0.00039626006,-0.001722953,-0.00032043146
UncalAccel,1676594780455,31837277493599,-0.52283174,-1.9531415,7.4069824,0.037048545,-0.031444572,0.0098014325
OrientationDeg,1676594780455,31837277493599,8.0,-7.0,-12.0
UncalMag,1676594780459,31837281415332,-184.1346,784.8382,388.1796,-174.57417,771.0116,430.86337
UncalGyro,1676594780459,31837281742745,0.96837413,-1.9168952,-3.972915,-0.00039626006,-0.001722953,-0.00032043146
UncalAccel,1676594780463,31837285974710,-0.38823548,-1.986641,7.947162,0.037048545,-0.031444572,0.0098014325
OrientationDeg,1676594780463,31837285974710,10.0,-7.0,-12.0
UncalGyro,1676594780468,31837290227791,0.7476991,-1.7599027,-3.9301543,-0.00039626006,-0.001722953,-0.00032043146
UncalMag,1676594780469,31837291413095,-184.1346,784.8382,388.1796,-174.57417,771.0116,430.86337
UncalAccel,1676594780472,31837294461383,-0.33738798,-1.8969102,8.715259,0.037048545,-0.031444572,0.0098014325
OrientationDeg,1676594780472,31837294461383,12.0,-8.0,-13.0
UncalGyro,1676594780476,31837298695433,0.43799037,-1.5386169,-3.8208094,-0.00039626006,-0.001722953,-0.00032043146
UncalMag,1676594780479,31837301415129,-186.8064,783.82556,388.2406,-174.57417,771.0116,430.86337
UncalAccel,1676594780480,31837302945870,-0.55692947,-1.5732809,9.12802,0.037048545,-0.031444572,0.0098014325
OrientationDeg,1676594780480,31837302945870,14.0,-8.0,-13.0
UncalGyro,1676594780485,31837307189411,0.07467828,-1.325883,-3.6551123,-0.00039626006,-0.001722953,-0.00032043146
UncalAccel,1676594780489,31837311423989,-0.90329057,-1.1006985,9.008379,0.037048545,-0.031444572,0.0098014325
UncalMag,1676594780489,31837311424651,-187.9288,782.76416,388.6188,-174.57417,771.0116,430.86337
OrientationDeg,1676594780489,31837311423989,16.0,-8.0,-13.0
UncalGyro,1676594780493,31837315652536,-0.29336804,-1.2253957,-3.4466543,-0.00039626006,-0.001722953,-0.00032043146
UncalAccel,1676594780497,31837319904916,-1.1952149,-0.72382885,8.756535,0.037048545,-0.031444572,0.0098014325
UncalMag,1676594780499,31837321402190,-187.9288,782.76416,388.6188,-174.57417,771.0116,430.86337
UncalGyro,1676594780503,31837324143646,-0.6301075,-1.2276864,-3.2058208,-0.00039626006,-0.001722953,-0.00032043146
OrientationDeg,1676594780497,31837319904916,17.0,-8.0,-13.0
UncalAccel,1676594780506,31837328383799,-1.2867404,-0.42711884,8.635098,0.037048545,-0.031444572,0.0098014325
OrientationDeg,1676594780506,31837328383799,19.0,-8.0,-13.0
UncalMag,1676594780509,31837331415293,-189.5392,781.959,388.9604,-174.57417,771.0116,430.86337
UncalGyro,1676594780510,31837332617238,-0.9072876,-1.2530373,-2.9347494,-0.00039626006,-0.001722953,-0.00032043146
UncalAccel,1676594780514,31837336866596,-1.3046865,-0.101694964,8.905488,0.037048545,-0.031444572,0.0098014325
OrientationDeg,1676594780514,31837336866596,20.0,-9.0,-13.0
UncalGyro,1676594780519,31837341107696,-1.1050552,-1.2075279,-2.6390905,-0.00039626006,-0.001722953,-0.00032043146
UncalMag,1676594780519,31837341400441,-190.3078,781.349,389.5582,-174.57417,771.0116,430.86337
UncalAccel,1676594780523,31837345348429,-1.3244274,0.26141587,9.347562,0.037048545,-0.031444572,0.0098014325
OrientationDeg,1676594780523,31837345348429,22.0,-9.0,-12.0
UncalGyro,1676594780527,31837349587910,-1.2140946,-1.0552697,-2.3189971,-0.00039626006,-0.001722953,-0.00032043146
UncalMag,1676594780529,31837351404633,-191.0886,782.386,389.7046,-174.57417,771.0116,430.86337
UncalAccel,1676594780531,31837353829040,-1.3363914,0.6442675,9.393025,0.037048545,-0.031444572,0.0098014325
OrientationDeg,1676594780531,31837353829040,23.0,-9.0,-12.0
UncalGyro,1676594780536,31837358067840,-1.2279918,-0.86437434,-1.9811887,-0.00039626006,-0.001722953,-0.00032043146
UncalMag,1676594780539,31837361405691,-191.5278,782.01996,389.1434,-174.57417,771.0116,430.86337
UncalAccel,1676594780540,31837362306905,-1.2562319,0.8985049,9.373284,0.037048545,-0.031444572,0.0098014325
OrientationDeg,1676594780540,31837362306905,24.0,-9.0,-12.0
UncalGyro,1676594780544,31837366544281,-1.1705705,-0.66675943,-1.6323847,-0.00039626006,-0.001722953,-0.00032043146
UncalAccel,1676594780548,31837370774709,-0.9942178,1.0534402,9.450453,0.037048545,-0.031444572,0.0098014325
UncalMag,1676594780549,31837371428844,-193.15039,782.8984,390.48538,-174.57417,771.0116,430.86337
OrientationDeg,1676594780548,31837370774709,25.0,-9.0,-11.0
UncalGyro,1676594780553,31837375028036,-1.0760391,-0.46929723,-1.2855659,-0.00039626006,-0.001722953,-0.00032043146
UncalAccel,1676594780557,31837379267273,-0.73340017,1.2323036,9.604192,0.037048545,-0.031444572,0.0098014325
OrientationDeg,1676594780557,31837379267273,25.0,-9.0,-11.0
UncalMag,1676594780559,31837381404755,-193.15039,782.8984,390.48538,-174.57417,771.0116,430.86337
UncalGyro,1676594780561,31837383510926,-0.97112304,-0.25686884,-0.9483683,-0.00039626006,-0.001722953,-0.00032043146
UncalAccel,1676594780566,31837387745443,-0.587438,1.4386846,9.790234,0.037048545,-0.031444572,0.0098014325
OrientationDeg,1676594780565,31837387745443,26.0,-9.0,-10.0
UncalMag,1676594780569,31837391415172,-192.638,782.691,388.9604,-174.57417,771.0116,430.86337
UncalGyro,1676594780569,31837391987021,-0.8729264,-0.018936822,-0.63117653,-0.00039626006,-0.001722953,-0.00032043146
UncalAccel,1676594780574,31837396215140,-0.53599226,1.6163517,9.756136,0.037048545,-0.031444572,0.0098014325
OrientationDeg,1676594780574,31837396215140,26.0,-9.0,-10.0
UncalGyro,1676594780578,31837400460430,-0.798859,0.2171626,-0.33383787,-0.00039626006,-0.001722953,-0.00032043146
UncalMag,1676594780580,31837401404512,-192.9186,783.2644,390.9246,-174.57417,771.0116,430.86337
UncalAccel,1676594780582,31837404708029,-0.5772685,1.7222341,9.464211,0.037048545,-0.031444572,0.0098014325
OrientationDeg,1676594780582,31837404708029,26.0,-9.0,-10.0
UncalGyro,1676594780586,31837408951691,-0.768163,0.42302418,-0.0580322,-0.00039626006,-0.001722953,-0.00032043146
UncalMag,1676594780589,31837411415173,-193.3578,784.643,390.7782,-174.57417,771.0116,430.86337
UncalAccel,1676594780591,31837413190513,-0.6753742,1.7455641,9.19143,0.037048545,-0.031444572,0.0098014325
OrientationDeg,1676594780591,31837413190513,26.0,-9.0,-9.0
UncalGyro,1676594780595,31837417427064,-0.8052731,0.5890268,0.19746219,-0.00039626006,-0.001722953,-0.00032043146
UncalMag,1676594780599,31837421415051,-192.2964,784.7162,389.8022,-174.57417,771.0116,430.86337
UncalAccel,1676594780599,31837421662436,-0.70648086,1.7461623,8.809176,0.037048545,-0.031444572,0.0098014325
OrientationDeg,1676594780599,31837421662436,26.0,-8.0,-9.0
UncalGyro,1676594780603,31837425922822,-0.91904676,0.69134676,0.42287147,-0.00039626006,-0.001722953,-0.00032043146
UncalAccel,1676594780608,31837430149212,-0.7316055,1.8233309,8.283952,0.037048545,-0.031444572,0.0098014325
OrientationDeg,1676594780608,31837430149212,26.0,-8.0,-8.0
UncalMag,1676594780609,31837431404431,-192.6868,785.3262,389.8388,-174.57417,771.0116,430.86337
UncalGyro,1676594780612,31837434392580,-1.0699304,0.6979135,0.6740898,-0.00039626006,-0.001722953,-0.00032043146
UncalAccel,1676594780616,31837438625928,-2.2881367,0.3924229,7.670193,0.037048545,-0.031444572,0.0098014325
OrientationDeg,1676594780616,31837438625928,25.0,-8.0,-8.0
UncalMag,1676594780619,31837441412122,-192.028,785.7898,390.1804,-174.57417,771.0116,430.86337
UncalGyro,1676594780620,31837442869376,-0.999681,0.45142943,1.5034921,-0.00039626006,-0.001722953,-0.00032043146
UncalAccel,1676594780625,31837447106274,-4.715057,-0.8069794,8.119446,0.037048545,-0.031444572,0.0098014325
OrientationDeg,1676594780625,31837447106274,24.0,-8.0,-7.0
UncalGyro,1676594780629,31837451351076,-0.4596761,0.041691553,3.1042645,-0.00039626006,-0.001722953,-0.00032043146
UncalMag,1676594780629,31837451407117,-190.8324,786.57056,389.607,-174.57417,771.0116,430.86337
UncalAccel,1676594780633,31837455591403,-3.799204,0.75912297,17.562122,0.037048545,-0.031444572,0.0098014325
OrientationDeg,1676594780633,31837455591403,22.0,-8.0,-7.0
UncalGyro,1676594780637,31837459832919,0.9126327,1.5734361,3.9918516,-0.00039626006,-0.001722953,-0.00032043146
UncalMag,1676594780639,31837461414971,-189.8808,786.69257,389.85098,-174.57417,771.0116,430.86337
UncalAccel,1676594780642,31837464069938,2.728416,4.040281,19.23351,0.037048545,-0.031444572,0.0098014325
OrientationDeg,1676594780642,31837464069938,20.0,-7.0,-7.0
UncalGyro,1676594780646,31837468311149,1.6106989,2.0253236,3.657861,-0.00039626006,-0.001722953,-0.00032043146
UncalMag,1676594780649,31837471415174,-189.60019,786.05817,388.9726,-174.57417,771.0116,430.86337
UncalAccel,1676594780650,31837472547692,0.6556334,0.9954142,4.435695,0.037048545,-0.031444572,0.0098014325
OrientationDeg,1676594780650,31837472547692,19.0,-6.0,-8.0
UncalGyro,1676594780654,31837476781730,1.2913691,1.5586227,3.4142785,-0.00039626006,-0.001722953,-0.00032043146
UncalAccel,1676594780659,31837481030714,0.14237295,1.3345969,8.816954,0.037048545,-0.031444572,0.0098014325
UncalMag,1676594780659,31837481400811,-188.2338,786.26556,389.3508,-174.57417,771.0116,430.86337
OrientationDeg,1676594780659,31837481030714,17.0,-6.0,-8.0
UncalGyro,1676594780664,31837485272026,0.7333437,1.5230398,3.12595,-0.00039626006,-0.001722953,-0.00032043146
UncalAccel,1676594780667,31837489514336,-0.74416786,0.3487539,7.87119,0.037048545,-0.031444572,0.0098014325
OrientationDeg,1676594780667,31837489514336,16.0,-5.0,-8.0
UncalMag,1676594780669,31837491403700,-187.7824,786.80237,389.21658,-174.57417,771.0116,430.86337
UncalGyro,1676594780671,31837493752892,0.3118467,1.2191343,2.9092457,-0.00039626006,-0.001722953,-0.00032043146
UncalAccel,1676594780675,31837497994734,-1.012164,1.3256238,7.196414,0.037048545,-0.031444572,0.0098014325
OrientationDeg,1676594780675,31837497994734,14.0,-5.0,-8.0
UncalMag,1676594780679,31837501415379,-186.3062,786.9854,388.4968,-174.57417,771.0116,430.86337
UncalGyro,1676594780680,31837502232049,0.023365596,0.5749769,2.705675,-0.00039626006,-0.001722953,-0.00032043146
UncalAccel,1676594780684,31837506471481,-0.85184485,3.245864,8.075178,0.037048545,-0.031444572,0.0098014325
OrientationDeg,1676594780684,31837506471481,13.0,-5.0,-8.0
UncalGyro,1676594780688,31837510711124,-0.21059579,-0.03848451,2.4410176,-0.00039626006,-0.001722953,-0.00032043146
UncalMag,1676594780689,31837511404677,-186.1964,787.0586,388.0332,-174.57417,771.0116,430.86337
UncalAccel,1676594780692,31837514946161,-0.7938189,4.392026,10.327422,0.037048545,-0.031444572,0.0098014325
OrientationDeg,1676594780692,31837514946161,12.0,-5.0,-8.0
UncalGyro,1676594780697,31837519182865,-0.4089743,-0.1881465,2.0832033,-0.00039626006,-0.001722953,-0.00032043146
UncalMag,1676594780699,31837521415013,-185.745,787.5954,388.3992,-174.57417,771.0116,430.86337
UncalAccel,1676594780701,31837523433364,-0.69152576,5.273183,10.738988,0.037048545,-0.031444572,0.0098014325
OrientationDeg,1676594780701,31837523433364,11.0,-5.0,-8.0
UncalGyro,1676594780705,31837527673598,-0.54183745,-0.2012801,1.6264287,-0.00039626006,-0.001722953,-0.00032043146
UncalMag,1676594780709,31837531415379,-185.2204,787.7296,389.37518,-174.57417,771.0116,430.86337
UncalAccel,1676594780709,31837531906936,-0.32123643,5.6650076,10.17129,0.037048545,-0.031444572,0.0098014325
OrientationDeg,1676594780709,31837531906936,10.0,-6.0,-7.0
UncalGyro,1676594780714,31837536143031,-0.59223384,-0.1525636,1.1162035,-0.00039626006,-0.001722953,-0.00032043146
UncalAccel,1676594780718,31837540392521,0.34516466,5.779265,9.907482,0.037048545,-0.031444572,0.0098014325
OrientationDeg,1676594780718,31837540392521,10.0,-6.0,-7.0
UncalMag,1676594780720,31837541404759,-185.196,788.05896,388.8506,-174.57417,771.0116,430.86337
UncalGyro,1676594780722,31837544635248,-0.5390886,-0.00061086525,0.5992588,-0.00039626006,-0.001722953,-0.00032043146
UncalAccel,1676594780726,31837548875493,1.6151553,5.104489,8.778668,0.037048545,-0.031444572,0.0098014325
OrientationDeg,1676594780726,31837548875493,10.0,-6.0,-7.0
UncalMag,1676594780729,31837551415339,-185.5742,788.8398,388.9238,-174.57417,771.0116,430.86337
UncalGyro,1676594780731,31837553114191,-0.3463606,0.16829337,0.23090707,-0.00039626006,-0.001722953,-0.00032043146
UncalAccel,1676594780735,31837557354263,4.1431723,3.8901315,7.946564,0.037048545,-0.031444572,0.0098014325
OrientationDeg,1676594780735,31837557354263,10.0,-6.0,-7.0
UncalMag,1676594780739,31837561415543,-185.18379,788.2298,388.7774,-174.57417,771.0116,430.86337
UncalGyro,1676594780739,31837561591537,-0.12950343,0.30375275,0.10476339,-0.00039626006,-0.001722953,-0.00032043146
UncalAccel,1676594780743,31837565823075,5.6374903,3.851248,8.385647,0.037048545,-0.031444572,0.0098014325
OrientationDeg,1676594780743,31837565823075,10.0,-5.0,-7.0
UncalGyro,1676594780748,31837570073604,-0.028405234,0.36545014,0.1160644,-0.00039626006,-0.001722953,-0.00032043146
UncalMag,1676594780749,31837571409724,-185.379,788.5592,388.2528,-174.57417,771.0116,430.86337
UncalAccel,1676594780752,31837574310075,6.384051,3.9553359,8.900702,0.037048545,-0.031444572,0.0098014325
OrientationDeg,1676594780752,31837574310075,10.0,-5.0,-7.0
UncalGyro,1676594780756,31837578554499,-0.0888809,0.32452217,0.18799378,-0.00039626006,-0.001722953,-0.00032043146
UncalMag,1676594780759,31837581415177,-184.525,788.8642,389.2776,-174.57417,771.0116,430.86337
UncalAccel,1676594780760,31837582793626,6.512067,4.286144,9.405587,0.037048545,-0.031444572,0.0098014325
OrientationDeg,1676594780760,31837582793626,10.0,-5.0,-7.0
UncalGyro,1676594780765,31837587033717,-0.27015516,0.26374108,0.25488353,-0.00039626006,-0.001722953,-0.00032043146
UncalAccel,1676594780769,31837591276200,6.2267227,4.8095737,10.092926,0.037048545,-0.031444572,0.0098014325
UncalMag,1676594780769,31837591410335,-184.22,788.6202,389.5704,-174.57417,771.0116,430.86337
OrientationDeg,1676594780769,31837591276200,9.0,-5.0,-7.0
UncalGyro,1676594780773,31837595516374,-0.5195409,0.26083946,0.25442538,-0.00039626006,-0.001722953,-0.00032043146
UncalAccel,1676594780777,31837599755112,5.8420763,5.2181478,10.709078,0.037048545,-0.031444572,0.0098014325
OrientationDeg,1676594780777,31837599755112,9.0,-5.0,-6.0
UncalMag,1676594780779,31837601404802,-184.9276,789.13257,389.4606,-174.57417,771.0116,430.86337
UncalGyro,1676594780781,31837603995428,-0.7837401,0.34590244,0.14996742,-0.00039626006,-0.001722953,-0.00032043146
UncalAccel,1676594780786,31837608234503,5.651249,5.3790655,11.16491,0.037048545,-0.031444572,0.0098014325
OrientationDeg,1676594780786,31837608234503,9.0,-5.0,-6.0
UncalMag,1676594780789,31837611415219,-184.6958,789.462,388.692,-174.57417,771.0116,430.86337
UncalGyro,1676594780790,31837612476193,-1.0560333,0.49098295,-0.035888333,-0.00039626006,-0.001722953,-0.00032043146
UncalAccel,1676594780794,31837616713486,5.573482,5.109873,11.590833,0.037048545,-0.031444572,0.0098014325
OrientationDeg,1676594780794,31837616713486,9.0,-5.0,-5.0
UncalGyro,1676594780798,31837620950344,-1.3348932,0.6974554,-0.23976462,-0.00039626006,-0.001722953,-0.00032043146
UncalMag,1676594780799,31837621411841,-184.43959,790.2428,388.387,-174.57417,771.0116,430.86337
UncalAccel,1676594780803,31837625196631,5.5304112,4.788636,11.7876425,0.037048545,-0.031444572,0.0098014325
OrientationDeg,1676594780803,31837625196631,10.0,-4.0,-5.0
UncalGyro,1676594780807,31837629436683,-1.5796975,0.9604329,-0.4260785,-0.00039626006,-0.001722953,-0.00032043146
UncalMag,1676594780809,31837631415219,-183.915,790.3526,389.0092,-174.57417,771.0116,430.86337
UncalAccel,1676594780811,31837633677365,5.4550376,4.6007996,11.793026,0.037048545,-0.031444572,0.0098014325
OrientationDeg,1676594780811,31837633677365,10.0,-4.0,-4.0
UncalGyro,1676594780815,31837637916673,-1.7528778,1.263422,-0.5878051,-0.00039626006,-0.001722953,-0.00032043146
UncalMag,1676594780819,31837641411883,-183.4392,791.2798,390.3024,-174.57417,771.0116,430.86337
UncalAccel,1676594780820,31837642154965,5.3772707,4.3519464,11.493325,0.037048545,-0.031444572,0.0098014325
OrientationDeg,1676594780820,31837642154965,10.0,-3.0,-3.0
Fix,FLP,37.4311471000,-122.1551484000,-16.200000762939453,0.00019267556,6.14,,1676594780646,,,31837468311149,2.3672488
UncalGyro,1676594780824,31837646394101,-1.8903224,1.5845845,-0.710589,-0.00039626006,-0.001722953,-0.00032043146
UncalAccel,1676594780828,31837650636695,5.0620165,3.7854455,11.160125,0.037048545,-0.031444572,0.0098014325
UncalMag,1676594780830,31837651414935,-183.0,791.6092,389.6436,-174.57417,771.0116,430.86337
OrientationDeg,1676594780828,31837650636695,11.0,-2.0,-2.0
UncalGyro,1676594780832,31837654878028,-2.0112739,1.8828394,-0.7806858,-0.00039626006,-0.001722953,-0.00032043146
UncalAccel,1676594780837,31837659118873,4.508676,3.231507,10.710274,0.037048545,-0.031444572,0.0098014325
OrientationDeg,1676594780837,31837659118873,11.0,-1.0,-1.0
UncalMag,1676594780839,31837661404518,-182.024,792.2558,390.0218,-174.57417,771.0116,430.86337
UncalGyro,1676594780841,31837663358599,-2.115121,2.1415408,-0.81153446,-0.00039626006,-0.001722953,-0.00032043146
UncalAccel,1676594780845,31837667596809,3.8195431,2.8169506,9.787243,0.037048545,-0.031444572,0.0098014325
OrientationDeg,1676594780845,31837667596809,12.0,0.0,0.0
UncalMag,1676594780849,31837671415179,-181.45059,793.061,390.5586,-174.57417,771.0116,430.86337
UncalGyro,1676594780849,31837671835111,-2.2288945,2.2913556,-0.8407033,-0.00039626006,-0.001722953,-0.00032043146
UncalAccel,1676594780854,31837676067055,2.9706893,2.5698915,8.398808,0.037048545,-0.031444572,0.0098014325
OrientationDeg,1676594780855,31837676067055,12.0,0.0,0.0
UncalGyro,1676594780858,31837680318439,-2.3660338,2.2504275,-0.9127854,-0.00039626006,-0.001722953,-0.00032043146
UncalMag,1676594780859,31837681405007,-181.3774,794.2932,390.85138,-174.57417,771.0116,430.86337
UncalAccel,1676594780862,31837684557616,1.9082761,2.1768703,7.4440713,0.037048545,-0.031444572,0.0098014325
OrientationDeg,1676594780862,31837684557616,13.0,1.0,1.0
UncalGyro,1676594780866,31837688801349,-2.453082,2.092977,-1.0070114,-0.00039626006,-0.001722953,-0.00032043146
UncalMag,1676594780869,31837691415098,-180.1574,795.3546,390.59518,-174.57417,771.0116,430.86337
UncalAccel,1676594780871,31837693038877,0.9553344,1.9328024,6.546763,0.037048545,-0.031444572,0.0098014325
OrientationDeg,1676594780871,31837693038877,13.0,2.0,2.0
UncalGyro,1676594780875,31837697278949,-2.474768,1.8135062,-1.1375839,-0.00039626006,-0.001722953,-0.00032043146
UncalMag,1676594780879,31837701412006,-179.4986,795.90356,391.07098,-174.57417,771.0116,430.86337
UncalAccel,1676594780879,31837701517057,0.029910283,1.7030915,5.6733823,0.037048545,-0.031444572,0.0098014325
OrientationDeg,1676594780879,31837701517057,14.0,3.0,4.0
UncalGyro,1676594780883,31837705754963,-2.4433084,1.4362969,-1.3019066,-0.00039626006,-0.001722953,-0.00032043146
UncalAccel,1676594780887,31837709995604,-0.8213364,1.2963116,5.3312087,0.037048545,-0.031444572,0.0098014325
OrientationDeg,1676594780887,31837709995604,14.0,3.0,5.0
UncalMag,1676594780889,31837711403787,-179.14479,796.64777,392.3276,-174.57417,771.0116,430.86337
UncalGyro,1676594780892,31837714239409,-2.3553436,1.0105238,-1.4842498,-0.00039626006,-0.001722953,-0.00032043146
UncalAccel,1676594780896,31837718479348,-1.4542379,0.76510507,5.3156557,0.037048545,-0.031444572,0.0098014325
OrientationDeg,1676594780896,31837718479348,15.0,3.0,6.0
UncalMag,1676594780899,31837721415099,-179.91339,797.758,391.8884,-174.57417,771.0116,430.86337
UncalGyro,1676594780900,31837722720691,-2.2007947,0.5696318,-1.6639969,-0.00039626006,-0.001722953,-0.00032043146
UncalAccel,1676594780904,31837726958209,-1.7186449,0.27996024,5.2019963,0.037048545,-0.031444572,0.0098014325
OrientationDeg,1676594780904,31837726958209,16.0,4.0,7.0
UncalGyro,1676594780909,31837731193226,-2.0069978,0.0926988,-1.843744,-0.00039626006,-0.001722953,-0.00032043146
UncalMag,1676594780909,31837731404479,-179.5718,798.3192,393.23038,-174.57417,771.0116,430.86337
UncalAccel,1676594780913,31837735439035,-1.7988044,-0.5832505,5.616553,0.037048545,-0.031444572,0.0098014325
OrientationDeg,1676594780913,31837735439035,17.0,3.0,8.0
UncalGyro,1676594780917,31837739680399,-1.7353154,-0.3100141,-1.9682078,-0.00039626006,-0.001722953,-0.00032043146
UncalMag,1676594780919,31837741415100,-179.9622,798.77057,393.8282,-174.57417,771.0116,430.86337
UncalAccel,1676594780921,31837743922007,-1.5361922,-1.372882,6.2141604,0.037048545,-0.031444572,0.0098014325
OrientationDeg,1676594780921,31837743922007,17.0,3.0,9.0
UncalGyro,1676594780926,31837748160532,-1.4010195,-0.6478226,-2.037083,-0.00039626006,-0.001722953,-0.00032043146
UncalMag,1676594780929,31837751415222,-180.4624,799.17316,393.08398,-174.57417,771.0116,430.86337
UncalAccel,1676594780930,31837752399749,-1.1551352,-2.0955145,6.954739,0.037048545,-0.031444572,0.0098014325
OrientationDeg,1676594780930,31837752399749,18.0,2.0,9.0
UncalGyro,1676594780934,31837756640981,-1.0320568,-0.8881981,-2.0415115,-0.00039626006,-0.001722953,-0.00032043146
UncalAccel,1676594780938,31837760876597,-0.7040881,-2.9467611,7.9740815,0.037048545,-0.031444572,0.0098014325
UncalMag,1676594780939,31837761404602,-181.79219,799.6978,394.0966,-174.57417,771.0116,430.86337
OrientationDeg,1676594780938,31837760876597,19.0,2.0,10.0
UncalGyro,1676594780943,31837765104167,-0.63239825,-1.0115929,-1.9889772,-0.00039626006,-0.001722953,-0.00032043146
UncalAccel,1676594780947,31837769360372,-0.2434697,-3.8608193,9.060423,0.037048545,-0.031444572,0.0098014325
OrientationDeg,1676594780947,31837769360372,20.0,1.0,10.0
UncalMag,1676594780949,31837771415060,-182.2802,800.12476,393.9624,-174.57417,771.0116,430.86337
UncalGyro,1676594780951,31837773600240,-0.25427267,-1.0367911,-1.8648189,-0.00039626006,-0.001722953,-0.00032043146
UncalAccel,1676594780955,31837777841461,-0.13040884,-3.918247,9.376275,0.037048545,-0.031444572,0.0098014325
OrientationDeg,1676594780955,31837777841461,21.0,0.0,10.0
UncalMag,1676594780959,31837781415345,-183.5612,799.8442,394.0478,-174.57417,771.0116,430.86337
UncalGyro,1676594780960,31837782081655,0.00290161,-1.0877982,-1.7024814,-0.00039626006,-0.001722953,-0.00032043146
UncalAccel,1676594780965,31837786320771,-0.27218357,-4.226323,10.006784,0.037048545,-0.031444572,0.0098014325
OrientationDeg,1676594780964,31837786320771,22.0,0.0,10.0
UncalGyro,1676594780968,31837790562959,0.20845777,-1.0874928,-1.4964671,-0.00039626006,-0.001722953,-0.00032043146
UncalMag,1676594780969,31837791404644,-184.3908,799.832,394.3162,-174.57417,771.0116,430.86337
UncalAccel,1676594780972,31837794805289,-0.33559337,-4.2364926,10.168898,0.037048545,-0.031444572,0.0098014325
OrientationDeg,1676594780972,31837794805289,23.0,0.0,10.0
UncalGyro,1676594780977,31837799054770,0.3680463,-1.0772609,-1.29198,-0.00039626006,-0.001722953,-0.00032043146
UncalMag,1676594780979,31837801415142,-184.8422,799.38055,394.0966,-174.57417,771.0116,430.86337
UncalAccel,1676594780981,31837803281526,-0.59700924,-4.0091743,10.423734,0.037048545,-0.031444572,0.0098014325
OrientationDeg,1676594780981,31837803281526,23.0,0.0,10.0
UncalGyro,1676594780985,31837807522410,0.48197266,-1.0624474,-1.1009319,-0.00039626006,-0.001722953,-0.00032043146
UncalMag,1676594780989,31837811415142,-185.3546,799.466,394.60898,-174.57417,771.0116,430.86337
UncalAccel,1676594780989,31837811755931,-0.8632108,-3.728616,10.664212,0.037048545,-0.031444572,0.0098014325
OrientationDeg,1676594780989,31837811755931,24.0,-1.0,10.0
UncalGyro,1676594780993,31837815989626,0.54626626,-1.0493138,-0.95203346,-0.00039626006,-0.001722953,-0.00032043146
UncalAccel,1676594780998,31837820231406,-1.1347961,-3.4187453,10.884951,0.037048545,-0.031444572,0.0098014325
UncalMag,1676594780999,31837821404807,-186.66,798.6364,393.8404,-174.57417,771.0116,430.86337
OrientationDeg,1676594780999,31837820231406,24.0,-2.0,9.0
UncalGyro,1676594781002,31837824483492,0.56581396,-1.0424415,-0.8597928,-0.00039626006,-0.001722953,-0.00032043146
UncalAccel,1676594781006,31837828726085,-1.3674982,-3.1525438,11.121242,0.037048545,-0.031444572,0.0098014325
OrientationDeg,1676594781006,31837828726085,25.0,-2.0,9.0
UncalMag,1676594781009,31837831412091,-187.2944,798.4656,394.304,-174.57417,771.0116,430.86337
UncalGyro,1676594781010,31837832965506,0.5673411,-1.0387764,-0.805884,-0.00039626006,-0.001722953,-0.00032043146
UncalAccel,1676594781015,31837837199576,-1.41356,-3.0143583,11.482557,0.037048545,-0.031444572,0.0098014325
OrientationDeg,1676594781015,31837837199576,25.0,-3.0,9.0
UncalMag,1676594781019,31837841415184,-187.69699,798.8072,394.1454,-174.57417,771.0116,430.86337
UncalGyro,1676594781019,31837841443788,0.5664248,-1.0042624,-0.77289724,-0.00039626006,-0.001722953,-0.00032043146
UncalAccel,1676594781023,31837845684949,-1.253839,-2.9425735,11.822338,0.037048545,-0.031444572,0.0098014325
OrientationDeg,1676594781023,31837845684949,25.0,-3.0,8.0
UncalGyro,1676594781027,31837849921104,0.5751296,-0.928057,-0.7452556,-0.00039626006,-0.001722953,-0.00032043146
UncalMag,1676594781029,31837851415184,-187.9288,798.4778,395.1702,-174.57417,771.0116,430.86337
UncalAccel,1676594781032,31837854148694,-0.8787641,-2.940779,12.177672,0.037048545,-0.031444572,0.0098014325
OrientationDeg,1676594781032,31837854148694,26.0,-4.0,8.0
UncalGyro,1676594781036,31837858404116,0.59437186,-0.8081747,-0.7133379,-0.00039626006,-0.001722953,-0.00032043146
UncalMag,1676594781039,31837861415265,-187.87999,797.514,394.8164,-174.57417,771.0116,430.86337
UncalAccel,1676594781040,31837862644544,-0.3930211,-3.0005996,12.500704,0.037048545,-0.031444572,0.0098014325
OrientationDeg,1676594781040,31837862644544,26.0,-4.0,8.0
UncalGyro,1676594781044,31837866889193,0.61117065,-0.6348417,-0.66843927,-0.00039626006,-0.001722953,-0.00032043146
UncalAccel,1676594781049,31837871123659,0.061016977,-3.112464,12.580863,0.037048545,-0.031444572,0.0098014325
OrientationDeg,1676594781049,31837871123659,26.0,-4.0,7.0
UncalMag,1676594781049,31837871399071,-189.771,797.3676,394.3406,-174.57417,771.0116,430.86337
UncalGyro,1676594781053,31837875364423,0.61758476,-0.42852196,-0.6026186,-0.00039626006,-0.001722953,-0.00032043146
UncalAccel,1676594781057,31837879602969,0.3589234,-3.129812,12.406187,0.037048545,-0.031444572,0.0098014325
UncalMag,1676594781059,31837881404524,-189.771,797.3676,394.3406,-174.57417,771.0116,430.86337
OrientationDeg,1676594781057,31837879602969,27.0,-5.0,7.0
UncalGyro,1676594781061,31837883841922,0.6178902,-0.2060143,-0.51083606,-0.00039626006,-0.001722953,-0.00032043146
UncalAccel,1676594781066,31837888084394,0.509073,-2.9892337,12.067603,0.037048545,-0.031444572,0.0098014325
OrientationDeg,1676594781066,31837888084394,27.0,-5.0,7.0
UncalMag,1676594781069,31837891412052,-189.7954,796.9284,394.24298,-174.57417,771.0116,430.86337
UncalGyro,1676594781070,31837892323367,0.6058256,0.007330383,-0.40607268,-0.00039626006,-0.001722953,-0.00032043146
UncalAccel,1676594781074,31837896556248,0.48275197,-2.7397819,11.584252,0.037048545,-0.031444572,0.0098014325
OrientationDeg,1676594781074,31837896556248,27.0,-5.0,7.0
UncalGyro,1676594781078,31837900805779,0.5737552,0.18555032,-0.3098614,-0.00039626006,-0.001722953,-0.00032043146
UncalMag,1676594781079,31837901402124,-190.0638,795.9646,394.0112,-174.57417,771.0116,430.86337
UncalAccel,1676594781083,31837905044814,0.29850462,-2.4861426,11.070992,0.037048545,-0.031444572,0.0098014325
OrientationDeg,1676594781083,31837905044814,27.0,-4.0,6.0
UncalGyro,1676594781087,31837909288048,0.5184719,0.32177326,-0.24098633,-0.00039626006,-0.001722953,-0.00032043146
UncalMag,1676594781089,31837911415145,-189.405,796.4038,393.7428,-174.57417,771.0116,430.86337
UncalAccel,1676594781091,31837913525272,0.02871387,-2.242673,10.547563,0.037048545,-0.031444572,0.0098014325
OrientationDeg,1676594781092,31837913525272,27.0,-4.0,6.0
UncalGyro,1676594781095,31837917766442,0.44333544,0.41416663,-0.20021108,-0.00039626006,-0.001722953,-0.00032043146
UncalMag,1676594781099,31837921415064,-189.73439,796.22076,393.7062,-174.57417,771.0116,430.86337
UncalAccel,1676594781100,31837922005537,-0.26021945,-1.931606,9.952348,0.037048545,-0.031444572,0.0098014325
OrientationDeg,1676594781100,31837922005537,27.0,-4.0,6.0
UncalGyro,1676594781104,31837926246841,0.3651447,0.44791695,-0.19746219,-0.00039626006,-0.001722953,-0.00032043146
UncalAccel,1676594781108,31837930486973,-0.55334026,-1.5780666,9.223135,0.037048545,-0.031444572,0.0098014325
UncalMag,1676594781109,31837931404444,-189.57579,795.4278,393.389,-174.57417,771.0116,430.86337
OrientationDeg,1676594781108,31837930486973,27.0,-4.0,6.0
