# 
# Header Description:
# 
# Version: v3.0.5.6 Platform: 13 Manufacturer: Google Model: Pixel 7
# 
# Raw,utcTimeMillis,TimeNanos,LeapSecond,TimeUncertaintyNanos,FullBiasNanos,BiasNanos,BiasUncertaintyNanos,DriftNanosPerSecond,DriftUncertaintyNanosPerSecond,HardwareClockDiscontinuityCount,Svid,TimeOffsetNanos,State,ReceivedSvTimeNanos,ReceivedSvTimeUncertaintyNanos,Cn0DbHz,PseudorangeRateMetersPerSecond,PseudorangeRateUncertaintyMetersPerSecond,AccumulatedDeltaRangeState,AccumulatedDeltaRangeMeters,AccumulatedDeltaRangeUncertaintyMeters,CarrierFrequencyHz,CarrierCycles,CarrierPhase,CarrierPhaseUncertainty,MultipathIndicator,SnrInDb,ConstellationType,AgcDb,BasebandCn0DbHz,FullInterSignalBiasNanos,FullInterSignalBiasUncertaintyNanos,SatelliteInterSignalBiasNanos,SatelliteInterSignalBiasUncertaintyNanos,CodeType,ChipsetElapsedRealtimeNanos
# 
# UncalAccel,utcTimeMillis,elapsedRealtimeNanos,UncalAccelXMps2,UncalAccelYMps2,UncalAccelZMps2,BiasXMps2,BiasYMps2,BiasZMps2
# 
# Accel,utcTimeMillis,elapsedRealtimeNanos,AccelXMps2,AccelYMps2,AccelZMps2
# 
# UncalGyro,utcTimeMillis,elapsedRealtimeNanos,UncalGyroXRadPerSec,UncalGyroYRadPerSec,UncalGyroZRadPerSec,DriftXRadPerSec,DriftYRadPerSec,DriftZRadPerSec
# 
# Gyro,utcTimeMillis,elapsedRealtimeNanos,GyroXRadPerSec,GyroYRadPerSec,GyroZRadPerSec
# 
# UncalMag,utcTimeMillis,elapsedRealtimeNanos,UncalMagXMicroT,UncalMagYMicroT,UncalMagZMicroT,BiasXMicroT,BiasYMicroT,BiasZMicroT
# 
# Mag,utcTimeMillis,elapsedRealtimeNanos,MagXMicroT,MagYMicroT,MagZMicroT
# 
# OrientationDeg,utcTimeMillis,elapsedRealtimeNanos,yawDeg,rollDeg,pitchDeg
# 
# Fix,Provider,LatitudeDegrees,LongitudeDegrees,AltitudeMeters,SpeedMps,AccuracyMeters,BearingDegrees,UnixTimeMillis,SpeedAccuracyMps,BearingAccuracyDegrees,elapsedRealtimeNanos,VerticalAccuracyMeters
# 
# Nav,Svid,Type,Status,MessageId,Sub-messageId,Data(Bytes)
# 
# Status,UnixTimeMillis,SignalCount,SignalIndex,ConstellationType,Svid,CarrierFrequencyHz,Cn0DbHz,AzimuthDegrees,ElevationDegrees,UsedInFix,HasAlmanacData,HasEphemerisData,BasebandCn0DbHz
# 
UncalGyro,1676595240721,32297543392470,-0.904386,-1.1249083,-0.12843442,-0.00030287402,-0.0017077904,-0.00033423275
UncalAccel,1676595240721,32297543392470,1.939981,0.93679005,12.346965,0.037048545,-0.031444572,0.0098014325
UncalMag,1676595240729,32297551400068,-158.295,759.5232,390.3146,-177.00775,769.7961,430.15182
UncalGyro,1676595240729,32297551864098,-0.4822781,-1.0792462,-0.14737125,-0.00030287402,-0.0017077904,-0.00033423275
UncalGyro,1676595240738,32297560347353,-0.054061573,-0.9978484,-0.13500121,-0.00030287402,-0.0017077904,-0.00033423275
UncalAccel,1676595240729,32297551864098,2.2145574,0.9242278,12.110075,0.037048545,-0.031444572,0.0098014325
UncalAccel,1676595240738,32297560347353,2.5028925,1.0319048,11.863016,0.037048545,-0.031444572,0.0098014325
UncalMag,1676595240739,32297561399864,-159.1246,759.6086,390.8392,-177.00775,769.7961,430.15182
UncalGyro,1676595240746,32297568824841,0.34254268,-0.8556695,-0.13362677,-0.00030287402,-0.0017077904,-0.00033423275
UncalAccel,1676595240746,32297568824841,2.644069,1.1916257,11.400603,0.037048545,-0.031444572,0.0098014325
Fix,FLP,37.4311546000,-122.1551593000,-16.5,0.1922639,3.74,259.61722,1676595239924,,,32296746170870,2.1217086
OrientationDeg,1676595240746,32297568824841,255.0,-10.0,-7.0
OrientationDeg,1676595240755,32297577304963,255.0,-10.0,-8.0
UncalMag,1676595240749,32297571399985,-159.027,759.5964,390.4732,-177.00775,769.7961,430.15182
UncalGyro,1676595240755,32297577304963,0.6414085,-0.6603453,-0.14385876,-0.00030287402,-0.0017077904,-0.00033423275
UncalAccel,1676595240755,32297577304963,2.8241289,1.3519448,10.871191,0.037048545,-0.031444572,0.0098014325
UncalMag,1676595240759,32297581402019,-159.3442,759.4988,390.32678,-177.00775,769.7961,430.15182
UncalGyro,1676595240763,32297585787445,0.8126035,-0.46685377,-0.15485434,-0.00030287402,-0.0017077904,-0.00033423275
UncalAccel,1676595240763,32297585787445,3.0011978,1.4739788,10.174282,0.037048545,-0.031444572,0.0098014325
OrientationDeg,1676595240764,32297585787445,255.0,-10.0,-8.0
UncalMag,1676595240769,32297591400065,-159.6736,759.2182,389.912,-177.00775,769.7961,430.15182
UncalGyro,1676595240772,32297594271606,0.86101454,-0.30115658,-0.16050485,-0.00030287402,-0.0017077904,-0.00033423275
UncalAccel,1676595240772,32297594271606,3.0622149,1.4703895,9.654441,0.037048545,-0.031444572,0.0098014325
OrientationDeg,1676595240772,32297594271606,255.0,-11.0,-8.0
UncalMag,1676595240779,32297601404174,-160.18599,759.3036,390.1804,-177.00775,769.7961,430.15182
UncalGyro,1676595240780,32297602752136,0.81031275,-0.16707164,-0.16997325,-0.00030287402,-0.0017077904,-0.00033423275
UncalAccel,1676595240780,32297602752136,2.9892337,1.4560326,9.172287,0.037048545,-0.031444572,0.0098014325
OrientationDeg,1676595240780,32297602752136,255.0,-11.0,-9.0
UncalGyro,1676595240789,32297611232013,0.6951646,-0.069485925,-0.19349156,-0.00030287402,-0.0017077904,-0.00033423275
UncalAccel,1676595240789,32297611232013,2.8773692,1.5182459,8.765508,0.037048545,-0.031444572,0.0098014325
UncalMag,1676595240789,32297611399697,-160.0518,758.169,389.78998,-177.00775,769.7961,430.15182
OrientationDeg,1676595240789,32297611232013,255.0,-11.0,-9.0
UncalGyro,1676595240797,32297619711728,0.5493206,-0.008093964,-0.21578814,-0.00030287402,-0.0017077904,-0.00033423275
UncalAccel,1676595240797,32297619711728,2.722434,1.599602,8.367701,0.037048545,-0.031444572,0.0098014325
UncalMag,1676595240799,32297621399859,-159.7346,758.2788,390.2902,-177.00775,769.7961,430.15182
OrientationDeg,1676595240797,32297619711728,255.0,-11.0,-9.0
UncalGyro,1676595240806,32297628196724,0.3941608,0.01740966,-0.23151793,-0.00030287402,-0.0017077904,-0.00033423275
UncalAccel,1676595240806,32297628196724,2.5752754,1.608575,8.180463,0.037048545,-0.031444572,0.0098014325
OrientationDeg,1676595240806,32297628196724,255.0,-11.0,-10.0
UncalMag,1676595240809,32297631401323,-159.8322,758.2788,390.2902,-177.00775,769.7961,430.15182
UncalGyro,1676595240814,32297636673895,0.24098633,0.029321533,-0.236863,-0.00030287402,-0.0017077904,-0.00033423275
UncalAccel,1676595240814,32297636673895,2.4933212,1.6127625,8.26122,0.037048545,-0.031444572,0.0098014325
OrientationDeg,1676595240814,32297636673895,255.0,-11.0,-10.0
UncalMag,1676595240819,32297641394731,-160.16159,757.99817,389.9974,-177.00775,769.7961,430.15182
UncalGyro,1676595240823,32297645148810,0.10140363,0.040775254,-0.22999077,-0.00030287402,-0.0017077904,-0.00033423275
UncalAccel,1676595240823,32297645148810,2.4544377,1.5690935,8.37129,0.037048545,-0.031444572,0.0098014325
OrientationDeg,1676595240823,32297645148810,255.0,-11.0,-10.0
UncalMag,1676595240829,32297651402380,-160.369,758.169,390.156,-177.00775,769.7961,430.15182
UncalGyro,1676595240831,32297653636398,-0.016035212,0.058184914,-0.21838433,-0.00030287402,-0.0017077904,-0.00033423275
UncalAccel,1676595240831,32297653636398,2.4729822,1.4877375,8.510074,0.037048545,-0.031444572,0.0098014325
OrientationDeg,1676595240831,32297653636398,256.0,-11.0,-10.0
UncalMag,1676595240839,32297661399775,-159.4296,758.0226,390.339,-177.00775,769.7961,430.15182
UncalGyro,1676595240840,32297662117304,-0.105832405,0.093004234,-0.20234911,-0.00030287402,-0.0017077904,-0.00033423275
UncalAccel,1676595240840,32297662117304,2.5052853,1.4153546,8.720642,0.037048545,-0.031444572,0.0098014325
OrientationDeg,1676595240840,32297662117304,256.0,-11.0,-10.0
UncalGyro,1676595240848,32297670598423,-0.16340645,0.14446963,-0.18188512,-0.00030287402,-0.0017077904,-0.00033423275
UncalAccel,1676595240848,32297670598423,2.5178475,1.3387842,9.012567,0.037048545,-0.031444572,0.0098014325
UncalMag,1676595240849,32297671399774,-159.9298,758.3276,389.4606,-177.00775,769.7961,430.15182
OrientationDeg,1676595240848,32297670598423,256.0,-11.0,-10.0
UncalGyro,1676595240857,32297679080275,-0.1957823,0.20540343,-0.15622878,-0.00030287402,-0.0017077904,-0.00033423275
UncalAccel,1676595240857,32297679080275,2.4394827,1.2897314,9.284152,0.037048545,-0.031444572,0.0098014325
OrientationDeg,1676595240857,32297679080275,256.0,-10.0,-10.0
UncalMag,1676595240859,32297681405022,-159.0148,757.9616,390.80258,-177.00775,769.7961,430.15182
UncalGyro,1676595240865,32297687563113,-0.20204368,0.25671613,-0.13347405,-0.00030287402,-0.0017077904,-0.00033423275
UncalAccel,1676595240865,32297687563113,2.3186452,1.2311072,9.469596,0.037048545,-0.031444572,0.0098014325
OrientationDeg,1676595240865,32297687563113,256.0,-10.0,-10.0
UncalMag,1676595240869,32297691399854,-160.02739,758.6082,390.00958,-177.00775,769.7961,430.15182
UncalGyro,1676595240874,32297696040244,-0.18784106,0.28725937,-0.11927144,-0.00030287402,-0.0017077904,-0.00033423275
UncalAccel,1676595240874,32297696040244,2.1888344,1.1437693,9.607781,0.037048545,-0.031444572,0.0098014325
OrientationDeg,1676595240874,32297696040244,256.0,-10.0,-10.0
UncalMag,1676595240879,32297701399691,-159.52719,758.09576,389.9974,-177.00775,769.7961,430.15182
UncalGyro,1676595240882,32297704528495,-0.1563815,0.2930626,-0.11636983,-0.00030287402,-0.0017077904,-0.00033423275
UncalAccel,1676595240882,32297704528495,2.1020947,1.0713863,9.745967,0.037048545,-0.031444572,0.0098014325
OrientationDeg,1676595240882,32297704528495,256.0,-10.0,-9.0
UncalMag,1676595240889,32297711402497,-159.2222,758.108,390.1194,-177.00775,769.7961,430.15182
UncalGyro,1676595240891,32297713002097,-0.11133019,0.27962357,-0.11835514,-0.00030287402,-0.0017077904,-0.00033423275
UncalAccel,1676595240891,32297713002097,2.0297117,0.99900347,9.875179,0.037048545,-0.031444572,0.0098014325
OrientationDeg,1676595240891,32297713002097,256.0,-10.0,-9.0
UncalMag,1676595240899,32297721400340,-159.1856,758.5472,390.095,-177.00775,769.7961,430.15182
UncalGyro,1676595240899,32297721474681,-0.057726767,0.25503623,-0.12415836,-0.00030287402,-0.0017077904,-0.00033423275
UncalAccel,1676595240899,32297721474681,2.0536401,0.9026923,9.942178,0.037048545,-0.031444572,0.0098014325
OrientationDeg,1676595240899,32297721474681,256.0,-10.0,-9.0
UncalGyro,1676595240907,32297729966938,-0.00015271631,0.23167065,-0.13041973,-0.00030287402,-0.0017077904,-0.00033423275
UncalAccel,1676595240907,32297729966938,2.1302104,0.8171489,10.014561,0.037048545,-0.031444572,0.0098014325
UncalMag,1676595240909,32297731400177,-159.2588,759.0596,390.10718,-177.00775,769.7961,430.15182
OrientationDeg,1676595240907,32297729966938,256.0,-10.0,-9.0
UncalGyro,1676595240916,32297738448710,0.055436023,0.22342396,-0.13912456,-0.00030287402,-0.0017077904,-0.00033423275
UncalAccel,1676595240916,32297738448710,2.187638,0.77407813,10.067801,0.037048545,-0.031444572,0.0098014325
OrientationDeg,1676595240916,32297738448710,256.0,-9.0,-9.0
UncalMag,1676595240919,32297741400176,-158.78299,758.291,390.1438,-177.00775,769.7961,430.15182
UncalGyro,1676595240924,32297746928852,0.10094548,0.22632557,-0.15485434,-0.00030287402,-0.0017077904,-0.00033423275
UncalAccel,1676595240924,32297746928852,2.1924238,0.78364944,10.053444,0.037048545,-0.031444572,0.0098014325
OrientationDeg,1676595240924,32297746928852,256.0,-9.0,-9.0
UncalMag,1676595240930,32297751399687,-158.1608,758.41296,390.888,-177.00775,769.7961,430.15182
UncalGyro,1676595240933,32297755406563,0.13927728,0.20998493,-0.18005253,-0.00030287402,-0.0017077904,-0.00033423275
UncalAccel,1676595240933,32297755406563,2.184647,0.779462,9.853045,0.037048545,-0.031444572,0.0098014325
OrientationDeg,1676595240933,32297755406563,257.0,-9.0,-10.0
UncalMag,1676595240939,32297761400052,-158.1608,758.41296,390.888,-177.00775,769.7961,430.15182
UncalGyro,1676595240941,32297763890785,0.16142114,0.172264,-0.21288654,-0.00030287402,-0.0017077904,-0.00033423275
UncalAccel,1676595240941,32297763890785,2.1176481,0.73579293,9.81476,0.037048545,-0.031444572,0.0098014325
OrientationDeg,1676595240941,32297763890785,257.0,-9.0,-10.0
UncalMag,1676595240949,32297771399889,-158.14859,758.4862,390.42438,-177.00775,769.7961,430.15182
UncalGyro,1676595240950,32297772371222,0.16371189,0.13744467,-0.24327709,-0.00030287402,-0.0017077904,-0.00033423275
UncalAccel,1676595240950,32297772371222,2.1272194,0.70229346,9.900902,0.037048545,-0.031444572,0.0098014325
OrientationDeg,1676595240950,32297772371222,257.0,-9.0,-10.0
UncalGyro,1676595240958,32297780851975,0.15195273,0.114689946,-0.2687807,-0.00030287402,-0.0017077904,-0.00033423275
UncalAccel,1676595240958,32297780851975,2.1176481,0.6448657,9.943973,0.037048545,-0.031444572,0.0098014325
UncalMag,1676595240959,32297781400132,-158.0632,758.1446,390.461,-177.00775,769.7961,430.15182
OrientationDeg,1676595240958,32297780851975,257.0,-9.0,-10.0
UncalGyro,1676595240967,32297789331782,0.1414153,0.09666943,-0.28924468,-0.00030287402,-0.0017077904,-0.00033423275
UncalAccel,1676595240967,32297789331782,2.137389,0.5491528,9.925428,0.037048545,-0.031444572,0.0098014325
OrientationDeg,1676595240967,32297789331782,257.0,-9.0,-10.0
UncalMag,1676595240969,32297791400050,-158.28279,757.9494,390.1804,-177.00775,769.7961,430.15182
UncalGyro,1676595240975,32297797819016,0.13927728,0.09285152,-0.3022256,-0.00030287402,-0.0017077904,-0.00033423275
UncalAccel,1676595240975,32297797819016,2.14696,0.40498522,10.016953,0.037048545,-0.031444572,0.0098014325
UncalMag,1676595240979,32297801401758,-158.1608,758.2178,390.3634,-177.00775,769.7961,430.15182
OrientationDeg,1676595240975,32297797819016,257.0,-9.0,-10.0
UncalGyro,1676595240984,32297806292677,0.14523321,0.11178834,-0.29794952,-0.00030287402,-0.0017077904,-0.00033423275
UncalAccel,1676595240984,32297806292677,2.1511476,0.35234314,10.084551,0.037048545,-0.031444572,0.0098014325
OrientationDeg,1676595240984,32297806292677,257.0,-9.0,-10.0
UncalMag,1676595240989,32297811400089,-158.173,758.1568,391.07098,-177.00775,769.7961,430.15182
UncalGyro,1676595240992,32297814779025,0.16218472,0.14889841,-0.2919936,-0.00030287402,-0.0017077904,-0.00033423275
UncalAccel,1676595240992,32297814779025,2.1182463,0.30927232,10.051051,0.037048545,-0.031444572,0.0098014325
OrientationDeg,1676595240992,32297814779025,257.0,-9.0,-10.0
UncalMag,1676595240999,32297821400333,-158.0876,757.803,390.9856,-177.00775,769.7961,430.15182
UncalGyro,1676595241001,32297823255425,0.19394971,0.18234327,-0.29764408,-0.00030287402,-0.0017077904,-0.00033423275
UncalAccel,1676595241001,32297823255425,2.0386848,0.22731815,9.85484,0.037048545,-0.031444572,0.0098014325
OrientationDeg,1676595241001,32297823255425,257.0,-9.0,-10.0
UncalMag,1676595241009,32297831402244,-157.9534,758.2178,390.10718,-177.00775,769.7961,430.15182
UncalGyro,1676595241009,32297831739493,0.236863,0.20219639,-0.30818152,-0.00030287402,-0.0017077904,-0.00033423275
UncalAccel,1676595241009,32297831739493,1.9106688,0.15493527,9.77827,0.037048545,-0.031444572,0.0098014325
OrientationDeg,1676595241009,32297831739493,258.0,-8.0,-10.0
UncalGyro,1676595241018,32297840220083,0.28344148,0.22999077,-0.32650748,-0.00030287402,-0.0017077904,-0.00033423275
UncalAccel,1676595241018,32297840220083,1.8245273,0.111266255,9.849456,0.037048545,-0.031444572,0.0098014325
OrientationDeg,1676595241018,32297840220083,258.0,-8.0,-10.0
UncalMag,1676595241019,32297841399965,-157.7338,758.4252,390.8758,-177.00775,769.7961,430.15182
UncalGyro,1676595241026,32297848701082,0.34406984,0.24938573,-0.39828414,-0.00030287402,-0.0017077904,-0.00033423275
UncalAccel,1676595241026,32297848701082,1.8442681,0.08733802,9.759128,0.037048545,-0.031444572,0.0098014325
OrientationDeg,1676595241026,32297848701082,258.0,-8.0,-11.0
UncalMag,1676595241029,32297851400208,-158.051,758.3276,390.9856,-177.00775,769.7961,430.15182
UncalGyro,1676595241035,32297857177734,0.4166101,0.29932398,-0.52503866,-0.00030287402,-0.0017077904,-0.00033423275
UncalAccel,1676595241035,32297857177734,1.9698912,0.04546363,9.631111,0.037048545,-0.031444572,0.0098014325
OrientationDeg,1676595241035,32297857177734,258.0,-8.0,-11.0
UncalMag,1676595241039,32297861402893,-157.1604,757.57117,391.2662,-177.00775,769.7961,430.15182
UncalGyro,1676595241043,32297865675811,0.4914411,0.37934732,-0.691194,-0.00030287402,-0.0017077904,-0.00033423275
UncalAccel,1676595241043,32297865675811,2.1104696,0.104087785,9.321838,0.037048545,-0.031444572,0.0098014325
OrientationDeg,1676595241043,32297865675811,258.0,-8.0,-11.0
UncalMag,1676595241049,32297871410298,-157.2702,757.55896,391.0222,-177.00775,769.7961,430.15182
UncalGyro,1676595241052,32297874154876,0.54473907,0.4720461,-0.86070913,-0.00030287402,-0.0017077904,-0.00033423275
UncalAccel,1676595241052,32297874154876,2.2121646,0.148355,9.140582,0.037048545,-0.031444572,0.0098014325
OrientationDeg,1676595241052,32297874154876,259.0,-7.0,-11.0
UncalMag,1676595241059,32297881410338,-156.8676,757.24176,391.54678,-177.00775,769.7961,430.15182
UncalGyro,1676595241060,32297882631977,0.5893322,0.4802928,-1.0476339,-0.00030287402,-0.0017077904,-0.00033423275
UncalAccel,1676595241060,32297882631977,2.5345974,0.3475575,8.702696,0.037048545,-0.031444572,0.0098014325
OrientationDeg,1676595241060,32297882631977,259.0,-7.0,-12.0
UncalGyro,1676595241069,32297891099861,0.6036876,0.39446622,-1.2443326,-0.00030287402,-0.0017077904,-0.00033423275
UncalAccel,1676595241069,32297891099861,2.7655048,0.20518455,8.642876,0.037048545,-0.031444572,0.0098014325
UncalMag,1676595241069,32297891399636,-156.3552,757.0832,392.0958,-177.00775,769.7961,430.15182
OrientationDeg,1676595241069,32297891099861,260.0,-7.0,-12.0
UncalGyro,1676595241078,32297899584642,0.57528234,0.28389964,-1.3831517,-0.00030287402,-0.0017077904,-0.00033423275
UncalAccel,1676595241077,32297899584642,3.050849,-0.008973085,9.01795,0.037048545,-0.031444572,0.0098014325
OrientationDeg,1676595241077,32297899584642,261.0,-7.0,-12.0
UncalMag,1676595241080,32297901410499,-155.7086,757.437,391.559,-177.00775,769.7961,430.15182
UncalGyro,1676595241086,32297908077471,0.527024,0.14996742,-1.43141,-0.00030287402,-0.0017077904,-0.00033423275
UncalAccel,1676595241086,32297908077471,3.4408789,0.25663024,9.138189,0.037048545,-0.031444572,0.0098014325
OrientationDeg,1676595241086,32297908077471,261.0,-6.0,-13.0
UncalMag,1676595241089,32297911410417,-156.221,757.62,392.4618,-177.00775,769.7961,430.15182
UncalGyro,1676595241094,32297916554154,0.45799622,0.0038179078,-1.4558446,-0.00030287402,-0.0017077904,-0.00033423275
UncalAccel,1676595241094,32297916554154,3.583252,0.6879365,9.623933,0.037048545,-0.031444572,0.0098014325
OrientationDeg,1676595241094,32297916554154,262.0,-6.0,-13.0
UncalMag,1676595241099,32297921407161,-155.5866,757.7176,392.108,-177.00775,769.7961,430.15182
UncalGyro,1676595241103,32297925034043,0.34223726,-0.03313944,-1.5013541,-0.00030287402,-0.0017077904,-0.00033423275
UncalAccel,1676595241103,32297925034043,3.4205399,0.91106725,10.094122,0.037048545,-0.031444572,0.0098014325
OrientationDeg,1676595241103,32297925034043,263.0,-6.0,-13.0
UncalMag,1676595241109,32297931399592,-156.0258,757.3272,391.0588,-177.00775,769.7961,430.15182
UncalGyro,1676595241111,32297933521886,0.21930063,-0.064599,-1.5102116,-0.00030287402,-0.0017077904,-0.00033423275
UncalAccel,1676595241111,32297933521886,3.4612179,0.8787641,9.793823,0.037048545,-0.031444572,0.0098014325
OrientationDeg,1676595241111,32297933521886,263.0,-6.0,-13.0
Status,0,34,0,3,15,1602000000,40.27,294.0,81.0,1,1,1,36.67386
Status,0,34,1,1,11,1176450050,39.89,101.0,77.0,1,1,1,36.28701
Status,0,34,2,1,11,1575420030,41.04,101.0,77.0,1,1,1,37.43513
Status,0,34,3,6,2,1575420030,41.45,119.0,73.0,1,1,1,37.84571
Status,0,34,4,6,2,1176450050,36.11,119.0,73.0,1,1,1,32.505806
Status,0,34,5,1,12,1575420030,43.71,330.0,70.0,1,1,1,40.10632
Status,0,34,6,3,17,1604249980,44.01,337.0,70.0,1,1,1,40.40686
Status,0,34,7,6,34,1176450050,36.98,210.0,63.0,1,1,1,33.379936
Status,0,34,8,6,34,1575420030,42.71,210.0,63.0,1,1,1,39.109993
Status,0,34,9,6,36,1575420030,38.22,47.0,59.0,1,1,1,34.619495
Status,0,34,10,6,36,1176450050,34.18,47.0,59.0,1,1,1,30.58292
Status,0,34,11,6,30,1575420030,41.52,316.0,49.0,1,1,1,37.92039
Status,0,34,12,6,30,1176450050,36.80,316.0,49.0,1,1,1,33.204517
Status,0,34,13,1,6,1176450050,36.34,45.0,40.0,1,1,1,32.738697
Status,0,34,14,3,18,1600312450,43.57,245.0,40.0,1,1,1,39.9677
Status,0,34,15,3,14,1598062460,43.79,156.0,40.0,1,1,1,40.191578
Status,0,34,16,1,6,1575420030,37.92,45.0,40.0,1,1,1,34.316757
Status,0,34,17,1,25,1176450050,37.30,313.0,39.0,1,1,1,33.695915
Status,0,34,18,1,25,1575420030,43.34,313.0,39.0,1,1,1,39.739967
Status,0,34,19,1,24,1575420030,40.98,215.0,34.0,1,1,1,37.380672
Status,0,34,20,1,24,1176450050,39.66,215.0,34.0,1,1,1,36.060856
Status,0,34,21,1,20,1575420030,42.94,138.0,30.0,1,1,1,39.336746
Status,0,34,22,3,16,1601437440,43.47,328.0,27.0,1,1,1,39.86956
Status,0,34,23,3,24,1603124990,42.20,36.0,26.0,1,1,1,38.604103
Status,0,34,24,6,25,1575420030,39.86,129.0,22.0,1,1,1,36.2602
Status,0,34,25,6,25,1176450050,40.86,129.0,22.0,1,1,1,37.25657
Status,0,34,26,1,19,1575420030,39.47,64.0,21.0,1,1,1,35.865673
Status,0,34,27,1,29,1575420030,45.97,268.0,18.0,1,1,1,42.36706
Status,0,34,28,1,2,1575420030,43.42,219.0,16.0,1,1,1,39.82427
Status,0,34,29,6,15,1176450050,30.35,218.0,12.0,1,1,1,26.745106
Status,0,34,30,6,15,1575420030,41.24,218.0,12.0,1,1,1,37.64215
Status,0,34,31,6,11,1176450050,32.58,41.0,11.0,1,1,1,28.975204
Status,0,34,32,6,11,1575420030,37.54,41.0,11.0,1,1,1,33.94241
Status,0,34,33,1,5,1575420030,40.40,164.0,10.0,1,1,1,36.796516
UncalMag,1676595241119,32297941410252,-155.1718,757.7176,391.7298,-177.00775,769.7961,430.15182
UncalGyro,1676595241119,32297941999078,0.12507465,-0.123547494,-1.4575244,-0.00030287402,-0.0017077904,-0.00033423275
UncalAccel,1676595241119,32297941999078,3.6783667,0.8757731,9.561121,0.037048545,-0.031444572,0.0098014325
OrientationDeg,1676595241119,32297941999078,264.0,-6.0,-14.0
Fix,GPS,37.4311440683,-122.1551475796,-7.627199331755184,0.07423082,3.117259,108.76505,1676595240999,0.10461992,180.0,32297837062000,3.0
UncalGyro,1676595241128,32297950479566,0.053145275,-0.14721853,-1.3634512,-0.00030287402,-0.0017077904,-0.00033423275
UncalAccel,1676595241128,32297950479566,3.7764723,1.0719845,9.708878,0.037048545,-0.031444572,0.0098014325
UncalMag,1676595241129,32297951399794,-154.8546,757.7176,391.7298,-177.00775,769.7961,430.15182
OrientationDeg,1676595241128,32297950479566,265.0,-6.0,-14.0
Raw,1676595240999,478066000000,,,-1360629980933604664,0.0,7.1767738185535634,170.0,1.0,60,2,0.0,16431,435258919567553,22,35.902244567871094,-570.494890277301,0.4995751891929272,16,-275021.3647863123,340282346638528860000000000000000000000,1575420030,,,,0,,1,,32.30224609375,0.0,1.0,0.0,1.0,C,32297837062000
Raw,1676595240999,478066000000,,,-1360629980933604664,0.0,7.1767738185535634,170.0,1.0,60,5,0.0,16419,435258916967925,22,36.38530349731445,-604.6594514378748,0.15,16,-19351.584202881975,340282346638528860000000000000000000000,1575420030,,,,0,,1,,32.78530502319336,-0.2619344840127561,1.0,-0.2619344840127561,1.0,C,32297837062000
Raw,1676595240999,478066000000,,,-1360629980933604664,0.0,7.1767738185535634,170.0,1.0,60,6,0.0,16431,435258926543668,50,26.14864730834961,557.0906350339014,0.9358408840487762,16,260763.48626377498,340282346638528860000000000000000000000,1575420030,,,,0,,1,,22.548646926879883,0.320142130558394,1.0,0.320142130558394,1.0,C,32297837062000
Raw,1676595240999,478066000000,,,-1360629980933604664,0.0,7.1767738185535634,170.0,1.0,60,11,0.0,16431,435258931662958,21,36.86012268066406,63.231111077536355,0.15,16,19201.325822256695,340282346638528860000000000000000000000,1575420030,,,,0,,1,,33.26012420654297,-0.20372681261465636,1.0,-0.20372681261465636,1.0,C,32297837062000
Raw,1676595240999,478066000000,,,-1360629980933604664,0.0,7.1767738185535634,170.0,1.0,60,12,0.0,16431,435258931562581,12,43.394901275634766,-162.99473014748185,0.15,16,-84856.18690375995,340282346638528860000000000000000000000,1575420030,,,,0,,1,,39.79490280151367,-0.6984919076624261,1.0,-0.6984919076624261,1.0,C,32297837062000
Raw,1676595240999,478066000000,,,-1360629980933604664,0.0,7.1767738185535634,170.0,1.0,60,19,0.0,16431,435258922092947,45,27.372282028198242,567.1699080663052,0.8800147522065833,16,271962.87966153375,340282346638528860000000000000000000000,1575420030,,,,0,,1,,23.772281646728516,0.0,1.0,0.0,1.0,C,32297837062000
Raw,1676595240999,478066000000,,,-1360629980933604664,0.0,7.1767738185535634,170.0,1.0,60,20,0.0,16431,435258923766919,16,39.98546600341797,-457.1900470918049,0.15,16,-221662.63364271112,340282346638528860000000000000000000000,1575420030,,,,0,,1,,36.385467529296875,0.0,1.0,0.0,1.0,C,32297837062000
Raw,1676595240999,478066000000,,,-1360629980933604664,0.0,7.1767738185535634,170.0,1.0,60,24,0.0,16431,435258923818942,18,38.759517669677734,601.0569357834138,0.15,16,283333.0311998571,340282346638528860000000000000000000000,1575420030,,,,0,,1,,35.15951919555664,-0.20372681261465636,1.0,-0.20372681261465636,1.0,C,32297837062000
Raw,1676595240999,478066000000,,,-1360629980933604664,0.0,7.1767738185535634,170.0,1.0,60,25,0.0,16431,435258927313202,16,40.314815521240234,-449.68311338300373,0.15,16,-218147.67463028777,340282346638528860000000000000000000000,1575420030,,,,0,,1,,36.71481704711914,-2.0372682255564105,1.0,-2.0372682255564105,1.0,C,32297837062000
Raw,1676595240999,478066000000,,,-1360629980933604664,0.0,7.1767738185535634,170.0,1.0,60,29,0.0,16431,435258919183963,12,45.96706008911133,-431.24665159892425,0.15,16,-206048.00802804745,340282346638528860000000000000000000000,1575420030,,,,0,,1,,42.367061614990234,-0.6984919076624261,1.0,-0.6984919076624261,1.0,C,32297837062000
Raw,1676595240999,478066000000,,,-1360629980933604664,0.0,7.1767738185535634,170.0,1.0,60,6,0.0,81921,435258926544215,13,34.316627502441406,557.471779145196,0.5685361805540876,16,262418.87345119996,340282346638528860000000000000000000000,1176450050,,,,0,,1,,30.71662712097168,1.9208527336454408,1.45672442593765,1.9208527336454408,1.0,Q,32297837062000
Raw,1676595240999,478066000000,,,-1360629980933604664,0.0,7.1767738185535634,170.0,1.0,60,11,0.0,81921,435258931663472,11,37.0466423034668,63.03473648366605,0.15,16,19228.444244660386,340282346638528860000000000000000000000,1176450050,,,,0,,1,,33.4466438293457,0.0,1.45672442593765,0.0,1.0,Q,32297837062000
Raw,1676595240999,478066000000,,,-1360629980933604664,0.0,7.1767738185535634,170.0,1.0,60,24,0.0,81921,435258923819446,7,38.25414276123047,600.664237719358,0.15,16,285117.8605714255,340282346638528860000000000000000000000,1176450050,,,,0,,1,,34.654144287109375,3.5215636101095664,1.45672442593765,3.5215636101095664,1.0,Q,32297837062000
Raw,1676595240999,478066000000,,,-1360629980933604664,0.0,7.1767738185535634,170.0,1.0,60,25,0.0,81921,435258927313656,13,33.424434661865234,-449.97104197570843,0.6087953500813805,16,-218184.0054896928,340282346638528860000000000000000000000,1176450050,,,,0,,1,,29.82443618774414,1.0186341127782053,1.45672442593765,1.0186341127782053,1.0,Q,32297837062000
Raw,1676595240999,478066000000,,,-1360629980933604664,0.0,7.1767738185535634,170.0,1.0,60,14,0.0,32995,14040929767365,33,40.990257263183594,686.6241466348424,0.15,16,319597.99248965806,340282346638528860000000000000000000000,1598062460,,,,0,,3,,37.3902587890625,52.1540641784668,2.0000000474974513,52.1540641784668,2.0000000474974513,C,32297837062000
Raw,1676595240999,478066000000,,,-1360629980933604664,0.0,7.1767738185535634,170.0,1.0,60,18,0.0,32995,14040929904291,33,40.97393035888672,-383.9764997614602,0.15,16,-191383.92020445433,340282346638528860000000000000000000000,1600312450,,,,0,,3,,37.373931884765625,52.1540641784668,2.0000000474974513,52.1540641784668,2.0000000474974513,C,32297837062000
Raw,1676595240999,478066000000,,,-1360629980933604664,0.0,7.1767738185535634,170.0,1.0,60,16,0.0,32995,14040926150622,33,41.76234436035156,-654.2238638361719,0.15,16,-316084.53519031755,340282346638528860000000000000000000000,1601437440,,,,0,,3,,38.16234588623047,52.1540641784668,2.0000000474974513,52.1540641784668,2.0000000474974513,C,32297837062000
Raw,1676595240999,478066000000,,,-1360629980933604664,0.0,7.1767738185535634,170.0,1.0,60,15,0.0,32995,14040935636543,40,37.47765350341797,-23.465730843037832,0.15,16,-26078.934757171068,340282346638528860000000000000000000000,1602000000,,,,0,,3,,33.877655029296875,52.1540641784668,2.0000000474974513,52.1540641784668,2.0000000474974513,C,32297837062000
Raw,1676595240999,478066000000,,,-1360629980933604664,0.0,7.1767738185535634,170.0,1.0,60,24,0.0,32867,14040925910155,33,40.444053649902344,701.8977905360616,0.15,16,336314.5997247441,340282346638528860000000000000000000000,1603124990,,,,0,,3,,36.84405517578125,52.1540641784668,2.0000000474974513,52.1540641784668,2.0000000474974513,C,32297837062000
Raw,1676595240999,478066000000,,,-1360629980933604664,0.0,7.1767738185535634,170.0,1.0,60,17,0.0,32995,14040935312181,33,44.006858825683594,212.10061421694923,0.15,16,92010.69147949792,340282346638528860000000000000000000000,1604249980,,,,0,,3,,40.4068603515625,52.1540641784668,2.0000000474974513,52.1540641784668,2.0000000474974513,C,32297837062000
Raw,1676595240999,478066000000,,,-1360629980933604664,0.0,7.1767738185535634,170.0,1.0,60,2,0.0,85026,435258921385893,19,37.828636169433594,181.70599877850475,0.15,16,82303.83405425893,340282346638528860000000000000000000000,1575420030,,,,0,,6,,34.2286376953125,-5.878973752260207,1.5000000237487257,-5.878973752260207,1.5000000237487257,C,32297837062000
Raw,1676595240999,478066000000,,,-1360629980933604664,0.0,7.1767738185535634,170.0,1.0,60,11,0.0,85026,435258907892005,32,31.587953567504883,588.4970734003668,0.6914839827492734,16,281284.65604489774,340282346638528860000000000000000000000,1575420030,,,,0,,6,,27.987953186035156,-5.878973752260207,1.5000000237487257,-5.878973752260207,1.5000000237487257,C,32297837062000
Raw,1676595240999,478066000000,,,-1360629980933604664,0.0,7.1767738185535634,170.0,1.0,60,15,0.0,85026,435258907694536,18,38.49475860595703,-496.53998135267216,0.15,16,-237261.79748834556,340282346638528860000000000000000000000,1575420030,,,,0,,6,,34.89476013183594,-5.878973752260207,1.5000000237487257,-5.878973752260207,1.5000000237487257,C,32297837062000
Raw,1676595240999,478066000000,,,-1360629980933604664,0.0,7.1767738185535634,170.0,1.0,60,25,0.0,85026,435258910325669,18,38.66314697265625,514.7904551715067,0.15,16,243795.06304592933,340282346638528860000000000000000000000,1575420030,,,,0,,6,,35.063148498535156,-5.878973752260207,1.5000000237487257,-5.878973752260207,1.5000000237487257,C,32297837062000
Raw,1676595240999,478066000000,,,-1360629980933604664,0.0,7.1767738185535634,170.0,1.0,60,30,0.0,85026,435258916739879,15,40.89775085449219,-292.51622768249854,0.15,16,-141237.6933475141,340282346638528860000000000000000000000,1575420030,,,,0,,6,,37.297752380371094,-5.878973752260207,1.5000000237487257,-5.878973752260207,1.5000000237487257,C,32297837062000
Raw,1676595240999,478066000000,,,-1360629980933604664,0.0,7.1767738185535634,170.0,1.0,60,34,0.0,85026,435258920309276,21,36.865440368652344,-212.73144640472992,0.15,16,-107553.19675164176,340282346638528860000000000000000000000,1575420030,,,,0,,6,,33.26544189453125,-5.878973752260207,1.5000000237487257,-5.878973752260207,1.5000000237487257,C,32297837062000
Raw,1676595240999,478066000000,,,-1360629980933604664,0.0,7.1767738185535634,170.0,1.0,60,36,0.0,85026,435258919672661,26,34.043060302734375,315.17775527188473,0.5810410471657663,16,145938.1144791547,340282346638528860000000000000000000000,1575420030,,,,0,,6,,30.44306182861328,-5.878973752260207,1.5000000237487257,-5.878973752260207,1.5000000237487257,C,32297837062000
Raw,1676595240999,478066000000,,,-1360629980933604664,0.0,7.1767738185535634,170.0,1.0,60,2,0.0,84003,435258921386407,9,35.716007232666016,181.64597957256808,0.5082772657776946,16,82381.93284707607,340282346638528860000000000000000000000,1176450050,,,,0,,6,,32.11600875854492,-4.216632805764675,1.9567244496863756,-4.216632805764675,1.5000000237487257,Q,32297837062000
Raw,1676595240999,478066000000,,,-1360629980933604664,0.0,7.1767738185535634,170.0,1.0,60,11,0.0,84003,435258907892525,81,23.871904373168945,588.6997276868515,1.0384660896000657,16,281795.96487399755,340282346638528860000000000000000000000,1176450050,,,,0,,6,,20.27190399169922,5.203299224376676,1.9567244496863756,5.203299224376676,1.5000000237487257,Q,32297837062000
Raw,1676595240999,478066000000,,,-1360629980933604664,0.0,7.1767738185535634,170.0,1.0,60,15,0.0,84003,435258907695022,35,30.34510612487793,-497.06498751294953,0.7473379397219868,16,-236838.8174818904,340282346638528860000000000000000000000,1176450050,,,,0,,6,,26.745105743408203,-11.050701141357418,1.9567244496863756,-11.050701141357418,1.5000000237487257,Q,32297837062000
Raw,1676595240999,478066000000,,,-1360629980933604664,0.0,7.1767738185535634,170.0,1.0,60,25,0.0,84003,435258910326148,9,39.953712463378906,514.5890278534569,0.15,16,244138.66231478474,340282346638528860000000000000000000000,1176450050,,,,0,,6,,36.35371398925781,-8.649541996419428,1.9567244496863756,-8.649541996419428,1.5000000237487257,Q,32297837062000
Raw,1676595240999,478066000000,,,-1360629980933604664,0.0,7.1767738185535634,170.0,1.0,60,30,0.0,84003,435258916740392,17,32.46750259399414,-292.59154991141395,0.6535231157491417,16,-142179.06534314022,340282346638528860000000000000000000000,1176450050,,,,0,,6,,28.867504119873047,-8.2801328971982,1.9567244496863756,-8.2801328971982,1.5000000237487257,Q,32297837062000
Raw,1676595240999,478066000000,,,-1360629980933604664,0.0,7.1767738185535634,170.0,1.0,60,34,0.0,84003,435258920309764,13,34.46845245361328,-212.76305788315483,0.5641848094252144,16,-107938.82720653096,340282346638528860000000000000000000000,1176450050,,,,0,,6,,30.868452072143555,-9.942473843693731,1.9567244496863756,-9.942473843693731,1.5000000237487257,Q,32297837062000
Raw,1676595240999,478066000000,,,-1360629980933604664,0.0,7.1767738185535634,170.0,1.0,60,36,0.0,84003,435258919673173,7,34.182918548583984,314.85710752091813,0.5769103466294188,16,146442.87062574667,340282346638528860000000000000000000000,1176450050,,,,0,,6,,30.58292007446289,-10.865996591746804,1.9567244496863756,-10.865996591746804,1.5000000237487257,Q,32297837062000
Fix,FLP,37.4311524000,-122.1551589000,-16.5,0.14175233,3.722,263.078,1676595240941,,,32297763890785,2.4671638
UncalGyro,1676595241136,32297958961114,-0.001985312,-0.13927728,-1.2669345,-0.00030287402,-0.0017077904,-0.00033423275
UncalAccel,1676595241136,32297958961114,3.8135612,1.3022938,9.765109,0.037048545,-0.031444572,0.0098014325
OrientationDeg,1676595241136,32297958961114,265.0,-6.0,-14.0
UncalMag,1676595241139,32297961399752,-154.9522,757.9006,392.1324,-177.00775,769.7961,430.15182
UncalGyro,1676595241145,32297967443290,-0.03573562,-0.11484267,-1.1869112,-0.00030287402,-0.0017077904,-0.00033423275
UncalAccel,1676595241145,32297967443290,3.7543387,1.4691931,9.893126,0.037048545,-0.031444572,0.0098014325
OrientationDeg,1676595241145,32297967443290,266.0,-6.0,-14.0
UncalMag,1676595241149,32297971407686,-154.3178,757.9006,391.6322,-177.00775,769.7961,430.15182
UncalGyro,1676595241153,32297975932771,-0.05085453,-0.073303826,-1.1389582,-0.00030287402,-0.0017077904,-0.00033423275
UncalAccel,1676595241153,32297975932771,3.6143587,1.5643078,9.943973,0.037048545,-0.031444572,0.0098014325
OrientationDeg,1676595241153,32297975932771,267.0,-6.0,-14.0
UncalMag,1676595241159,32297981410412,-154.3056,758.08356,391.80298,-177.00775,769.7961,430.15182
UncalGyro,1676595241162,32297984401408,-0.04230242,-0.038331795,-1.1249083,-0.00030287402,-0.0017077904,-0.00033423275
UncalAccel,1676595241162,32297984401408,3.4337006,1.5248263,9.828519,0.037048545,-0.031444572,0.0098014325
OrientationDeg,1676595241162,32297984401408,267.0,-6.0,-14.0
UncalMag,1676595241169,32297991407237,-154.3666,758.83997,391.132,-177.00775,769.7961,430.15182
UncalGyro,1676595241170,32297992884196,-0.017104227,-0.007330383,-1.1386528,-0.00030287402,-0.0017077904,-0.00033423275
UncalAccel,1676595241170,32297992884196,3.2859437,1.457229,9.794421,0.037048545,-0.031444572,0.0098014325
OrientationDeg,1676595241170,32297992884196,268.0,-5.0,-14.0
UncalGyro,1676595241179,32298001369740,0.01740966,0.032223143,-1.158964,-0.00030287402,-0.0017077904,-0.00033423275
UncalAccel,1676595241180,32298001369740,3.2147572,1.4566308,9.756136,0.037048545,-0.031444572,0.0098014325
UncalMag,1676595241179,32298001399749,-154.68379,758.8522,391.75418,-177.00775,769.7961,430.15182
OrientationDeg,1676595241179,32298001369740,268.0,-5.0,-14.0
UncalGyro,1676595241187,32298009836811,0.064446285,0.07437284,-1.1704178,-0.00030287402,-0.0017077904,-0.00033423275
UncalAccel,1676595241187,32298009836811,3.2009985,1.4709877,9.646067,0.037048545,-0.031444572,0.0098014325
OrientationDeg,1676595241188,32298009836811,269.0,-5.0,-14.0
UncalMag,1676595241189,32298011399749,-154.4886,758.5716,391.0832,-177.00775,769.7961,430.15182
UncalGyro,1676595241196,32298018318073,0.11728613,0.11178834,-1.1661417,-0.00030287402,-0.0017077904,-0.00033423275
UncalAccel,1676595241196,32298018318073,3.1543384,1.5188441,9.478569,0.037048545,-0.031444572,0.0098014325
OrientationDeg,1676595241196,32298018318073,269.0,-5.0,-14.0
UncalMag,1676595241199,32298021410246,-154.4032,759.877,390.7782,-177.00775,769.7961,430.15182
UncalGyro,1676595241204,32298026808663,0.16493362,0.15714508,-1.1519392,-0.00030287402,-0.0017077904,-0.00033423275
UncalAccel,1676595241204,32298026808663,3.0592237,1.5954145,9.343972,0.037048545,-0.031444572,0.0098014325
OrientationDeg,1676595241204,32298026808663,270.0,-5.0,-14.0
UncalMag,1676595241209,32298031411263,-153.91519,759.47437,391.5224,-177.00775,769.7961,430.15182
UncalGyro,1676595241213,32298035290931,0.19226983,0.21594086,-1.1311697,-0.00030287402,-0.0017077904,-0.00033423275
UncalAccel,1676595241213,32298035290931,2.9503503,1.6570296,9.180662,0.037048545,-0.031444572,0.0098014325
OrientationDeg,1676595241214,32298035290931,270.0,-4.0,-14.0
UncalMag,1676595241219,32298041410448,-154.52519,759.7428,392.2056,-177.00775,769.7961,430.15182
UncalGyro,1676595241221,32298043763129,0.19349156,0.28771752,-1.1078042,-0.00030287402,-0.0017077904,-0.00033423275
UncalAccel,1676595241221,32298043763129,2.784049,1.7138592,8.9928255,0.037048545,-0.031444572,0.0098014325
OrientationDeg,1676595241221,32298043763129,271.0,-4.0,-14.0
UncalMag,1676595241229,32298051407070,-154.1104,759.7306,391.5834,-177.00775,769.7961,430.15182
UncalGyro,1676595241230,32298052249253,0.17058411,0.37751472,-1.0804679,-0.00030287402,-0.0017077904,-0.00033423275
UncalAccel,1676595241230,32298052249253,2.5932214,1.7659031,8.8289175,0.037048545,-0.031444572,0.0098014325
OrientationDeg,1676595241230,32298052249253,272.0,-4.0,-15.0
UncalGyro,1676595241238,32298060734675,0.13103059,0.4831944,-1.0468704,-0.00030287402,-0.0017077904,-0.00033423275
UncalAccel,1676595241239,32298060734675,2.3365912,1.7258233,8.65125,0.037048545,-0.031444572,0.0098014325
OrientationDeg,1676595241238,32298060734675,272.0,-4.0,-15.0
UncalMag,1676595241239,32298061393560,-154.25679,760.609,391.925,-177.00775,769.7961,430.15182
UncalGyro,1676595241247,32298069217636,0.08093964,0.57925296,-1.0122037,-0.00030287402,-0.0017077904,-0.00033423275
UncalAccel,1676595241247,32298069217636,2.1708884,1.7635103,8.425727,0.037048545,-0.031444572,0.0098014325
UncalMag,1676595241249,32298071399704,-153.537,760.4382,391.498,-177.00775,769.7961,430.15182
OrientationDeg,1676595241247,32298069217636,273.0,-3.0,-15.0
UncalGyro,1676595241255,32298077693089,0.025350908,0.6626361,-0.9757045,-0.00031034148,-0.0017083461,-0.00033401727
UncalAccel,1676595241255,32298077693089,1.9280169,1.7383857,8.280961,0.037048545,-0.031444572,0.0098014325
OrientationDeg,1676595241255,32298077693089,273.0,-3.0,-15.0
UncalMag,1676595241259,32298081410445,-152.7806,760.792,391.32718,-177.00775,769.7961,430.15182
UncalGyro,1676595241264,32298086175336,-0.030390546,0.72173727,-0.9388999,-0.00031147138,-0.0017084302,-0.00033398467
UncalAccel,1676595241264,32298086175336,1.6384853,1.6749759,8.065009,0.037048545,-0.031444572,0.0098014325
OrientationDeg,1676595241264,32298086175336,274.0,-2.0,-15.0
UncalMag,1676595241269,32298091399824,-152.8904,760.8286,392.4252,-177.00775,769.7961,430.15182
UncalGyro,1676595241272,32298094655052,-0.08093964,0.72494435,-0.89873546,-0.00031164236,-0.0017084428,-0.00033397973
UncalAccel,1676595241272,32298094655052,1.3926228,1.558924,7.719844,0.037048545,-0.031444572,0.0098014325
OrientationDeg,1676595241272,32298094655052,274.0,-2.0,-15.0
UncalMag,1676595241279,32298101410281,-152.37799,760.548,391.62,-177.00775,769.7961,430.15182
UncalGyro,1676595241281,32298103138745,-0.13454308,0.6930266,-0.8568912,-0.0003116682,-0.0017084448,-0.000333979
UncalAccel,1676595241281,32298103138745,0.93978107,1.5936198,8.141579,0.037048545,-0.031444572,0.0098014325
OrientationDeg,1676595241281,32298103138745,274.0,-1.0,-15.0
UncalMag,1676595241289,32298111410321,-152.134,761.27997,392.5106,-177.00775,769.7961,430.15182
UncalGyro,1676595241289,32298111617779,-0.20341812,0.729984,-0.79259765,-0.00031167213,-0.0017084451,-0.00033397888
UncalAccel,1676595241289,32298111617779,0.90448695,1.5655042,7.783852,0.037048545,-0.031444572,0.0098014325
OrientationDeg,1676595241289,32298111617779,275.0,-1.0,-15.0
UncalGyro,1676595241298,32298120098735,-0.27931812,0.6994407,-0.70325863,-0.00031167275,-0.0017084451,-0.00033397885
UncalAccel,1676595241298,32298120098735,0.80997044,1.3836497,7.14437,0.037048545,-0.031444572,0.0098014325
OrientationDeg,1676595241298,32298120098735,275.0,0.0,-14.0
UncalMag,1676595241299,32298121408611,-152.439,761.4386,392.1934,-177.00775,769.7961,430.15182
UncalGyro,1676595241306,32298128577414,-0.3791946,0.63789606,-0.6047566,-0.0003116728,-0.0017084451,-0.00033397885
UncalAccel,1676595241306,32298128577414,0.4989035,1.2568301,7.2436724,0.037048545,-0.031444572,0.0098014325
OrientationDeg,1676595241306,32298128577414,275.0,0.0,-14.0
UncalMag,1676595241309,32298131413981,-151.28,761.6216,391.7298,-177.00775,769.7961,430.15182
UncalGyro,1676595241315,32298137061258,-0.50976706,0.61666846,-0.50610185,-0.0003116728,-0.0017084451,-0.00033397885
UncalAccel,1676595241315,32298137061258,0.24466611,1.2843475,7.3417783,0.037048545,-0.031444572,0.0098014325
OrientationDeg,1676595241315,32298137061258,276.0,0.0,-14.0
UncalMag,1676595241319,32298141392130,-151.2434,762.2804,393.2182,-177.00775,769.7961,430.15182
UncalGyro,1676595241324,32298145544972,-0.6595817,0.6073528,-0.39354995,-0.0003116728,-0.0017084451,-0.00033397885
UncalAccel,1676595241323,32298145544972,0.19501504,1.1455638,7.0462646,0.037048545,-0.031444572,0.0098014325
OrientationDeg,1676595241323,32298145544972,276.0,0.0,-14.0
UncalMag,1676595241329,32298151399779,-150.5114,762.1828,392.5716,-177.00775,769.7961,430.15182
UncalGyro,1676595241332,32298154025430,-0.8031351,0.54809886,-0.23762658,-0.0003116728,-0.0017084451,-0.00033397885
UncalAccel,1676595241332,32298154025430,-0.25064817,0.802792,6.7208405,0.037048545,-0.031444572,0.0098014325
OrientationDeg,1676595241333,32298154025430,276.0,0.0,-13.0
UncalMag,1676595241339,32298161410195,-150.5724,762.7928,392.59598,-177.00775,769.7961,430.15182
UncalGyro,1676595241340,32298162504250,-0.6417139,0.3126103,0.26206118,-0.0003116728,-0.0017084451,-0.00033397885
UncalAccel,1676595241340,32298162504250,-2.0458634,-0.5706882,7.9190464,0.037048545,-0.031444572,0.0098014325
OrientationDeg,1676595241340,32298162504250,276.0,0.0,-13.0
UncalGyro,1676595241348,32298170986447,0.1459968,0.7733554,1.1064297,-0.0003116728,-0.0017084451,-0.00033397885
UncalAccel,1676595241348,32298170986447,-3.1130621,0.033499517,15.202201,0.037048545,-0.031444572,0.0098014325
UncalMag,1676595241349,32298171399615,-150.243,763.049,392.0348,-177.00775,769.7961,430.15182
OrientationDeg,1676595241348,32298170986447,275.0,0.0,-13.0
UncalGyro,1676595241357,32298179466446,0.7273878,1.1904236,1.3365731,-0.0003116728,-0.0017084451,-0.00033397885
UncalAccel,1676595241357,32298179466446,-1.2592229,3.0693932,8.258827,0.037048545,-0.031444572,0.0098014325
OrientationDeg,1676595241357,32298179466446,275.0,1.0,-13.0
UncalMag,1676595241359,32298181407386,-149.9746,762.378,392.962,-177.00775,769.7961,430.15182
UncalGyro,1676595241365,32298187938005,0.7119634,1.3164146,1.2592987,-0.0003116728,-0.0017084451,-0.00033397885
UncalAccel,1676595241365,32298187938005,-1.3597214,1.7665013,7.9351983,0.037048545,-0.031444572,0.0098014325
OrientationDeg,1676595241365,32298187938005,274.0,1.0,-14.0
UncalMag,1676595241369,32298191410396,-149.27919,761.8656,392.5838,-177.00775,769.7961,430.15182
UncalGyro,1676595241374,32298196428461,0.472657,1.1763737,1.3049608,-0.0003116728,-0.0017084451,-0.00033397885
UncalAccel,1676595241374,32298196428461,-1.4033905,0.5270192,6.910472,0.037048545,-0.031444572,0.0098014325
OrientationDeg,1676595241374,32298196428461,273.0,2.0,-14.0
UncalMag,1676595241379,32298201399409,-149.09619,761.463,393.572,-177.00775,769.7961,430.15182
UncalGyro,1676595241382,32298204910750,0.27183503,1.1091785,1.3385584,-0.0003116728,-0.0017084451,-0.00033397885
UncalAccel,1676595241382,32298204910750,-0.6011967,0.40618163,7.8281193,0.037048545,-0.031444572,0.0098014325
OrientationDeg,1676595241382,32298204910750,273.0,2.0,-14.0
UncalMag,1676595241389,32298211399693,-148.5716,761.4508,393.07178,-177.00775,769.7961,430.15182
UncalGyro,1676595241391,32298213390334,0.11636983,1.0580186,1.3040446,-0.0003116728,-0.0017084451,-0.00033397885
UncalAccel,1676595241391,32298213390334,-0.064008005,0.74476606,7.9968133,0.037048545,-0.031444572,0.0098014325
OrientationDeg,1676595241391,32298213390334,272.0,2.0,-14.0
UncalMag,1676595241399,32298221410231,-149.25479,760.6212,394.5846,-177.00775,769.7961,430.15182
UncalGyro,1676595241399,32298221869968,-0.008857546,0.9983065,1.2385293,-0.0003116728,-0.0017084451,-0.00033397885
UncalAccel,1676595241399,32298221869968,0.3272185,1.0049855,8.613564,0.037048545,-0.031444572,0.0098014325
OrientationDeg,1676595241399,32298221869968,271.0,3.0,-14.0
UncalGyro,1676595241408,32298230352287,-0.13026701,0.97524637,1.1612549,-0.0003116728,-0.0017084451,-0.00033397885
UncalAccel,1676595241408,32298230352287,0.3074777,1.0947163,9.271589,0.037048545,-0.031444572,0.0098014325
UncalMag,1676595241409,32298231400587,-148.5472,760.0844,393.7062,-177.00775,769.7961,430.15182
OrientationDeg,1676595241408,32298230352287,271.0,3.0,-14.0
UncalGyro,1676595241416,32298238835340,-0.26328292,0.97341377,1.0781772,-0.0003116728,-0.0017084451,-0.00033397885
UncalAccel,1676595241416,32298238835340,0.02871387,1.0827522,9.48455,0.037048545,-0.031444572,0.0098014325
OrientationDeg,1676595241416,32298238835340,270.0,3.0,-14.0
UncalMag,1676595241419,32298241407300,-148.35199,759.938,394.7554,-177.00775,769.7961,430.15182
UncalGyro,1676595241425,32298247310884,-0.3932445,0.96761054,1.0126618,-0.0003116728,-0.0017084451,-0.00033397885
UncalAccel,1676595241425,32298247310884,-0.37268212,0.8739785,9.568898,0.037048545,-0.031444572,0.0098014325
OrientationDeg,1676595241425,32298247310884,270.0,4.0,-14.0
UncalMag,1676595241429,32298251399731,-147.9372,759.8648,394.731,-177.00775,769.7961,430.15182
UncalGyro,1676595241433,32298255795116,-0.54901516,0.97494096,0.9764681,-0.0003116728,-0.0017084451,-0.00033397885
UncalAccel,1676595241433,32298255795116,-0.6227321,0.57487565,9.9553385,0.037048545,-0.031444572,0.0098014325
OrientationDeg,1676595241433,32298255795116,269.0,4.0,-14.0
UncalMag,1676595241439,32298261419383,-147.6322,759.7672,394.3406,-177.00775,769.7961,430.15182
UncalGyro,1676595241442,32298264273357,-0.7339546,0.9595166,0.9462303,-0.0003116728,-0.0017084451,-0.00033397885
UncalAccel,1676595241442,32298264273357,-0.8255238,0.21355942,10.418948,0.037048545,-0.031444572,0.0098014325
OrientationDeg,1676595241442,32298264273357,269.0,4.0,-13.0
UncalMag,1676595241449,32298271410349,-147.6566,759.4256,394.6212,-177.00775,769.7961,430.15182
UncalGyro,1676595241450,32298272758423,-0.93538743,0.8782715,0.9112582,-0.0003116728,-0.0017084451,-0.00033397885
UncalAccel,1676595241450,32298272758423,-1.0935199,-0.28713873,10.868798,0.037048545,-0.031444572,0.0098014325
OrientationDeg,1676595241450,32298272758423,268.0,5.0,-13.0
UncalGyro,1676595241459,32298281240823,-1.1571314,0.7623598,0.8671232,-0.0003116728,-0.0017084451,-0.00033397885
UncalAccel,1676595241459,32298281240823,-1.2053844,-0.6041877,11.274981,0.037048545,-0.031444572,0.0098014325
OrientationDeg,1676595241459,32298281240823,268.0,5.0,-12.0
UncalMag,1676595241459,32298281399851,-147.2906,760.2308,395.0482,-177.00775,769.7961,430.15182
UncalGyro,1676595241467,32298289718503,-1.3472633,0.63148195,0.787558,-0.0003116728,-0.0017084451,-0.00033397885
UncalAccel,1676595241467,32298289718503,-1.189831,-0.34157544,11.622538,0.037048545,-0.031444572,0.0098014325
OrientationDeg,1676595241467,32298289718503,267.0,5.0,-12.0
UncalMag,1676595241469,32298291399646,-147.1686,760.52356,395.71918,-177.00775,769.7961,430.15182
UncalGyro,1676595241476,32298298183459,-1.4676038,0.52855116,0.6533204,-0.0003116728,-0.0017084451,-0.00033397885
UncalAccel,1676595241476,32298298183459,-1.1916257,0.35712877,11.962318,0.037048545,-0.031444572,0.0098014325
OrientationDeg,1676595241476,32298298183459,267.0,5.0,-11.0
UncalMag,1676595241479,32298301410469,-147.1686,760.5846,395.1214,-177.00775,769.7961,430.15182
UncalGyro,1676595241484,32298306681993,-1.504103,0.41783184,0.4792238,-0.0003116728,-0.0017084451,-0.00033397885
UncalAccel,1676595241484,32298306681993,-1.2155539,0.5204389,11.894721,0.037048545,-0.031444572,0.0098014325
OrientationDeg,1676595241484,32298306681993,267.0,5.0,-10.0
UncalMag,1676595241489,32298311413154,-146.5952,761.37756,395.0604,-177.00775,769.7961,430.15182
UncalGyro,1676595241493,32298315158921,-1.4844025,0.34376442,0.27947086,-0.0003116728,-0.0017084451,-0.00033397885
UncalAccel,1676595241493,32298315158921,-1.3692927,0.19800608,12.143575,0.037048545,-0.031444572,0.0098014325
OrientationDeg,1676595241493,32298315158921,266.0,6.0,-9.0
UncalMag,1676595241499,32298321410427,-146.888,761.6216,394.76758,-177.00775,769.7961,430.15182
UncalGyro,1676595241502,32298323642920,-1.4223998,0.3304781,0.06429356,-0.0003116728,-0.0017084451,-0.00033397885
UncalAccel,1676595241501,32298323642920,-1.7120646,-0.08673982,12.18545,0.037048545,-0.031444572,0.0098014325
OrientationDeg,1676595241501,32298323642920,266.0,6.0,-9.0
UncalMag,1676595241509,32298331405299,-146.5464,762.1584,394.9994,-177.00775,769.7961,430.15182
UncalGyro,1676595241510,32298332120723,-1.2910637,0.33307427,-0.17012598,-0.0003116728,-0.0017084451,-0.00033397885
UncalAccel,1676595241510,32298332120723,-2.1158533,-0.22791636,11.864213,0.037048545,-0.031444572,0.0098014325
OrientationDeg,1676595241510,32298332120723,266.0,6.0,-8.0
UncalGyro,1676595241518,32298340606399,-1.0940597,0.3539964,-0.43417248,-0.0003116728,-0.0017084451,-0.00033397885
UncalAccel,1676595241518,32298340606399,-2.1996021,-0.39601216,11.678171,0.037048545,-0.031444572,0.0098014325
UncalMag,1676595241519,32298341399846,-146.3024,762.683,394.7554,-177.00775,769.7961,430.15182
OrientationDeg,1676595241518,32298340606399,266.0,6.0,-8.0
UncalGyro,1676595241527,32298349086094,-0.88239485,0.35338554,-0.62796944,-0.0003116728,-0.0017084451,-0.00033397885
UncalAccel,1676595241527,32298349086094,-1.3076776,-0.43788654,11.397613,0.037048545,-0.031444572,0.0098014325
OrientationDeg,1676595241527,32298349086094,267.0,6.0,-7.0
UncalMag,1676595241529,32298351400130,-146.2536,763.476,394.9506,-177.00775,769.7961,430.15182
UncalGyro,1676595241535,32298357566746,-0.6740898,0.38087448,-0.66507953,-0.0003116728,-0.0017084451,-0.00033397885
UncalAccel,1676595241535,32298357566746,-0.3487539,-0.40259242,11.09851,0.037048545,-0.031444572,0.0098014325
OrientationDeg,1676595241535,32298357566746,267.0,7.0,-7.0
UncalMag,1676595241539,32298361406925,-145.86319,763.1466,395.219,-177.00775,769.7961,430.15182
UncalGyro,1676595241544,32298366041476,-0.45677447,0.6719518,-0.571159,-0.0003116728,-0.0017084451,-0.00033397885
UncalAccel,1676595241544,32298366041476,0.46899325,-0.35533416,11.675778,0.037048545,-0.031444572,0.0098014325
OrientationDeg,1676595241544,32298366041476,267.0,7.0,-6.0
UncalMag,1676595241549,32298371403465,-145.52159,763.5858,395.0726,-177.00775,769.7961,430.15182
UncalGyro,1676595241553,32298374524517,-0.20295998,0.744492,-0.37384954,-0.0003116728,-0.0017084451,-0.00033397885
UncalAccel,1676595241552,32298374524517,1.2933207,-0.14416756,8.806784,0.037048545,-0.031444572,0.0098014325
OrientationDeg,1676595241552,32298374524517,267.0,7.0,-6.0
UncalMag,1676595241559,32298381410300,-145.7168,763.8542,395.51178,-177.00775,769.7961,430.15182
UncalGyro,1676595241561,32298383007743,0.11530081,0.8875872,-0.15118915,-0.0003116728,-0.0017084451,-0.00033397885
UncalAccel,1676595241561,32298383007743,1.6642082,0.68255264,8.461619,0.037048545,-0.031444572,0.0098014325
OrientationDeg,1676595241561,32298383007743,268.0,8.0,-6.0
UncalMag,1676595241569,32298391410381,-145.4972,764.02496,395.1824,-177.00775,769.7961,430.15182
UncalGyro,1676595241569,32298391482402,0.51893,1.1265882,0.07498371,-0.0003116728,-0.0017084451,-0.00033397885
UncalAccel,1676595241569,32298391482402,1.9345971,0.85244304,8.047063,0.037048545,-0.031444572,0.0098014325
OrientationDeg,1676595241569,32298391482402,268.0,8.0,-7.0
UncalGyro,1676595241577,32298399974019,0.9418015,1.3313808,0.2744312,-0.0003116728,-0.0017084451,-0.00033397885
UncalAccel,1676595241577,32298399974019,1.2293127,1.0408778,7.583453,0.037048545,-0.031444572,0.0098014325
UncalMag,1676595241579,32298401411072,-145.2166,763.476,397.09778,-177.00775,769.7961,430.15182
OrientationDeg,1676595241577,32298399974019,267.0,9.0,-7.0
UncalGyro,1676595241586,32298408451518,1.3115277,1.452943,0.4260785,-0.0003116728,-0.0017084451,-0.00033397885
UncalAccel,1676595241586,32298408451518,0.39481574,1.1994023,7.124031,0.037048545,-0.031444572,0.0098014325
OrientationDeg,1676595241586,32298408451518,267.0,9.0,-8.0
UncalMag,1676595241589,32298411410298,-144.5212,762.95135,396.5976,-177.00775,769.7961,430.15182
UncalGyro,1676595241594,32298416920572,1.4982997,1.1661417,0.48517972,-0.0003116728,-0.0017084451,-0.00033397885
UncalAccel,1676595241594,32298416920572,-0.86081797,1.3357933,6.762117,0.037048545,-0.031444572,0.0098014325
OrientationDeg,1676595241594,32298416920572,267.0,10.0,-9.0
UncalMag,1676595241599,32298421396137,-143.838,762.2072,397.4882,-177.00775,769.7961,430.15182
UncalGyro,1676595241603,32298425414528,1.3063353,0.3352123,0.42821655,-0.0003116728,-0.0017084451,-0.00033397885
UncalAccel,1676595241603,32298425414528,-2.4197419,2.07697,7.411768,0.037048545,-0.031444572,0.0098014325
OrientationDeg,1676595241603,32298425414528,267.0,10.0,-9.0
UncalMag,1676595241609,32298431410297,-144.082,761.4996,397.4516,-177.00775,769.7961,430.15182
UncalGyro,1676595241611,32298433896167,0.7771733,-0.6927212,0.2612976,-0.0003116728,-0.0017084451,-0.00033397885
UncalAccel,1676595241611,32298433896167,-3.4103706,2.946163,8.140981,0.037048545,-0.031444572,0.0098014325
OrientationDeg,1676595241611,32298433896167,267.0,10.0,-10.0
UncalMag,1676595241619,32298441407122,-144.0576,762.0242,397.4516,-177.00775,769.7961,430.15182
UncalGyro,1676595241620,32298442383766,0.16982053,-1.5210545,0.016187929,-0.0003116728,-0.0017084451,-0.00033397885
UncalAccel,1676595241620,32298442383766,-3.682554,3.6424742,8.875577,0.037048545,-0.031444572,0.0098014325
OrientationDeg,1676595241620,32298442383766,267.0,9.0,-10.0
UncalGyro,1676595241628,32298450857957,-0.31490102,-1.9399554,-0.2875648,-0.0003116728,-0.0017084451,-0.00033397885
UncalAccel,1676595241628,32298450857957,-3.3469608,4.5242295,10.109077,0.037048545,-0.031444572,0.0098014325
UncalMag,1676595241629,32298451399675,-145.119,761.7192,396.561,-177.00775,769.7961,430.15182
OrientationDeg,1676595241628,32298450857957,267.0,8.0,-10.0
UncalGyro,1676595241637,32298459339482,-0.635758,-2.0460932,-0.6178902,-0.0003116728,-0.0017084451,-0.00033397885
UncalAccel,1676595241637,32298459339482,-2.693122,4.8568316,11.304891,0.037048545,-0.031444572,0.0098014325
OrientationDeg,1676595241637,32298459339482,267.0,7.0,-9.0
UncalMag,1676595241639,32298461402889,-145.6192,762.0364,395.9144,-177.00775,769.7961,430.15182
UncalGyro,1676595241645,32298467819565,-0.8367327,-2.0146337,-0.93737274,-0.0003116728,-0.0017084451,-0.00033397885
UncalAccel,1676595241645,32298467819565,-1.7330018,4.755735,12.170494,0.037048545,-0.031444572,0.0098014325
OrientationDeg,1676595241645,32298467819565,268.0,6.0,-9.0
UncalMag,1676595241649,32298471400202,-146.4976,763.049,395.57278,-177.00775,769.7961,430.15182
UncalGyro,1676595241654,32298476291346,-0.9639453,-1.8556559,-1.219287,-0.0003116728,-0.0017084451,-0.00033397885
UncalAccel,1676595241654,32298476291346,-0.87218386,4.476971,13.007982,0.037048545,-0.031444572,0.0098014325
OrientationDeg,1676595241654,32298476291346,268.0,5.0,-8.0
UncalMag,1676595241659,32298481399998,-147.10759,763.18317,394.4138,-177.00775,769.7961,430.15182
UncalGyro,1676595241662,32298484781650,-1.0575604,-1.5418239,-1.4306464,-0.0003116728,-0.0017084451,-0.00033397885
UncalAccel,1676595241662,32298484781650,-0.13758731,4.006183,13.6355,0.037048545,-0.031444572,0.0098014325
OrientationDeg,1676595241662,32298484781650,269.0,5.0,-8.0
UncalMag,1676595241669,32298491410292,-147.1564,764.208,393.81598,-177.00775,769.7961,430.15182
UncalGyro,1676595241671,32298493262383,-1.1311697,-1.1632402,-1.5748106,-0.0003116728,-0.0017084451,-0.00033397885
UncalAccel,1676595241671,32298493262383,0.62931234,3.5318062,13.747963,0.037048545,-0.031444572,0.0098014325
OrientationDeg,1676595241671,32298493262383,270.0,4.0,-7.0
UncalMag,1676595241679,32298501407199,-147.4248,764.818,394.08438,-177.00775,769.7961,430.15182
UncalGyro,1676595241679,32298501740776,-1.1969905,-0.7286095,-1.6485726,-0.0003116728,-0.0017084451,-0.00033397885
UncalAccel,1676595241679,32298501740776,1.268196,3.1052856,13.667803,0.037048545,-0.031444572,0.0098014325
OrientationDeg,1676595241679,32298501740776,271.0,4.0,-6.0
UncalGyro,1676595241688,32298510215222,-1.2313516,-0.26419923,-1.6618589,-0.0003116728,-0.0017084451,-0.00033397885
UncalAccel,1676595241688,32298510215222,1.6360924,2.8492537,13.246666,0.037048545,-0.031444572,0.0098014325
UncalMag,1676595241689,32298511399833,-148.0958,765.92816,393.76718,-177.00775,769.7961,430.15182
OrientationDeg,1676595241688,32298510215222,271.0,4.0,-6.0
UncalGyro,1676595241696,32298518697562,-1.2145529,0.14370605,-1.644602,-0.0003116728,-0.0017084451,-0.00033397885
UncalAccel,1676595241696,32298518697562,1.6947167,2.8845477,12.440285,0.037048545,-0.031444572,0.0098014325
OrientationDeg,1676595241696,32298518697562,272.0,4.0,-5.0
UncalMag,1676595241699,32298521410534,-147.9372,766.6968,393.2182,-177.00775,769.7961,430.15182
UncalGyro,1676595241705,32298527183859,-1.1539245,0.45097128,-1.626276,-0.0003116728,-0.0017084451,-0.00033397885
UncalAccel,1676595241705,32298527183859,1.5326029,3.0287154,11.651252,0.037048545,-0.031444572,0.0098014325
OrientationDeg,1676595241705,32298527183859,273.0,4.0,-5.0
UncalMag,1676595241709,32298531428681,-147.4248,768.1852,392.84,-177.00775,769.7961,430.15182
UncalGyro,1676595241713,32298535656667,-1.0560333,0.656222,-1.6346754,-0.0003116728,-0.0017084451,-0.00033397885
UncalAccel,1676595241713,32298535656667,1.2346965,3.3008988,10.951351,0.037048545,-0.031444572,0.0098014325
OrientationDeg,1676595241713,32298535656667,274.0,5.0,-4.0
UncalMag,1676595241719,32298541410248,-147.4248,768.1974,393.206,-177.00775,769.7961,430.15182
UncalGyro,1676595241722,32298544152089,-0.9288206,0.7993172,-1.6788104,-0.0003116728,-0.0017084451,-0.00033397885
UncalAccel,1676595241722,32298544152089,0.84406817,3.5910287,10.589437,0.037048545,-0.031444572,0.0098014325
OrientationDeg,1676595241722,32298544152089,274.0,5.0,-4.0
UncalMag,1676595241729,32298551410491,-146.94899,769.271,393.8038,-177.00775,769.7961,430.15182
UncalGyro,1676595241730,32298552626525,-0.79427755,0.9111055,-1.7649424,-0.0003116728,-0.0017084451,-0.00033397885
UncalAccel,1676595241730,32298552626525,0.5629115,3.8584266,10.237692,0.037048545,-0.031444572,0.0098014325
OrientationDeg,1676595241730,32298552626525,275.0,6.0,-3.0
