# 
# Header Description:
# 
# Version: v3.0.5.6 Platform: 13 Manufacturer: Google Model: Pixel 7
# 
# Raw,utcTimeMillis,TimeNanos,LeapSecond,TimeUncertaintyNanos,FullBiasNanos,BiasNanos,BiasUncertaintyNanos,DriftNanosPerSecond,DriftUncertaintyNanosPerSecond,HardwareClockDiscontinuityCount,Svid,TimeOffsetNanos,State,ReceivedSvTimeNanos,ReceivedSvTimeUncertaintyNanos,Cn0DbHz,PseudorangeRateMetersPerSecond,PseudorangeRateUncertaintyMetersPerSecond,AccumulatedDeltaRangeState,AccumulatedDeltaRangeMeters,AccumulatedDeltaRangeUncertaintyMeters,CarrierFrequencyHz,CarrierCycles,CarrierPhase,CarrierPhaseUncertainty,MultipathIndicator,SnrInDb,ConstellationType,AgcDb,BasebandCn0DbHz,FullInterSignalBiasNanos,FullInterSignalBiasUncertaintyNanos,SatelliteInterSignalBiasNanos,SatelliteInterSignalBiasUncertaintyNanos,CodeType,ChipsetElapsedRealtimeNanos
# 
# UncalAccel,utcTimeMillis,elapsedRealtimeNanos,UncalAccelXMps2,UncalAccelYMps2,UncalAccelZMps2,BiasXMps2,BiasYMps2,BiasZMps2
# 
# Accel,utcTimeMillis,elapsedRealtimeNanos,AccelXMps2,AccelYMps2,AccelZMps2
# 
# UncalGyro,utcTimeMillis,elapsedRealtimeNanos,UncalGyroXRadPerSec,UncalGyroYRadPerSec,UncalGyroZRadPerSec,DriftXRadPerSec,DriftYRadPerSec,DriftZRadPerSec
# 
# Gyro,utcTimeMillis,elapsedRealtimeNanos,GyroXRadPerSec,GyroYRadPerSec,GyroZRadPerSec
# 
# UncalMag,utcTimeMillis,elapsedRealtimeNanos,UncalMagXMicroT,UncalMagYMicroT,UncalMagZMicroT,BiasXMicroT,BiasYMicroT,BiasZMicroT
# 
# Mag,utcTimeMillis,elapsedRealtimeNanos,MagXMicroT,MagYMicroT,MagZMicroT
# 
# OrientationDeg,utcTimeMillis,elapsedRealtimeNanos,yawDeg,rollDeg,pitchDeg
# 
# Fix,Provider,LatitudeDegrees,LongitudeDegrees,AltitudeMeters,SpeedMps,AccuracyMeters,BearingDegrees,UnixTimeMillis,SpeedAccuracyMps,BearingAccuracyDegrees,elapsedRealtimeNanos,VerticalAccuracyMeters
# 
# Nav,Svid,Type,Status,MessageId,Sub-messageId,Data(Bytes)
# 
# Status,UnixTimeMillis,SignalCount,SignalIndex,ConstellationType,Svid,CarrierFrequencyHz,Cn0DbHz,AzimuthDegrees,ElevationDegrees,UsedInFix,HasAlmanacData,HasEphemerisData,BasebandCn0DbHz
# 
UncalAccel,1676594010867,31067689837945,-3.1244283,0.5276174,16.94298,0.037048545,-0.031444572,0.0098014325
UncalMag,1676594010872,31067694583173,-184.3908,782.3738,387.716,-174.57417,771.0116,430.86337
UncalAccel,1676594010876,31067698311221,-2.9742785,0.14177474,16.32563,0.037048545,-0.031444572,0.0098014325
UncalGyro,1676594010880,31067702552237,-0.82604253,-0.39187005,0.24938573,0.0006957208,-0.0013396677,-0.0003231709
UncalAccel,1676594010884,31067706789625,-2.635694,-0.17587246,15.398412,0.037048545,-0.031444572,0.0098014325
UncalMag,1676594010882,31067704582847,-184.5494,783.2522,387.9234,-174.57417,771.0116,430.86337
UncalMag,1676594010892,31067714584230,-185.20819,782.6178,387.67938,-174.57417,771.0116,430.86337
UncalGyro,1676594010889,31067711030590,-0.5554292,-0.68554354,0.049480084,0.0006957208,-0.0013396677,-0.0003231709
UncalAccel,1676594010893,31067715270804,-2.1631117,-0.49232325,14.486747,0.037048545,-0.031444572,0.0098014325
OrientationDeg,1676594010876,31067698311221,48.0,9.0,-3.0
UncalGyro,1676594010897,31067719512635,-0.27977628,-0.9246973,-0.18081611,0.0006957208,-0.0013396677,-0.0003231709
OrientationDeg,1676594010884,31067706789625,48.0,8.0,-2.0
OrientationDeg,1676594010893,31067715270804,48.0,8.0,-2.0
UncalAccel,1676594010901,31067723751922,-1.5858432,-0.78424764,13.580465,0.037048545,-0.031444572,0.0098014325
OrientationDeg,1676594010901,31067723751922,48.0,8.0,-2.0
UncalMag,1676594010902,31067724583619,-184.57379,782.8374,388.67978,-174.57417,771.0116,430.86337
Fix,FLP,37.4312910000,-122.1550448000,-16.5,0.7599903,4.259,125.67484,1676594010278,,,31067100396156,2.7633543
UncalGyro,1676594010905,31067727994964,-0.0071776668,-1.0810788,-0.40973786,0.0006957208,-0.0013396677,-0.0003231709
UncalAccel,1676594010910,31067732234404,-0.96550393,-1.032503,12.678969,0.037048545,-0.031444572,0.0098014325
OrientationDeg,1676594010910,31067732234404,48.0,7.0,-2.0
UncalMag,1676594010912,31067734583781,-185.9524,782.44696,388.2528,-174.57417,771.0116,430.86337
UncalGyro,1676594010914,31067736480122,0.24022275,-1.1582005,-0.61453044,0.0006957208,-0.0013396677,-0.0003231709
UncalAccel,1676594010918,31067740715159,-0.4325027,-1.3010973,11.929418,0.037048545,-0.031444572,0.0098014325
OrientationDeg,1676594010918,31067740715159,48.0,6.0,-2.0
UncalMag,1676594010922,31067744584757,-187.0138,782.1908,388.94818,-174.57417,771.0116,430.86337
UncalGyro,1676594010922,31067744957609,0.4166101,-1.1635456,-0.7903069,0.0006957208,-0.0013396677,-0.0003231709
UncalAccel,1676594010927,31067749193398,-0.044865426,-1.5086746,11.388639,0.037048545,-0.031444572,0.0098014325
OrientationDeg,1676594010927,31067749193398,49.0,6.0,-2.0
UncalGyro,1676594010931,31067753436592,0.5010622,-1.1142182,-0.95356065,0.0006957208,-0.0013396677,-0.0003231709
UncalMag,1676594010932,31067754585448,-187.42859,782.2518,388.36258,-174.57417,771.0116,430.86337
UncalAccel,1676594010935,31067757678098,0.1902294,-1.5876378,10.707881,0.037048545,-0.031444572,0.0098014325
OrientationDeg,1676594010935,31067757678098,49.0,5.0,-3.0
UncalGyro,1676594010939,31067761919685,0.51343226,-1.0506883,-1.1317806,0.0006957208,-0.0013396677,-0.0003231709
UncalMag,1676594010942,31067764586220,-187.7336,782.4958,388.31378,-174.57417,771.0116,430.86337
UncalAccel,1676594010944,31067766157723,0.23868406,-1.628914,10.068997,0.037048545,-0.031444572,0.0098014325
OrientationDeg,1676594010944,31067766157723,50.0,5.0,-3.0
UncalGyro,1676594010948,31067770401049,0.46731192,-0.98746365,-1.3281738,0.0006957208,-0.0013396677,-0.0003231709
UncalMag,1676594010952,31067774585934,-188.1118,781.471,389.0458,-174.57417,771.0116,430.86337
UncalAccel,1676594010952,31067774639736,0.22313072,-1.6905292,9.597013,0.037048545,-0.031444572,0.0098014325
OrientationDeg,1676594010952,31067774639736,51.0,4.0,-3.0
UncalGyro,1676594010956,31067778879970,0.37583485,-0.9230174,-1.5407549,0.0006957208,-0.0013396677,-0.0003231709
UncalAccel,1676594010961,31067783121181,0.24107689,-1.7282162,9.1770735,0.037048545,-0.031444572,0.0098014325
UncalMag,1676594010962,31067784583980,-189.4538,781.6906,388.6432,-174.57417,771.0116,430.86337
OrientationDeg,1676594010961,31067783121181,51.0,4.0,-3.0
UncalGyro,1676594010965,31067787365748,0.25625798,-0.85918194,-1.7690657,0.0006957208,-0.0013396677,-0.0003231709
UncalAccel,1676594010969,31067791603104,0.20518455,-1.7808583,8.880961,0.037048545,-0.031444572,0.0098014325
OrientationDeg,1676594010969,31067791603104,52.0,4.0,-3.0
UncalMag,1676594010972,31067794583085,-189.70999,780.9098,388.94818,-174.57417,771.0116,430.86337
UncalGyro,1676594010973,31067795847723,0.12736541,-0.78877974,-2.0039434,0.0006957208,-0.0013396677,-0.0003231709
UncalAccel,1676594010978,31067800082443,0.12562318,-1.933999,8.733205,0.037048545,-0.031444572,0.0098014325
OrientationDeg,1676594010978,31067800082443,53.0,3.0,-3.0
UncalGyro,1676594010982,31067804325139,0.00030543262,-0.70722926,-2.2401955,0.0006957208,-0.0013396677,-0.0003231709
UncalMag,1676594010982,31067804584020,-190.137,780.64136,388.7774,-174.57417,771.0116,430.86337
UncalAccel,1676594010986,31067808563134,0.03589234,-2.0590239,8.666803,0.037048545,-0.031444572,0.0098014325
OrientationDeg,1676594010986,31067808563134,55.0,3.0,-3.0
UncalGyro,1676594010990,31067812807224,-0.10430524,-0.6427829,-2.4712553,0.0006957208,-0.0013396677,-0.0003231709
UncalMag,1676594010992,31067814583205,-191.00319,780.2022,389.42398,-174.57417,771.0116,430.86337
UncalAccel,1676594010995,31067817046268,-0.08673982,-2.1984057,8.537591,0.037048545,-0.031444572,0.0098014325
OrientationDeg,1676594010995,31067817046268,56.0,3.0,-3.0
UncalGyro,1676594010999,31067821285089,-0.17821993,-0.63361996,-2.6818511,0.0006957208,-0.0013396677,-0.0003231709
UncalMag,1676594011002,31067824584669,-191.0154,780.11676,389.2776,-174.57417,771.0116,430.86337
UncalAccel,1676594011003,31067825525435,-0.25244278,-2.4293132,8.47119,0.037048545,-0.031444572,0.0098014325
OrientationDeg,1676594011003,31067825525435,57.0,3.0,-2.0
UncalGyro,1676594011007,31067829766624,-0.23044892,-0.68035114,-2.8629727,0.0006957208,-0.0013396677,-0.0003231709
UncalAccel,1676594011012,31067834006604,-0.45164528,-2.7230322,8.490333,0.037048545,-0.031444572,0.0098014325
OrientationDeg,1676594011012,31067834006604,59.0,2.0,-2.0
UncalMag,1676594011012,31067834583163,-191.9792,779.763,390.0706,-174.57417,771.0116,430.86337
UncalGyro,1676594011016,31067838249076,-0.28344148,-0.77274454,-3.0213394,0.0006957208,-0.0013396677,-0.0003231709
UncalAccel,1676594011020,31067842486950,-0.56111693,-2.8863423,8.557332,0.037048545,-0.031444572,0.0098014325
OrientationDeg,1676594011020,31067842486950,60.0,2.0,-2.0
UncalMag,1676594011022,31067844583854,-192.6136,779.49457,389.89978,-174.57417,771.0116,430.86337
UncalGyro,1676594011024,31067846730867,-0.3538437,-0.89904094,-3.1592424,0.0006957208,-0.0013396677,-0.0003231709
UncalAccel,1676594011028,31067850969524,-0.6041877,-2.9587252,8.547761,0.037048545,-0.031444572,0.0098014325
OrientationDeg,1676594011028,31067850969524,62.0,2.0,-2.0
UncalMag,1676594011032,31067854586010,-193.0528,779.2262,390.2048,-174.57417,771.0116,430.86337
UncalGyro,1676594011033,31067855210623,-0.4370741,-1.0450377,-3.2867606,0.0006957208,-0.0013396677,-0.0003231709
UncalAccel,1676594011037,31067859449565,-0.59940207,-2.9635108,8.571689,0.037048545,-0.031444572,0.0098014325
OrientationDeg,1676594011037,31067859449565,63.0,1.0,-1.0
UncalGyro,1676594011041,31067863693990,-0.519999,-1.176221,-3.406948,0.0006957208,-0.0013396677,-0.0003231709
UncalMag,1676594011042,31067864583242,-193.7116,778.7016,390.58298,-174.57417,771.0116,430.86337
UncalAccel,1676594011045,31067867931793,-0.54257256,-2.9102705,8.581859,0.037048545,-0.031444572,0.0098014325
OrientationDeg,1676594011045,31067867931793,65.0,1.0,-1.0
UncalGyro,1676594011050,31067872174895,-0.5934556,-1.2840388,-3.519042,0.0006957208,-0.0013396677,-0.0003231709
UncalMag,1676594011052,31067874587595,-194.4802,778.1648,390.4732,-174.57417,771.0116,430.86337
UncalAccel,1676594011054,31067876412454,-0.46959144,-2.8713872,8.434102,0.037048545,-0.031444572,0.0098014325
UncalGyro,1676594011058,31067880655710,-0.65240407,-1.3891076,-3.6227365,0.0006957208,-0.0013396677,-0.0003231709
OrientationDeg,1676594011054,31067876412454,67.0,0.0,-1.0
UncalMag,1676594011063,31067884583444,-195.2488,777.5426,390.827,-174.57417,771.0116,430.86337
UncalAccel,1676594011062,31067884893513,-0.36789647,-2.8175488,8.219346,0.037048545,-0.031444572,0.0098014325
OrientationDeg,1676594011062,31067884893513,69.0,0.0,0.0
UncalGyro,1676594011067,31067889136229,-0.6979135,-1.4963144,-3.7114644,0.0006957208,-0.0013396677,-0.0003231709
UncalAccel,1676594011071,31067893386207,-0.24765715,-2.74038,8.100303,0.037048545,-0.031444572,0.0098014325
OrientationDeg,1676594011071,31067893386207,70.0,0.0,0.0
UncalMag,1676594011072,31067894582955,-196.3468,776.652,390.888,-174.57417,771.0116,430.86337
UncalGyro,1676594011075,31067897628496,-0.7339546,-1.5969545,-3.7782016,0.0006957208,-0.0013396677,-0.0003231709
UncalAccel,1676594011079,31067901866767,-0.19142582,-2.5627131,8.090134,0.037048545,-0.031444572,0.0098014325
OrientationDeg,1676594011079,31067901866767,72.0,-1.0,0.0
UncalMag,1676594011082,31067904593412,-196.847,777.0302,392.1934,-174.57417,771.0116,430.86337
UncalGyro,1676594011084,31067906100685,-0.75762564,-1.6442965,-3.822031,0.0006957208,-0.0013396677,-0.0003231709
UncalAccel,1676594011088,31067910335405,-0.1369891,-2.2414765,8.251649,0.037048545,-0.031444572,0.0098014325
OrientationDeg,1676594011088,31067910335405,74.0,-2.0,0.0
UncalGyro,1676594011092,31067914587510,-0.75915277,-1.5735888,-3.84051,0.0006957208,-0.0013396677,-0.0003231709
UncalMag,1676594011092,31067914599026,-197.7742,775.6028,391.6322,-174.57417,771.0116,430.86337
UncalAccel,1676594011096,31067918828019,-0.116650105,-1.777269,8.435298,0.037048545,-0.031444572,0.0098014325
OrientationDeg,1676594011096,31067918828019,76.0,-3.0,0.0
Status,0,30,0,6,2,1176450050,37.88,92.0,78.0,1,1,1,34.276154
Status,0,30,1,6,2,1575420030,40.73,92.0,78.0,1,1,1,37.127274
Status,0,30,2,3,17,1604249980,42.90,299.0,74.0,1,1,1,39.298527
Status,0,30,3,1,11,1575420030,41.83,140.0,73.0,1,1,1,38.233646
Status,0,30,4,1,11,1176450050,40.49,140.0,73.0,1,1,1,36.88656
Status,0,30,5,3,15,1602000000,43.60,325.0,71.0,1,1,1,39.995174
Status,0,30,6,6,36,1575420030,42.88,56.0,66.0,1,1,1,39.282112
Status,0,30,7,6,36,1176450050,39.67,56.0,66.0,1,1,1,36.0655
Status,0,30,8,1,12,1575420030,44.89,324.0,60.0,1,1,1,41.28918
Status,0,30,9,6,34,1176450050,38.70,204.0,55.0,1,1,1,35.10447
Status,0,30,10,6,34,1575420030,40.09,204.0,55.0,1,1,1,36.485744
Status,0,30,11,3,14,1598062460,41.25,149.0,51.0,1,1,1,37.651073
Status,0,30,12,1,6,1176450050,42.36,50.0,48.0,1,1,1,38.76055
Status,0,30,13,1,6,1575420030,45.55,50.0,48.0,1,1,1,41.94936
Status,0,30,14,6,30,1176450050,40.36,315.0,43.0,1,1,1,36.756077
Status,0,30,15,6,30,1575420030,44.08,315.0,43.0,1,1,1,40.475513
Status,0,30,16,1,24,1575420030,39.70,222.0,42.0,1,1,1,36.10335
Status,0,30,17,1,24,1176450050,39.56,222.0,42.0,1,1,1,35.962486
Status,0,30,18,3,24,1603124990,46.76,32.0,35.0,1,1,1,43.162983
Status,0,30,19,3,18,1600312450,40.23,234.0,32.0,1,1,1,36.63474
Status,0,30,20,1,25,1176450050,42.96,311.0,31.0,1,1,1,39.361324
Status,0,30,21,1,25,1575420030,43.98,311.0,31.0,1,1,1,40.378494
Status,0,30,22,1,19,1575420030,46.28,58.0,28.0,1,1,1,42.679996
Status,0,30,23,6,25,1575420030,40.55,123.0,28.0,1,1,1,36.952934
Status,0,30,24,6,25,1176450050,36.72,123.0,28.0,1,1,1,33.117035
Status,0,30,25,1,20,1575420030,40.57,145.0,23.0,1,1,1,36.96933
Status,0,30,26,6,11,1575420030,43.32,40.0,17.0,1,1,1,39.718704
Status,0,30,27,6,11,1176450050,35.52,40.0,17.0,1,1,1,31.923878
Status,0,30,28,3,16,1601437440,46.05,328.0,17.0,1,1,1,42.448776
Status,0,30,29,1,29,1575420030,46.25,261.0,12.0,1,1,1,42.652847
UncalGyro,1676594011101,31067923071325,-0.7425067,-1.3869696,-3.8169916,0.0006957208,-0.0013396677,-0.0003231709
UncalMag,1676594011102,31067924593532,-198.9576,774.9928,392.3642,-174.57417,771.0116,430.86337
UncalAccel,1676594011105,31067927308242,-0.081954174,-1.3076776,8.571689,0.037048545,-0.031444572,0.0098014325
OrientationDeg,1676594011105,31067927308242,78.0,-3.0,0.0
Fix,GPS,37.4313115548,-122.1550280848,-9.15442838027612,0.8669809,2.9346602,54.057568,1676594010999,0.09979865,180.0,31067819807000,3.0
UncalGyro,1676594011109,31067931550492,-0.7263188,-1.1349876,-3.7378845,0.0006957208,-0.0013396677,-0.0003231709
Raw,1676594010999,767043000000,,,-1360628461956688311,0.0,7.3587463270004,157.0,1.0,56,6,0.0,16431,434028928512219,12,45.54935836791992,454.4403767469141,0.15,16,322536.4109032616,340282346638528860000000000000000000000,1575420030,,,,0,,1,,41.94935989379883,0.320142130558394,1.0,0.320142130558394,1.0,C,31067819807000
Raw,1676594010999,767043000000,,,-1360628461956688311,0.0,7.3587463270004,157.0,1.0,56,11,0.0,16431,434028931495524,17,39.22838592529297,-88.4639384756012,0.15,16,-100387.11953891152,340282346638528860000000000000000000000,1575420030,,,,0,,1,,35.628387451171875,-0.20372681261465636,1.0,-0.20372681261465636,1.0,C,31067819807000
Raw,1676594010999,767043000000,,,-1360628461956688311,0.0,7.3587463270004,157.0,1.0,56,12,0.0,16431,434028930565992,13,42.02328872680664,-261.89170903357945,0.15,16,-218366.9851320527,340282346638528860000000000000000000000,1575420030,,,,0,,1,,38.42329025268555,-0.6984919076624261,1.0,-0.6984919076624261,1.0,C,31067819807000
Raw,1676594010999,767043000000,,,-1360628461956688311,0.0,7.3587463270004,157.0,1.0,56,19,0.0,16431,434028924257889,12,46.27999496459961,544.1796551837565,0.15,16,413596.90167797,340282346638528860000000000000000000000,1575420030,,,,0,,1,,42.679996490478516,0.0,1.0,0.0,1.0,C,31067819807000
Raw,1676594010999,767043000000,,,-1360628461956688311,0.0,7.3587463270004,157.0,1.0,56,20,0.0,16431,434028921651991,18,38.539894104003906,-510.63832582315877,0.15,16,-396019.54373377876,340282346638528860000000000000000000000,1575420030,,,,0,,1,,34.93989562988281,0.0,1.0,0.0,1.0,C,31067819807000
Raw,1676594010999,767043000000,,,-1360628461956688311,0.0,7.3587463270004,157.0,1.0,56,24,0.0,16431,434028926005242,26,34.03691482543945,517.8578762585596,0.581017548909609,16,374662.39909645694,340282346638528860000000000000000000000,1575420030,,,,1,,1,,30.436914443969727,-0.20372681261465636,1.0,-0.20372681261465636,1.0,C,31067819807000
Raw,1676594010999,767043000000,,,-1360628461956688311,0.0,7.3587463270004,157.0,1.0,56,25,0.0,16431,434028925223096,13,42.141944885253906,-507.8321467653532,0.15,16,-396695.18530330085,340282346638528860000000000000000000000,1575420030,,,,0,,1,,38.54194641113281,-2.0372682255564105,1.0,-2.0372682255564105,1.0,C,31067819807000
Raw,1676594010999,767043000000,,,-1360628461956688311,0.0,7.3587463270004,157.0,1.0,56,29,0.0,16419,434028917232085,25,34.36579513549805,-462.74899799804484,0.5682475447504101,16,-222028.0881624658,340282346638528860000000000000000000000,1575420030,,,,0,,1,,30.765796661376953,-0.6984919076624261,1.0,-0.6984919076624261,1.0,C,31067819807000
Raw,1676594010999,767043000000,,,-1360628461956688311,0.0,7.3587463270004,157.0,1.0,56,6,0.0,81921,434028928512741,6,42.36054992675781,454.40332911667383,0.15,16,323760.4670482873,340282346638528860000000000000000000000,1176450050,,,,0,,1,,38.76055145263672,1.9208527336454408,1.3596274981228016,1.9208527336454408,1.0,Q,31067819807000
Raw,1676594010999,767043000000,,,-1360628461956688311,0.0,7.3587463270004,157.0,1.0,56,11,0.0,81921,434028931496049,10,36.72029113769531,-88.3275916082817,0.15,16,-100960.6367693004,340282346638528860000000000000000000000,1176450050,,,,0,,1,,33.12029266357422,0.0,1.3596274981228016,0.0,1.0,Q,31067819807000
Raw,1676594010999,767043000000,,,-1360628461956688311,0.0,7.3587463270004,157.0,1.0,56,24,0.0,81921,434028926005763,6,39.03189468383789,516.9601443537488,0.15,16,374618.76400491723,340282346638528860000000000000000000000,1176450050,,,,0,,1,,35.4318962097168,3.5215636101095664,1.3596274981228016,3.5215636101095664,1.0,Q,31067819807000
Raw,1676594010999,767043000000,,,-1360628461956688311,0.0,7.3587463270004,157.0,1.0,56,25,0.0,81921,434028925223611,10,40.79802703857422,-508.14471697412387,0.15,16,-398246.6574987244,340282346638528860000000000000000000000,1176450050,,,,0,,1,,37.198028564453125,1.0186341127782053,1.3596274981228016,1.0186341127782053,1.0,Q,31067819807000
Raw,1676594010999,767043000000,,,-1360628461956688311,0.0,7.3587463270004,157.0,1.0,56,14,0.0,32995,12810932192574,40,37.48576354980469,548.5118762323709,0.15,16,387112.31278979033,340282346638528860000000000000000000000,1598062460,,,,1,,3,,33.885765075683594,52.1540641784668,2.0000000474974513,52.1540641784668,2.0000000474974513,C,31067819807000
Raw,1676594010999,767043000000,,,-1360628461956688311,0.0,7.3587463270004,157.0,1.0,56,18,0.0,32995,12810927967826,34,39.53165054321289,-501.21612847005827,0.15,16,-406334.25470210915,340282346638528860000000000000000000000,1600312450,,,,0,,3,,35.9316520690918,52.1540641784668,2.0000000474974513,52.1540641784668,2.0000000474974513,C,31067819807000
Raw,1676594010999,767043000000,,,-1360628461956688311,0.0,7.3587463270004,157.0,1.0,56,16,0.0,32867,12810923219507,33,45.632633209228516,-710.8162832642115,0.15,16,-548381.8066451445,340282346638528860000000000000000000000,1601437440,,,,0,,3,,42.03263473510742,52.1540641784668,2.0000000474974513,52.1540641784668,2.0000000474974513,C,31067819807000
Raw,1676594010999,767043000000,,,-1360628461956688311,0.0,7.3587463270004,157.0,1.0,56,15,0.0,32995,12810935039286,33,42.62110900878906,-206.46617066951126,0.15,16,-194456.9328746702,340282346638528860000000000000000000000,1602000000,,,,0,,3,,39.02111053466797,52.1540641784668,2.0000000474974513,52.1540641784668,2.0000000474974513,C,31067819807000
Raw,1676594010999,767043000000,,,-1360628461956688311,0.0,7.3587463270004,157.0,1.0,56,24,0.0,32995,12810928606979,33,42.43824768066406,665.4491253866986,0.15,16,499902.9354654563,340282346638528860000000000000000000000,1603124990,,,,0,,3,,38.83824920654297,52.1540641784668,2.0000000474974513,52.1540641784668,2.0000000474974513,C,31067819807000
Raw,1676594010999,767043000000,,,-1360628461956688311,0.0,7.3587463270004,157.0,1.0,56,17,0.0,32995,12810935785233,38,37.93428039550781,72.45920884073945,0.15,16,21559.003022266923,340282346638528860000000000000000000000,1604249980,,,,0,,3,,34.33428192138672,52.1540641784668,2.0000000474974513,52.1540641784668,2.0000000474974513,C,31067819807000
Raw,1676594010999,767043000000,,,-1360628461956688311,0.0,7.3587463270004,157.0,1.0,56,2,0.0,85026,434028921848539,16,40.15614318847656,102.09519140005682,0.15,16,63603.01685751147,340282346638528860000000000000000000000,1575420030,,,,0,,6,,36.55614471435547,-5.878973752260207,1.5000000237487257,-5.878973752260207,1.5000000237487257,C,31067819807000
Raw,1676594010999,767043000000,,,-1360628461956688311,0.0,7.3587463270004,157.0,1.0,56,11,0.0,85026,434028910152372,12,43.318702697753906,568.3578861708643,0.15,16,431588.66273446154,340282346638528860000000000000000000000,1575420030,,,,0,,6,,39.71870422363281,-5.878973752260207,1.5000000237487257,-5.878973752260207,1.5000000237487257,C,31067819807000
Raw,1676594010999,767043000000,,,-1360628461956688311,0.0,7.3587463270004,157.0,1.0,56,25,0.0,85026,434028912218873,16,40.30967330932617,464.66003541773534,0.15,16,347145.33382498135,340282346638528860000000000000000000000,1575420030,,,,0,,6,,36.70967483520508,-5.878973752260207,1.5000000237487257,-5.878973752260207,1.5000000237487257,C,31067819807000
Raw,1676594010999,767043000000,,,-1360628461956688311,0.0,7.3587463270004,157.0,1.0,56,30,0.0,85026,434028915331523,14,41.458885192871094,-334.3913311471408,0.15,16,-261165.96377219926,340282346638528860000000000000000000000,1575420030,,,,0,,6,,37.85888671875,-5.878973752260207,1.5000000237487257,-5.878973752260207,1.5000000237487257,C,31067819807000
Raw,1676594010999,767043000000,,,-1360628461956688311,0.0,7.3587463270004,157.0,1.0,56,34,0.0,85026,434028919130982,27,33.84694290161133,-303.51058059008324,0.5890433683150498,16,-250300.41035117974,340282346638528860000000000000000000000,1575420030,,,,1,,6,,30.2469425201416,-5.878973752260207,1.5000000237487257,-5.878973752260207,1.5000000237487257,C,31067819807000
Raw,1676594010999,767043000000,,,-1360628461956688311,0.0,7.3587463270004,157.0,1.0,56,36,0.0,85026,434028920673108,13,42.578670501708984,227.54680055431515,0.15,16,154329.42154982834,340282346638528860000000000000000000000,1575420030,,,,0,,6,,38.97867202758789,-5.878973752260207,1.5000000237487257,-5.878973752260207,1.5000000237487257,C,31067819807000
Raw,1676594010999,767043000000,,,-1360628461956688311,0.0,7.3587463270004,157.0,1.0,56,2,0.0,84003,434028921849064,7,37.67498016357422,101.81043247580874,0.15,16,63542.44038170502,340282346638528860000000000000000000000,1176450050,,,,0,,6,,34.074981689453125,-4.216632805764675,1.8596275218715272,-4.216632805764675,1.5000000237487257,Q,31067819807000
Raw,1676594010999,767043000000,,,-1360628461956688311,0.0,7.3587463270004,157.0,1.0,56,11,0.0,84003,434028910152883,6,35.52387619018555,567.9651881068085,0.5148965181785905,16,434360.1069416668,340282346638528860000000000000000000000,1176450050,,,,0,,6,,31.923877716064453,4.279776476323602,1.8596275218715272,4.279776476323602,1.5000000237487257,Q,31067819807000
Raw,1676594010999,767043000000,,,-1360628461956688311,0.0,7.3587463270004,157.0,1.0,56,25,0.0,84003,434028912219361,7,36.07898712158203,464.440646645098,0.15,16,347604.32167916594,340282346638528860000000000000000000000,1176450050,,,,0,,6,,32.47898864746094,-8.649541996419428,1.8596275218715272,-8.649541996419428,1.5000000237487257,Q,31067819807000
Raw,1676594010999,767043000000,,,-1360628461956688311,0.0,7.3587463270004,157.0,1.0,56,30,0.0,84003,434028915332019,6,40.356075286865234,-334.60533489164754,0.15,16,-261592.4579928254,340282346638528860000000000000000000000,1176450050,,,,0,,6,,36.75607681274414,-8.2801328971982,1.8596275218715272,-8.2801328971982,1.5000000237487257,Q,31067819807000
Raw,1676594010999,767043000000,,,-1360628461956688311,0.0,7.3587463270004,157.0,1.0,56,34,0.0,84003,434028919131639,6,34.88078689575195,-303.3637874498395,0.5454305383197506,16,-251030.36373513928,340282346638528860000000000000000000000,1176450050,,,,0,,6,,31.28078842163086,-9.942473843693731,1.8596275218715272,-9.942473843693731,1.5000000237487257,Q,31067819807000
Raw,1676594010999,767043000000,,,-1360628461956688311,0.0,7.3587463270004,157.0,1.0,56,36,0.0,84003,434028920673616,8,35.83812713623047,227.31156343939472,0.502657454787411,16,154524.42302272705,340282346638528860000000000000000000000,1176450050,,,,0,,6,,32.238128662109375,-10.865996591746804,1.8596275218715272,-10.865996591746804,1.5000000237487257,Q,31067819807000
UncalMag,1676594011112,31067934593531,-199.21379,774.29736,392.4496,-174.57417,771.0116,430.86337
UncalAccel,1676594011113,31067935789546,-0.07178468,-0.9056834,8.860622,0.037048545,-0.031444572,0.0098014325
UncalGyro,1676594011118,31067940031875,-0.733191,-0.8584184,-3.5989125,0.0006957208,-0.0013396677,-0.0003231709
OrientationDeg,1676594011113,31067935789546,80.0,-4.0,1.0
Fix,FLP,37.4312886000,-122.1550384000,-16.5,0.85805595,4.223,134.54181,1676594010787,,,31067609258391,2.3109734
UncalAccel,1676594011122,31067944270023,-0.15134603,-0.57607204,9.020942,0.037048545,-0.031444572,0.0098014325
OrientationDeg,1676594011122,31067944270023,81.0,-4.0,1.0
UncalMag,1676594011122,31067944586491,-198.9576,773.2726,393.0474,-174.57417,771.0116,430.86337
UncalGyro,1676594011126,31067948511784,-0.75487673,-0.6088799,-3.4150422,0.0006957208,-0.0013396677,-0.0003231709
UncalAccel,1676594011130,31067952750949,-0.35353956,-0.3379862,9.05145,0.037048545,-0.031444572,0.0098014325
OrientationDeg,1676594011130,31067952750949,83.0,-4.0,1.0
UncalMag,1676594011132,31067954593611,-199.592,773.3092,394.8896,-174.57417,771.0116,430.86337
UncalGyro,1676594011134,31067956992902,-0.7837401,-0.4184427,-3.2163582,0.0006957208,-0.0013396677,-0.0003231709
UncalAccel,1676594011139,31067961229882,-0.53599226,-0.18544376,9.020942,0.037048545,-0.031444572,0.0098014325
OrientationDeg,1676594011139,31067961229882,85.0,-5.0,1.0
UncalMag,1676594011142,31067964593814,-199.7262,772.748,393.6696,-174.57417,771.0116,430.86337
UncalGyro,1676594011143,31067965464389,-0.8078693,-0.29031372,-3.0219505,0.0006957208,-0.0013396677,-0.0003231709
UncalAccel,1676594011147,31067969713676,-0.7956135,-0.11066805,9.11486,0.037048545,-0.031444572,0.0098014325
OrientationDeg,1676594011147,31067969713676,86.0,-5.0,2.0
UncalGyro,1676594011151,31067973955141,-0.82451534,-0.183565,-2.8420506,0.0006957208,-0.0013396677,-0.0003231709
UncalMag,1676594011153,31067974594383,-200.3972,772.0404,393.633,-174.57417,771.0116,430.86337
UncalAccel,1676594011156,31067978196982,-1.1036894,-0.098703936,9.4229355,0.037048545,-0.031444572,0.0098014325
OrientationDeg,1676594011156,31067978196982,87.0,-5.0,2.0
UncalGyro,1676594011160,31067982436341,-0.8344419,-0.062308256,-2.6745207,0.0006957208,-0.0013396677,-0.0003231709
UncalMag,1676594011162,31067984582989,-200.18979,772.138,394.0112,-174.57417,771.0116,430.86337
UncalAccel,1676594011164,31067986676189,-1.5559329,0.013160525,9.638887,0.037048545,-0.031444572,0.0098014325
OrientationDeg,1676594011164,31067986676189,89.0,-5.0,2.0
UncalGyro,1676594011168,31067990917176,-0.8335256,0.05390886,-2.5219572,0.0006957208,-0.0013396677,-0.0003231709
UncalMag,1676594011172,31067994583192,-200.019,771.3572,393.8282,-174.57417,771.0116,430.86337
UncalAccel,1676594011173,31067995157196,-2.0685952,0.23509483,9.634701,0.037048545,-0.031444572,0.0098014325
OrientationDeg,1676594011173,31067995157196,90.0,-5.0,2.0
UncalGyro,1676594011177,31067999399302,-0.81122905,0.12858713,-2.3813055,0.0006957208,-0.0013396677,-0.0003231709
UncalAccel,1676594011181,31068003638254,-2.5178475,0.587438,9.3816595,0.037048545,-0.031444572,0.0098014325
UncalMag,1676594011182,31068004582947,-199.6042,771.2718,393.6696,-174.57417,771.0116,430.86337
OrientationDeg,1676594011181,31068003638254,91.0,-5.0,3.0
UncalGyro,1676594011185,31068007880492,-0.7713701,0.1386664,-2.2479842,0.0006957208,-0.0013396677,-0.0003231709
UncalAccel,1676594011190,31068012118641,-2.824727,0.88235337,9.268599,0.037048545,-0.031444572,0.0098014325
OrientationDeg,1676594011190,31068012118641,92.0,-5.0,3.0
UncalMag,1676594011192,31068014593688,-199.7628,770.5032,394.3406,-174.57417,771.0116,430.86337
UncalGyro,1676594011194,31068016359364,-0.7298313,0.11575896,-2.1012237,0.0006957208,-0.0013396677,-0.0003231709
UncalAccel,1676594011198,31068020595671,-3.0825539,1.0295119,9.041879,0.037048545,-0.031444572,0.0098014325
OrientationDeg,1676594011198,31068020595671,93.0,-5.0,3.0
UncalMag,1676594011202,31068024593769,-200.202,770.1372,393.9014,-174.57417,771.0116,430.86337
UncalGyro,1676594011202,31068024839862,-0.6937902,0.07070765,-1.9300288,0.0006957208,-0.0013396677,-0.0003231709
UncalAccel,1676594011207,31068029074308,-3.3194432,1.1485549,8.715259,0.037048545,-0.031444572,0.0098014325
OrientationDeg,1676594011207,31068029074308,94.0,-5.0,3.0
UncalGyro,1676594011211,31068033320737,-0.66752297,0.014966198,-1.7369953,0.0006957208,-0.0013396677,-0.0003231709
UncalMag,1676594011212,31068034604958,-199.68959,769.9054,394.4382,-174.57417,771.0116,430.86337
UncalAccel,1676594011215,31068037558885,-3.5156546,1.3052847,8.627322,0.037048545,-0.031444572,0.0098014325
OrientationDeg,1676594011215,31068037558885,95.0,-5.0,4.0
UncalGyro,1676594011219,31068041803840,-0.6800457,-0.028863383,-1.5173893,0.0006957208,-0.0013396677,-0.0003231709
UncalMag,1676594011222,31068044593482,-199.10399,769.2832,394.03558,-174.57417,771.0116,430.86337
UncalAccel,1676594011224,31068046043606,-3.699902,1.4955142,8.7679,0.037048545,-0.031444572,0.0098014325
OrientationDeg,1676594011224,31068046043606,96.0,-5.0,4.0
UncalGyro,1676594011228,31068050285600,-0.7502952,-0.05375614,-1.2586879,0.0006957208,-0.0013396677,-0.0003231709
UncalAccel,1676594011232,31068054524634,-3.8380876,1.6342978,8.642277,0.037048545,-0.031444572,0.0098014325
UncalMag,1676594011232,31068054583024,-199.82379,769.454,394.08438,-174.57417,771.0116,430.86337
OrientationDeg,1676594011232,31068054524634,96.0,-5.0,4.0
UncalGyro,1676594011236,31068058765926,-0.86590147,-0.09514226,-0.9613492,0.0006957208,-0.0013396677,-0.0003231709
UncalAccel,1676594011241,31068063005733,-3.9212382,1.7204394,8.216953,0.037048545,-0.031444572,0.0098014325
UncalMag,1676594011242,31068064582902,-199.4944,769.7224,394.1454,-174.57417,771.0116,430.86337
OrientationDeg,1676594011241,31068063005733,97.0,-5.0,5.0
UncalGyro,1676594011245,31068067248143,-1.0147998,-0.17501289,-0.65225136,0.0006957208,-0.0013396677,-0.0003231709
UncalAccel,1676594011249,31068071483017,-5.1756754,1.5655042,7.2215385,0.037048545,-0.031444572,0.0098014325
OrientationDeg,1676594011249,31068071483017,97.0,-5.0,5.0
UncalMag,1676594011252,31068074593643,-199.21379,769.22217,394.6212,-174.57417,771.0116,430.86337
UncalGyro,1676594011253,31068075714594,-0.8231409,-0.41783184,-0.13271047,0.0006957208,-0.0013396677,-0.0003231709
UncalAccel,1676594011257,31068079967116,-17.238493,-0.6011967,26.586653,0.037048545,-0.031444572,0.0098014325
OrientationDeg,1676594011257,31068079967116,96.0,-5.0,5.0
UncalGyro,1676594011262,31068084212142,2.3199134,-1.0797043,1.981036,0.0006957208,-0.0013396677,-0.0003231709
UncalMag,1676594011262,31068084593398,-199.653,770.6252,395.4508,-174.57417,771.0116,430.86337
UncalAccel,1676594011266,31068088464389,-12.917653,5.494519,12.517453,0.037048545,-0.031444572,0.0098014325
OrientationDeg,1676594011266,31068088464389,95.0,-6.0,3.0
UncalGyro,1676594011270,31068092689579,3.4268012,-3.09052,3.3370042,0.0006957208,-0.0013396677,-0.0003231709
UncalMag,1676594011272,31068094603244,-199.592,769.9176,394.8042,-174.57417,771.0116,430.86337
UncalAccel,1676594011274,31068096926995,-3.9146578,7.4937224,13.456636,0.037048545,-0.031444572,0.0098014325
OrientationDeg,1676594011274,31068096926995,93.0,-8.0,2.0
UncalGyro,1676594011279,31068101169233,3.3366988,-3.095865,3.285844,0.0006957208,-0.0013396677,-0.0003231709
UncalMag,1676594011282,31068104590589,-201.67819,769.9786,395.4752,-174.57417,771.0116,430.86337
UncalAccel,1676594011283,31068105412315,1.227518,12.643675,12.308082,0.037048545,-0.031444572,0.0098014325
OrientationDeg,1676594011283,31068105412315,91.0,-9.0,0.0
UncalGyro,1676594011287,31068109659131,2.8301387,-2.339614,2.1755965,0.0006957208,-0.0013396677,-0.0003231709
UncalAccel,1676594011291,31068113891653,3.8380876,10.943574,7.2502527,0.037048545,-0.031444572,0.0098014325
UncalMag,1676594011293,31068114595593,-203.3496,770.06396,396.62198,-174.57417,771.0116,430.86337
OrientationDeg,1676594011291,31068113891653,90.0,-10.0,0.0
UncalGyro,1676594011296,31068118133210,1.883603,-2.0813706,1.0031935,0.0006957208,-0.0013396677,-0.0003231709
UncalAccel,1676594011300,31068122371369,4.430909,6.6999035,6.4211397,0.037048545,-0.031444572,0.0098014325
OrientationDeg,1676594011300,31068122371369,90.0,-11.0,0.0
UncalMag,1676594011302,31068124593558,-204.9478,769.6004,396.5488,-174.57417,771.0116,430.86337
UncalGyro,1676594011304,31068126611960,0.8038987,-1.9016235,0.15134187,0.0006957208,-0.0013396677,-0.0003231709
UncalAccel,1676594011308,31068130843659,3.1405797,3.4247274,6.625128,0.037048545,-0.031444572,0.0098014325
OrientationDeg,1676594011308,31068130843659,90.0,-12.0,0.0
UncalMag,1676594011312,31068134593679,-204.9478,769.6004,396.5488,-174.57417,771.0116,430.86337
UncalGyro,1676594011313,31068135094086,-0.10369437,-1.5060883,-0.36636642,0.0006957208,-0.0013396677,-0.0003231709
UncalAccel,1676594011317,31068139324706,2.0632114,2.2025933,5.7655063,0.037048545,-0.031444572,0.0098014325
OrientationDeg,1676594011317,31068139324706,90.0,-12.0,0.0
UncalGyro,1676594011321,31068143580383,-0.79045963,-1.0946705,-0.7069238,0.0006957208,-0.0013396677,-0.0003231709
UncalMag,1676594011322,31068144582936,-204.7648,769.1368,398.6228,-174.57417,771.0116,430.86337
UncalAccel,1676594011325,31068147816028,2.0171494,0.4971089,5.4873405,0.037048545,-0.031444572,0.0098014325
OrientationDeg,1676594011325,31068147816028,91.0,-13.0,0.0
UncalGyro,1676594011330,31068152059457,-1.2791518,-0.71761394,-0.9976957,0.0006957208,-0.0013396677,-0.0003231709
UncalMag,1676594011332,31068154593556,-205.692,769.4662,398.47638,-174.57417,771.0116,430.86337
UncalAccel,1676594011335,31068156293974,3.4941192,-4.2454658,8.270193,0.037048545,-0.031444572,0.0098014325
OrientationDeg,1676594011334,31068156293974,92.0,-13.0,0.0
UncalGyro,1676594011338,31068160540841,-1.3564262,0.13576481,-1.0845913,0.0006957208,-0.0013396677,-0.0003231709
UncalMag,1676594011342,31068164593392,-206.7656,769.00256,398.26898,-174.57417,771.0116,430.86337
UncalAccel,1676594011342,31068164785205,3.141178,-6.611369,6.619146,0.037048545,-0.031444572,0.0098014325
OrientationDeg,1676594011342,31068164785205,92.0,-13.0,0.0
UncalGyro,1676594011347,31068169015398,-1.3837625,0.45937067,-0.9611965,0.0006957208,-0.0013396677,-0.0003231709
UncalAccel,1676594011351,31068173259600,1.8406788,-9.09153,3.8931224,0.037048545,-0.031444572,0.0098014325
UncalMag,1676594011353,31068174583260,-205.59439,769.2954,398.4398,-174.57417,771.0116,430.86337
OrientationDeg,1676594011351,31068173259600,93.0,-13.0,1.0
UncalGyro,1676594011355,31068177499030,-1.3897184,0.08109236,-0.50625455,0.0006957208,-0.0013396677,-0.0003231709
UncalAccel,1676594011359,31068181740578,3.4983068,-6.966703,5.8211393,0.037048545,-0.031444572,0.0098014325
OrientationDeg,1676594011359,31068181740578,93.0,-13.0,2.0
UncalMag,1676594011362,31068184593431,-205.30159,768.9538,398.4642,-174.57417,771.0116,430.86337
UncalGyro,1676594011363,31068185976701,-1.1612549,-0.13515393,-0.20937407,0.0006957208,-0.0013396677,-0.0003231709
UncalAccel,1676594011368,31068190221655,4.9118667,-4.6965127,8.32463,0.037048545,-0.031444572,0.0098014325
OrientationDeg,1676594011368,31068190221655,93.0,-13.0,2.0
UncalGyro,1676594011372,31068194462967,-0.77014834,0.1301143,0.012370021,0.0006957208,-0.0013396677,-0.0003231709
UncalMag,1676594011372,31068194596157,-205.7408,770.247,398.1836,-174.57417,771.0116,430.86337
UncalAccel,1676594011376,31068198703425,5.6416774,-2.4939194,8.991031,0.037048545,-0.031444572,0.0098014325
OrientationDeg,1676594011376,31068198703425,93.0,-13.0,2.0
UncalGyro,1676594011380,31068202942052,-0.2742785,0.7667886,0.18875736,0.0006957208,-0.0013396677,-0.0003231709
UncalMag,1676594011382,31068204580368,-205.3382,770.06396,397.7688,-174.57417,771.0116,430.86337
UncalAccel,1676594011385,31068207184056,6.960721,-1.1443675,8.758329,0.037048545,-0.031444572,0.0098014325
OrientationDeg,1676594011385,31068207184056,93.0,-12.0,2.0
UncalGyro,1676594011389,31068211426386,0.32238412,1.4785993,0.50579643,0.0006957208,-0.0013396677,-0.0003231709
UncalMag,1676594011392,31068214593551,-205.43579,770.2226,397.31738,-174.57417,771.0116,430.86337
UncalAccel,1676594011393,31068215662937,7.0618176,0.77347994,7.990233,0.037048545,-0.031444572,0.0098014325
OrientationDeg,1676594011393,31068215662937,93.0,-11.0,2.0
UncalGyro,1676594011397,31068219896590,1.024421,2.0625865,0.84864455,0.0006957208,-0.0013396677,-0.0003231709
UncalAccel,1676594011402,31068224142511,6.0687966,0.8554341,7.019943,0.037048545,-0.031444572,0.0098014325
UncalMag,1676594011402,31068224598108,-203.6668,769.9786,396.8538,-174.57417,771.0116,430.86337
OrientationDeg,1676594011402,31068224142511,92.0,-10.0,2.0
UncalGyro,1676594011406,31068228387433,1.7099645,2.2828035,1.0473285,0.0006957208,-0.0013396677,-0.0003231709
UncalAccel,1676594011410,31068232629478,3.5216367,0.37447673,7.134799,0.037048545,-0.031444572,0.0098014325
OrientationDeg,1676594011410,31068232629478,91.0,-9.0,1.0
UncalMag,1676594011412,31068234593631,-203.1544,769.7102,396.1706,-174.57417,771.0116,430.86337
UncalGyro,1676594011414,31068236870281,2.1429152,1.7970128,0.89949906,0.0006957208,-0.0013396677,-0.0003231709
UncalAccel,1676594011419,31068241107994,0.72442704,2.5878377,8.012965,0.037048545,-0.031444572,0.0098014325
OrientationDeg,1676594011419,31068241107994,91.0,-8.0,0.0
UncalMag,1676594011422,31068244593590,-202.7762,769.1978,396.2804,-174.57417,771.0116,430.86337
UncalGyro,1676594011423,31068245349622,2.2004893,0.75426584,0.4268421,0.0006957208,-0.0013396677,-0.0003231709
UncalAccel,1676594011427,31068249588849,-1.0241281,5.916852,10.457233,0.037048545,-0.031444572,0.0098014325
OrientationDeg,1676594011427,31068249588849,91.0,-8.0,0.0
UncalGyro,1676594011431,31068253830740,1.9123137,-0.34101552,-0.36651915,0.0006957208,-0.0013396677,-0.0003231709
UncalMag,1676594011432,31068254583335,-203.0202,768.47797,395.6338,-174.57417,771.0116,430.86337
UncalAccel,1676594011436,31068258070242,-2.7798617,7.274779,10.859227,0.037048545,-0.031444572,0.0098014325
OrientationDeg,1676594011436,31068258070242,91.0,-9.0,-1.0
UncalGyro,1676594011440,31068262311737,1.4488196,-1.0285443,-1.3466524,0.0006957208,-0.0013396677,-0.0003231709
UncalMag,1676594011442,31068264593507,-203.9108,767.63617,397.1466,-174.57417,771.0116,430.86337
UncalAccel,1676594011444,31068266551473,-1.5320047,5.988637,11.231311,0.037048545,-0.031444572,0.0098014325
OrientationDeg,1676594011444,31068266551473,92.0,-9.0,-2.0
UncalGyro,1676594011448,31068270793833,0.90041536,-1.0177015,-2.159256,0.0006957208,-0.0013396677,-0.0003231709
UncalMag,1676594011452,31068274593628,-203.5692,766.5016,397.11,-174.57417,771.0116,430.86337
UncalAccel,1676594011453,31068275029642,1.230509,2.5387847,10.707881,0.037048545,-0.031444572,0.0098014325
OrientationDeg,1676594011453,31068275029642,93.0,-10.0,-3.0
UncalGyro,1676594011457,31068279263539,0.30970868,-0.5216789,-2.4799602,0.0006957208,-0.0013396677,-0.0003231709
UncalAccel,1676594011461,31068283509256,2.681756,-0.58504516,10.737792,0.037048545,-0.031444572,0.0098014325
UncalMag,1676594011462,31068284583129,-203.92299,765.9038,397.5858,-174.57417,771.0116,430.86337
OrientationDeg,1676594011461,31068283509256,94.0,-10.0,-3.0
UncalGyro,1676594011465,31068287751921,-0.24174993,0.1085813,-2.2446244,0.0006957208,-0.0013396677,-0.0003231709
UncalAccel,1676594011469,31068291996845,3.6957145,-2.6913273,10.960324,0.037048545,-0.031444572,0.0098014325
OrientationDeg,1676594011469,31068291996845,95.0,-9.0,-3.0
UncalMag,1676594011472,31068294583088,-203.3008,765.70856,396.4268,-174.57417,771.0116,430.86337
UncalGyro,1676594011474,31068296236683,-0.68844515,0.61254513,-1.6015359,0.0006957208,-0.0013396677,-0.0003231709
UncalAccel,1676594011478,31068300476591,4.4967117,-3.1525438,11.569298,0.037048545,-0.031444572,0.0098014325
OrientationDeg,1676594011478,31068300476591,96.0,-9.0,-2.0
UncalMag,1676594011482,31068304586953,-202.8982,765.367,396.3414,-174.57417,771.0116,430.86337
UncalGyro,1676594011482,31068304718350,-1.0413725,0.95737857,-0.8752172,0.0006957208,-0.0013396677,-0.0003231709
UncalAccel,1676594011486,31068308958249,4.499703,-2.8612177,12.230913,0.037048545,-0.031444572,0.0098014325
OrientationDeg,1676594011486,31068308958249,96.0,-8.0,-2.0
UncalGyro,1676594011491,31068313198065,-1.3074044,1.1566733,-0.34956762,0.0006957208,-0.0013396677,-0.0003231709
UncalMag,1676594011492,31068314593544,-202.36139,765.6964,395.3166,-174.57417,771.0116,430.86337
UncalAccel,1676594011495,31068317437293,3.7950168,-2.1966112,13.263416,0.037048545,-0.031444572,0.0098014325
OrientationDeg,1676594011495,31068317437293,96.0,-8.0,-1.0
UncalGyro,1676594011499,31068321678921,-1.4625641,1.3965907,-0.07162395,0.0006957208,-0.0013396677,-0.0003231709
UncalMag,1676594011502,31068324593502,-202.2272,766.0624,395.8778,-174.57417,771.0116,430.86337
UncalAccel,1676594011503,31068325915920,3.3589249,-1.4715859,13.557734,0.037048545,-0.031444572,0.0098014325
OrientationDeg,1676594011503,31068325915920,96.0,-7.0,0.0
UncalGyro,1676594011508,31068330149817,-1.4570663,1.7446312,0.07009678,0.0006957208,-0.0013396677,-0.0003231709
UncalAccel,1676594011512,31068334400070,3.2237303,-1.1407782,12.829717,0.037048545,-0.031444572,0.0098014325
UncalMag,1676594011512,31068334599117,-201.6538,766.8066,394.35278,-174.57417,771.0116,430.86337
OrientationDeg,1676594011512,31068334400070,96.0,-6.0,0.0
UncalGyro,1676594011516,31068338639725,-1.3012956,2.118786,0.16539176,0.0006957208,-0.0013396677,-0.0003231709
UncalAccel,1676594011520,31068342873224,2.7732813,-1.0456635,11.566306,0.037048545,-0.031444572,0.0098014325
UncalMag,1676594011522,31068344583084,-200.03119,767.807,394.426,-174.57417,771.0116,430.86337
OrientationDeg,1676594011520,31068342873224,96.0,-5.0,0.0
UncalGyro,1676594011525,31068347123295,-1.0535898,2.4090998,0.24694228,0.0006957208,-0.0013396677,-0.0003231709
UncalAccel,1676594011529,31068351360997,2.2552354,-1.0175478,9.835099,0.037048545,-0.031444572,0.0098014325
OrientationDeg,1676594011529,31068351360997,96.0,-4.0,0.0
UncalMag,1676594011532,31068354593825,-199.592,768.1242,393.40118,-174.57417,771.0116,430.86337
UncalGyro,1676594011533,31068355603102,-0.80573124,2.5054638,0.3051272,0.0006957208,-0.0013396677,-0.0003231709
UncalAccel,1676594011537,31068359841455,1.9830518,-0.95832545,7.8574314,0.037048545,-0.031444572,0.0098014325
OrientationDeg,1676594011537,31068359841455,96.0,-3.0,1.0
UncalGyro,1676594011542,31068364079085,-0.65179324,2.3397665,0.36163223,0.0006957208,-0.0013396677,-0.0003231709
UncalMag,1676594011542,31068364586704,-198.433,768.2096,392.3032,-174.57417,771.0116,430.86337
UncalAccel,1676594011546,31068368324903,1.7928224,-0.8997013,6.361917,0.037048545,-0.031444572,0.0098014325
OrientationDeg,1676594011546,31068368324903,96.0,-2.0,1.0
UncalGyro,1676594011550,31068372566774,-0.6178902,1.9226984,0.43096542,0.0006957208,-0.0013396677,-0.0003231709
UncalMag,1676594011552,31068374593580,-197.9206,768.112,391.7908,-174.57417,771.0116,430.86337
UncalAccel,1676594011554,31068376806460,1.2765709,-0.80757767,6.897311,0.037048545,-0.031444572,0.0098014325
OrientationDeg,1676594011554,31068376806460,96.0,-1.0,1.0
UncalGyro,1676594011559,31068381046612,-0.72418076,1.5167783,0.5152648,0.0006957208,-0.0013396677,-0.0003231709
UncalMag,1676594011562,31068384593701,-197.2496,768.7342,391.91278,-174.57417,771.0116,430.86337
UncalAccel,1676594011563,31068385285941,0.6149554,-0.3397808,8.045866,0.037048545,-0.031444572,0.0098014325
OrientationDeg,1676594011563,31068385285941,95.0,0.0,2.0
UncalGyro,1676594011567,31068389527823,-0.9092729,1.1392636,0.57558775,0.0006957208,-0.0013396677,-0.0003231709
UncalAccel,1676594011571,31068393764822,0.3894319,-0.22612174,8.082356,0.037048545,-0.031444572,0.0098014325
UncalMag,1676594011572,31068394583040,-196.5054,769.00256,391.4736,-174.57417,771.0116,430.86337
OrientationDeg,1676594011571,31068393764822,95.0,0.0,2.0
UncalGyro,1676594011575,31068397998516,-1.1360567,0.68203104,0.6113234,0.0006957208,-0.0013396677,-0.0003231709
UncalAccel,1676594011580,31068402248596,0.4648058,-0.22492532,7.6337023,0.037048545,-0.031444572,0.0098014325
UncalMag,1676594011582,31068404582835,-196.5542,769.8688,391.32718,-174.57417,771.0116,430.86337
OrientationDeg,1676594011580,31068402248596,95.0,0.0,3.0
UncalGyro,1676594011584,31068406489991,-1.3831517,0.19226983,0.6227771,0.0006957208,-0.0013396677,-0.0003231709
UncalAccel,1676594011588,31068410731547,0.503091,-0.3062813,7.672586,0.037048545,-0.031444572,0.0098014325
OrientationDeg,1676594011588,31068410731547,94.0,0.0,4.0
UncalMag,1676594011592,31068414576243,-197.04219,770.38116,391.2174,-174.57417,771.0116,430.86337
UncalGyro,1676594011592,31068414966085,-1.6404786,-0.23472497,0.60154957,0.0006957208,-0.0013396677,-0.0003231709
UncalAccel,1676594011597,31068419199919,0.57427746,-0.4546363,7.8221374,0.037048545,-0.031444572,0.0098014325
OrientationDeg,1676594011597,31068419199919,94.0,0.0,5.0
UncalGyro,1676594011601,31068423452330,-1.9052887,-0.5868888,0.55680364,0.0006957208,-0.0013396677,-0.0003231709
UncalMag,1676594011602,31068424592803,-196.6396,771.7964,391.6688,-174.57417,771.0116,430.86337
UncalAccel,1676594011605,31068427692279,0.4959125,-0.59940207,8.170891,0.037048545,-0.031444572,0.0098014325
OrientationDeg,1676594011605,31068427692279,94.0,0.0,6.0
Fix,FLP,37.4312882000,-122.1550337000,-16.5,0.84955156,4.198,136.3825,1676594011296,,,31068118133210,2.3109734
UncalGyro,1676594011609,31068431935941,-2.1766655,-0.86544335,0.49754974,0.0006957208,-0.0013396677,-0.0003231709
UncalMag,1676594011612,31068434593494,-197.03,772.39417,391.5712,-174.57417,771.0116,430.86337
UncalAccel,1676594011614,31068436172910,0.3924229,-0.6771688,8.671589,0.037048545,-0.031444572,0.0098014325
OrientationDeg,1676594011614,31068436172910,94.0,0.0,7.0
UncalGyro,1676594011618,31068440415271,-2.448806,-1.0458013,0.43096542,0.0006957208,-0.0013396677,-0.0003231709
UncalMag,1676594011622,31068444593615,-197.06659,773.4678,392.6814,-174.57417,771.0116,430.86337
UncalAccel,1676594011622,31068444650978,0.16570297,-0.53359944,10.72164,0.037048545,-0.031444572,0.0098014325
OrientationDeg,1676594011622,31068444650978,94.0,-1.0,8.0
UncalGyro,1676594011626,31068448880999,-2.503631,-0.6800457,0.31566462,0.0006957208,-0.0013396677,-0.0003231709
UncalAccel,1676594011631,31068453118964,0.5449654,0.2548356,18.872192,0.037048545,-0.031444572,0.0098014325
UncalMag,1676594011632,31068454583035,-197.3106,774.6756,392.1324,-174.57417,771.0116,430.86337
OrientationDeg,1676594011631,31068453118964,93.0,-1.0,9.0
UncalGyro,1676594011635,31068457373765,-1.6184875,0.25518894,0.09712757,0.0006957208,-0.0013396677,-0.0003231709
UncalAccel,1676594011639,31068461608364,1.5236298,0.25962126,8.282756,0.037048545,-0.031444572,0.0098014325
OrientationDeg,1676594011639,31068461608364,94.0,-1.0,10.0
UncalMag,1676594011642,31068464593532,-197.9206,775.0172,392.474,-174.57417,771.0116,430.86337
UncalGyro,1676594011643,31068465861334,-1.0833695,-0.259465,-0.1563815,0.0006957208,-0.0013396677,-0.0003231709
UncalAccel,1676594011648,31068470097204,1.1952149,-0.651446,10.647463,0.037048545,-0.031444572,0.0098014325
OrientationDeg,1676594011648,31068470097204,94.0,-1.0,10.0
UncalGyro,1676594011652,31068474342300,-0.5833763,-0.1881465,-0.33017266,0.0006957208,-0.0013396677,-0.0003231709
UncalMag,1676594011652,31068474582830,-198.616,775.432,392.33978,-174.57417,771.0116,430.86337
UncalAccel,1676594011656,31068478578638,1.5086746,-1.4548361,10.858629,0.037048545,-0.031444572,0.0098014325
OrientationDeg,1676594011656,31068478578638,94.0,-1.0,10.0
UncalGyro,1676594011660,31068482818180,-0.056505036,0.082161374,-0.4822781,0.0006957208,-0.0013396677,-0.0003231709
UncalMag,1676594011662,31068484593449,-197.5302,776.1518,392.12018,-174.57417,771.0116,430.86337
UncalAccel,1676594011665,31068487048740,1.7395821,-1.7868403,9.649655,0.037048545,-0.031444572,0.0098014325
OrientationDeg,1676594011665,31068487048740,94.0,-1.0,10.0
UncalGyro,1676594011669,31068491300572,0.399964,0.20463985,-0.60048056,0.0006957208,-0.0013396677,-0.0003231709
UncalMag,1676594011672,31068494593530,-197.99379,775.34656,392.07138,-174.57417,771.0116,430.86337
UncalAccel,1676594011673,31068495539910,1.439881,-2.0985055,9.043075,0.037048545,-0.031444572,0.0098014325
OrientationDeg,1676594011673,31068495539910,94.0,-1.0,10.0
UncalGyro,1676594011677,31068499784366,0.74021596,0.10064005,-0.6711882,0.0006957208,-0.0013396677,-0.0003231709
UncalAccel,1676594011682,31068504019157,0.8554341,-2.059622,9.096315,0.037048545,-0.031444572,0.0098014325
UncalMag,1676594011682,31068504582950,-197.70099,775.005,392.0958,-174.57417,771.0116,430.86337
OrientationDeg,1676594011682,31068504019157,95.0,-1.0,9.0
UncalGyro,1676594011686,31068508253980,0.9622655,-0.09208794,-0.7171558,0.0006957208,-0.0013396677,-0.0003231709
UncalAccel,1676594011690,31068512502281,0.3152544,-1.8143578,9.549755,0.037048545,-0.031444572,0.0098014325
OrientationDeg,1676594011690,31068512502281,95.0,-1.0,9.0
UncalMag,1676594011692,31068514584170,-198.3476,774.8464,392.6814,-174.57417,771.0116,430.86337
UncalGyro,1676594011694,31068516743939,1.0711522,-0.24266621,-0.75502944,0.0006957208,-0.0013396677,-0.0003231709
UncalAccel,1676594011698,31068520985537,0.13519448,-1.5858432,9.829117,0.037048545,-0.031444572,0.0098014325
OrientationDeg,1676594011698,31068520985537,96.0,-2.0,8.0
UncalMag,1676594011702,31068524593569,-197.78639,773.602,391.64438,-174.57417,771.0116,430.86337
UncalGyro,1676594011704,31068525224855,1.0789407,-0.3585779,-0.7787005,0.0006957208,-0.0013396677,-0.0003231709
UncalAccel,1676594011707,31068529464397,0.06819545,-1.3752748,9.670592,0.037048545,-0.031444572,0.0098014325
OrientationDeg,1676594011707,31068529464397,96.0,-2.0,8.0
UncalGyro,1676594011711,31068533706014,1.0442741,-0.48716503,-0.7837401,0.0006957208,-0.0013396677,-0.0003231709
UncalMag,1676594011712,31068534583151,-198.2256,773.33356,391.8274,-174.57417,771.0116,430.86337
UncalAccel,1676594011715,31068537945964,0.2727818,-1.0289137,9.526425,0.037048545,-0.031444572,0.0098014325
OrientationDeg,1676594011715,31068537945964,96.0,-2.0,7.0
UncalGyro,1676594011720,31068542187378,1.0170907,-0.58032197,-0.7996226,0.0006957208,-0.0013396677,-0.0003231709
UncalMag,1676594011722,31068544593567,-197.9328,773.12616,393.23038,-174.57417,771.0116,430.86337
UncalAccel,1676594011724,31068546423767,0.6358926,-0.83030945,9.446864,0.037048545,-0.031444572,0.0098014325
UncalGyro,1676594011728,31068550669168,0.9816604,-0.6282749,-0.80771655,0.0006957208,-0.0013396677,-0.0003231709
OrientationDeg,1676594011724,31068546423767,97.0,-2.0,7.0
UncalMag,1676594011732,31068554593444,-198.3964,772.2356,393.02298,-174.57417,771.0116,430.86337
UncalAccel,1676594011732,31068554904805,0.8709874,-1.0971092,9.526425,0.037048545,-0.031444572,0.0098014325
OrientationDeg,1676594011732,31068554904805,97.0,-3.0,6.0
UncalGyro,1676594011737,31068559139230,0.9127854,-0.6407976,-0.77763146,0.0006957208,-0.0013396677,-0.0003231709
UncalAccel,1676594011741,31068563388243,1.0007981,-1.3603196,9.643075,0.037048545,-0.031444572,0.0098014325
UncalMag,1676594011742,31068564581318,-198.7502,771.6256,393.13278,-174.57417,771.0116,430.86337
OrientationDeg,1676594011741,31068563388243,97.0,-3.0,6.0
UncalGyro,1676594011745,31068567630053,0.8168796,-0.6488916,-0.72784597,0.0006957208,-0.0013396677,-0.0003231709
UncalAccel,1676594011749,31068571872576,1.0570294,-1.4033905,9.82493,0.037048545,-0.031444572,0.0098014325
OrientationDeg,1676594011749,31068571872576,98.0,-4.0,5.0
UncalMag,1676594011752,31068574593646,-199.1284,770.6496,393.02298,-174.57417,771.0116,430.86337
UncalGyro,1676594011754,31068576112536,0.70173144,-0.655153,-0.69058317,0.0006957208,-0.0013396677,-0.0003231709
UncalAccel,1676594011758,31068580351020,0.9828519,-1.4470595,10.158729,0.037048545,-0.031444572,0.0098014325
OrientationDeg,1676594011758,31068580351020,98.0,-4.0,5.0
UncalGyro,1676594011762,31068584589576,0.5514586,-0.59742624,-0.63056564,0.0006957208,-0.0013396677,-0.0003231709
UncalMag,1676594011762,31068584592547,-198.8844,771.1864,393.389,-174.57417,771.0116,430.86337
UncalAccel,1676594011766,31068588820197,0.8991031,-1.7395821,10.068997,0.037048545,-0.031444572,0.0098014325
OrientationDeg,1676594011766,31068588820197,98.0,-4.0,5.0
UncalGyro,1676594011771,31068593074316,0.38133264,-0.53985214,-0.50823987,0.0006957208,-0.0013396677,-0.0003231709
UncalMag,1676594011772,31068594593604,-199.8848,770.1982,393.0596,-174.57417,771.0116,430.86337
UncalAccel,1676594011775,31068597316331,1.7856439,-1.0301101,9.994821,0.037048545,-0.031444572,0.0098014325
OrientationDeg,1676594011775,31068597316331,98.0,-4.0,5.0
UncalGyro,1676594011779,31068601556606,0.3231477,-0.5019785,-0.5158757,0.0006957208,-0.0013396677,-0.0003231709
UncalMag,1676594011782,31068604593685,-199.897,770.0274,392.901,-174.57417,771.0116,430.86337
UncalAccel,1676594011783,31068605790919,1.5786648,-1.1515459,10.227522,0.037048545,-0.031444572,0.0098014325
OrientationDeg,1676594011783,31068605790919,99.0,-5.0,4.0
UncalGyro,1676594011788,31068610035955,0.33200526,-0.42256603,-0.55924714,0.0006957208,-0.0013396677,-0.0003231709
UncalAccel,1676594011792,31068614272751,1.6319051,-1.0408778,10.127024,0.037048545,-0.031444572,0.0098014325
UncalMag,1676594011792,31068614581843,-200.34839,769.41736,393.4866,-174.57417,771.0116,430.86337
OrientationDeg,1676594011792,31068614272751,99.0,-5.0,4.0
UncalGyro,1676594011796,31068618507939,0.36942077,-0.32482758,-0.6151413,0.0006957208,-0.0013396677,-0.0003231709
UncalAccel,1676594011800,31068622756087,1.527219,-1.0845468,10.060024,0.037048545,-0.031444572,0.0098014325
OrientationDeg,1676594011800,31068622756087,99.0,-5.0,4.0
UncalMag,1676594011802,31068624593683,-200.446,769.393,392.4008,-174.57417,771.0116,430.86337
UncalGyro,1676594011804,31068626997583,0.4017966,-0.2574797,-0.67271537,0.0006957208,-0.0013396677,-0.0003231709
UncalAccel,1676594011809,31068631239679,1.4075779,-1.0755738,10.0881405,0.037048545,-0.031444572,0.0098014325
OrientationDeg,1676594011809,31068631239679,100.0,-5.0,4.0
UncalMag,1676594011812,31068634593642,-200.385,768.90497,393.4866,-174.57417,771.0116,430.86337
UncalGyro,1676594011813,31068635478662,0.40500367,-0.2182316,-0.71883565,0.0006957208,-0.0013396677,-0.0003231709
UncalAccel,1676594011817,31068639718651,1.4518452,-1.1952149,10.002597,0.037048545,-0.031444572,0.0098014325
OrientationDeg,1676594011817,31068639718651,100.0,-5.0,3.0
UncalGyro,1676594011821,31068643960777,0.37751472,-0.20723604,-0.7405214,0.0006957208,-0.0013396677,-0.0003231709
UncalMag,1676594011822,31068644598931,-200.3606,769.1734,394.03558,-174.57417,771.0116,430.86337
UncalAccel,1676594011826,31068648197318,1.5906289,-1.4003994,10.080962,0.037048545,-0.031444572,0.0098014325
OrientationDeg,1676594011826,31068648197318,100.0,-5.0,3.0
UncalGyro,1676594011830,31068652433473,0.33582318,-0.1863139,-0.73899424,0.0006957208,-0.0013396677,-0.0003231709
UncalMag,1676594011832,31068654593477,-200.29959,768.47797,393.7428,-174.57417,771.0116,430.86337
UncalAccel,1676594011834,31068656680656,1.68694,-1.6683956,10.211968,0.037048545,-0.031444572,0.0098014325
OrientationDeg,1676594011834,31068656680656,101.0,-6.0,3.0
UncalGyro,1676594011838,31068660923382,0.2919936,-0.15363261,-0.71578133,0.0006957208,-0.0013396677,-0.0003231709
UncalMag,1676594011842,31068664593477,-199.7018,767.9778,394.3406,-174.57417,771.0116,430.86337
UncalAccel,1676594011843,31068665163413,1.9549361,-1.814956,10.262218,0.037048545,-0.031444572,0.0098014325
OrientationDeg,1676594011843,31068665163413,101.0,-6.0,3.0
UncalGyro,1676594011847,31068669402344,0.26984972,-0.10644327,-0.6786713,0.0006957208,-0.0013396677,-0.0003231709
UncalAccel,1676594011851,31068673639476,2.120639,-1.8191434,10.502099,0.037048545,-0.031444572,0.0098014325
OrientationDeg,1676594011851,31068673639476,101.0,-6.0,3.0
UncalMag,1676594011852,31068674582978,-200.93399,768.3804,393.8648,-174.57417,771.0116,430.86337
UncalGyro,1676594011855,31068677885355,0.27550024,-0.013133603,-0.62873304,0.0006957208,-0.0013396677,-0.0003231709
UncalAccel,1676594011860,31068682121611,2.231307,-1.8903298,10.526625,0.037048545,-0.031444572,0.0098014325
OrientationDeg,1676594011860,31068682121611,101.0,-6.0,3.0
UncalMag,1676594011862,31068684593434,-200.93399,768.3804,393.8648,-174.57417,771.0116,430.86337
UncalGyro,1676594011864,31068686357289,0.29978213,0.0917825,-0.5693264,0.0006957208,-0.0013396677,-0.0003231709
UncalAccel,1676594011869,31068690604461,2.2648067,-1.7892331,10.41177,0.037048545,-0.031444572,0.0098014325
OrientationDeg,1676594011868,31068690604461,102.0,-6.0,2.0
UncalMag,1676594011872,31068694583058,-200.69,767.2458,393.9502,-174.57417,771.0116,430.86337
UncalGyro,1676594011872,31068694847777,0.33353242,0.20219639,-0.50885075,0.0006957208,-0.0013396677,-0.0003231709
UncalAccel,1676594011877,31068699094257,2.2265215,-1.5690935,10.290932,0.037048545,-0.031444572,0.0098014325
OrientationDeg,1676594011877,31068699094257,102.0,-6.0,2.0
UncalGyro,1676594011881,31068703324929,0.36667186,0.30787608,-0.45646906,0.0006957208,-0.0013396677,-0.0003231709
UncalMag,1676594011882,31068704586760,-199.4456,767.075,392.901,-174.57417,771.0116,430.86337
UncalAccel,1676594011885,31068707556567,2.1068804,-1.3680964,10.0983095,0.037048545,-0.031444572,0.0098014325
OrientationDeg,1676594011885,31068707556567,102.0,-5.0,2.0
UncalGyro,1676594011889,31068711807951,0.39095375,0.37812558,-0.42119157,0.0006957208,-0.0013396677,-0.0003231709
UncalMag,1676594011892,31068714586637,-200.29959,766.7334,393.694,-174.57417,771.0116,430.86337
UncalAccel,1676594011894,31068716048032,1.9740787,-1.1240284,9.7908325,0.037048545,-0.031444572,0.0098014325
OrientationDeg,1676594011894,31068716048032,102.0,-5.0,2.0
UncalGyro,1676594011898,31068720291908,0.397826,0.4118759,-0.40026945,0.0006957208,-0.0013396677,-0.0003231709
UncalAccel,1676594011902,31068724527636,1.7874385,-0.8859426,9.645468,0.037048545,-0.031444572,0.0098014325
UncalMag,1676594011902,31068724585822,-199.9214,766.221,394.0478,-174.57417,771.0116,430.86337
OrientationDeg,1676594011902,31068724527636,102.0,-5.0,2.0
UncalGyro,1676594011906,31068728769609,0.37522396,0.410196,-0.4016439,0.0006957208,-0.0013396677,-0.0003231709
UncalAccel,1676594011912,31068733006221,1.7395821,-0.67477596,9.529416,0.037048545,-0.031444572,0.0098014325
OrientationDeg,1676594011911,31068733006221,103.0,-5.0,1.0
UncalMag,1676594011912,31068734605882,-199.68959,766.4772,393.6208,-174.57417,771.0116,430.86337
UncalGyro,1676594011916,31068737247574,0.33628133,0.36483926,-0.4298964,0.0006957208,-0.0013396677,-0.0003231709
UncalAccel,1676594011919,31068741486741,1.6133606,-0.5515456,9.647263,0.037048545,-0.031444572,0.0098014325
OrientationDeg,1676594011919,31068741486741,103.0,-5.0,1.0
UncalMag,1676594011922,31068744593552,-200.03119,766.02576,393.2792,-174.57417,771.0116,430.86337
UncalGyro,1676594011923,31068745734391,0.30863968,0.31337386,-0.4653266,0.0006957208,-0.0013396677,-0.0003231709
UncalAccel,1676594011927,31068749973302,1.579263,-0.6334998,9.805189,0.037048545,-0.031444572,0.0098014325
OrientationDeg,1676594011927,31068749973302,103.0,-5.0,1.0
