# 
# Header Description:
# 
# Version: v3.0.5.6 Platform: 13 Manufacturer: Google Model: Pixel 7
# 
# Raw,utcTimeMillis,TimeNanos,LeapSecond,TimeUncertaintyNanos,FullBiasNanos,BiasNanos,BiasUncertaintyNanos,DriftNanosPerSecond,DriftUncertaintyNanosPerSecond,HardwareClockDiscontinuityCount,Svid,TimeOffsetNanos,State,ReceivedSvTimeNanos,ReceivedSvTimeUncertaintyNanos,Cn0DbHz,PseudorangeRateMetersPerSecond,PseudorangeRateUncertaintyMetersPerSecond,AccumulatedDeltaRangeState,AccumulatedDeltaRangeMeters,AccumulatedDeltaRangeUncertaintyMeters,CarrierFrequencyHz,CarrierCycles,CarrierPhase,CarrierPhaseUncertainty,MultipathIndicator,SnrInDb,ConstellationType,AgcDb,BasebandCn0DbHz,FullInterSignalBiasNanos,FullInterSignalBiasUncertaintyNanos,SatelliteInterSignalBiasNanos,SatelliteInterSignalBiasUncertaintyNanos,CodeType,ChipsetElapsedRealtimeNanos
# 
# UncalAccel,utcTimeMillis,elapsedRealtimeNanos,UncalAccelXMps2,UncalAccelYMps2,UncalAccelZMps2,BiasXMps2,BiasYMps2,BiasZMps2
# 
# Accel,utcTimeMillis,elapsedRealtimeNanos,AccelXMps2,AccelYMps2,AccelZMps2
# 
# UncalGyro,utcTimeMillis,elapsedRealtimeNanos,UncalGyroXRadPerSec,UncalGyroYRadPerSec,UncalGyroZRadPerSec,DriftXRadPerSec,DriftYRadPerSec,DriftZRadPerSec
# 
# Gyro,utcTimeMillis,elapsedRealtimeNanos,GyroXRadPerSec,GyroYRadPerSec,GyroZRadPerSec
# 
# UncalMag,utcTimeMillis,elapsedRealtimeNanos,UncalMagXMicroT,UncalMagYMicroT,UncalMagZMicroT,BiasXMicroT,BiasYMicroT,BiasZMicroT
# 
# Mag,utcTimeMillis,elapsedRealtimeNanos,MagXMicroT,MagYMicroT,MagZMicroT
# 
# OrientationDeg,utcTimeMillis,elapsedRealtimeNanos,yawDeg,rollDeg,pitchDeg
# 
# Fix,Provider,LatitudeDegrees,LongitudeDegrees,AltitudeMeters,SpeedMps,AccuracyMeters,BearingDegrees,UnixTimeMillis,SpeedAccuracyMps,BearingAccuracyDegrees,elapsedRealtimeNanos,VerticalAccuracyMeters
# 
# Nav,Svid,Type,Status,MessageId,Sub-messageId,Data(Bytes)
# 
# Status,UnixTimeMillis,SignalCount,SignalIndex,ConstellationType,Svid,CarrierFrequencyHz,Cn0DbHz,AzimuthDegrees,ElevationDegrees,UsedInFix,HasAlmanacData,HasEphemerisData,BasebandCn0DbHz
# 
UncalMag,1676592194194,29251016814439,-153.964,768.8196,389.3996,-174.57417,771.0116,430.86337
UncalGyro,1676592194204,29251026834478,-0.32788193,0.05497787,-0.04932737,0.0033502672,-0.0005930199,-0.00031971303
UncalMag,1676592194204,29251026832424,-154.3422,769.6004,389.47278,-174.57417,771.0116,430.86337
UncalGyro,1676592194213,29251035212402,-0.26328292,0.03191771,-0.06093381,0.0033502672,-0.0005930199,-0.00031971303
UncalMag,1676592194214,29251036824816,-154.452,769.3442,389.6558,-174.57417,771.0116,430.86337
UncalAccel,1676592194217,29251039470089,0.9296116,-0.6987042,10.521241,0.037048545,-0.031444572,0.0098014325
UncalGyro,1676592194221,29251043708919,-0.172264,0.020005837,-0.08109236,0.0033502672,-0.0005930199,-0.00031971303
UncalMag,1676592194224,29251046825060,-153.62239,769.271,389.6192,-174.57417,771.0116,430.86337
UncalAccel,1676592194225,29251047943000,0.9098708,-0.6795616,10.6307125,0.037048545,-0.031444572,0.0098014325
UncalGyro,1676592194230,29251052182178,-0.069485925,0.014202617,-0.10934488,0.0033502672,-0.0005930199,-0.00031971303
UncalAccel,1676592194234,29251056430854,0.8572287,-0.6945168,10.61157,0.037048545,-0.031444572,0.0098014325
UncalMag,1676592194234,29251056817126,-154.1226,769.6126,389.7168,-174.57417,771.0116,430.86337
UncalGyro,1676592194238,29251060671943,0.026572637,0.005192355,-0.13561209,0.0033502672,-0.0005930199,-0.00031971303
UncalAccel,1676592194242,29251064903622,0.8237292,-0.75254273,10.682756,0.037048545,-0.031444572,0.0098014325
UncalMag,1676592194244,29251066815661,-153.8298,769.42957,389.18,-174.57417,771.0116,430.86337
UncalGyro,1676592194247,29251069145901,0.09697486,0.00061086525,-0.1518,0.0033502672,-0.0005930199,-0.00031971303
UncalAccel,1676592194251,29251073388536,0.7800602,-0.72382885,10.749158,0.037048545,-0.031444572,0.0098014325
UncalMag,1676592194254,29251076820463,-153.72,769.3686,390.00958,-174.57417,771.0116,430.86337
UncalGyro,1676592194255,29251077621875,0.14920384,-0.0025961774,-0.16325374,0.0033502672,-0.0005930199,-0.00031971303
UncalAccel,1676592194259,29251081862069,0.7848458,-0.73340017,10.730613,0.037048545,-0.031444572,0.0098014325
UncalMag,1676592194264,29251086814156,-154.0494,769.088,389.58258,-174.57417,771.0116,430.86337
UncalGyro,1676592194264,29251086102466,0.1956296,-0.009162978,-0.17363845,0.0033502672,-0.0005930199,-0.00031971303
UncalAccel,1676592194268,29251090342426,0.8279166,-0.77647096,10.792827,0.037048545,-0.031444572,0.0098014325
UncalGyro,1676592194272,29251094587217,0.24449882,-0.014660766,-0.18371773,0.0033502672,-0.0005930199,-0.00031971303
UncalMag,1676592194274,29251096814400,-154.0372,769.3564,389.7656,-174.57417,771.0116,430.86337
UncalAccel,1676592194276,29251098823545,0.8422736,-0.8243274,10.774282,0.037048545,-0.031444572,0.0098014325
OrientationDeg,1676592194276,29251098823545,259.0,-4.0,3.0
UncalGyro,1676592194281,29251103063484,0.2930626,-0.024740042,-0.1928807,0.0033502672,-0.0005930199,-0.00031971303
Fix,NLP,37.4311444000,-122.1536885000,-16.100000381469727,,98.4,,1676592187270,,,29244092000000,18.49
UncalMag,1676592194284,29251106814360,-153.2076,769.1856,389.3508,-174.57417,771.0116,430.86337
UncalAccel,1676592194285,29251107303617,0.89072824,-0.8668,10.7844515,0.037048545,-0.031444572,0.0098014325
OrientationDeg,1676592194285,29251107303617,259.0,-4.0,3.0
UncalGyro,1676592194290,29251111542377,0.3417791,-0.039095376,-0.20219639,0.0033502672,-0.0005930199,-0.00031971303
UncalAccel,1676592194293,29251115783151,0.9385847,-0.91465646,10.794023,0.037048545,-0.031444572,0.0098014325
OrientationDeg,1676592194293,29251115783151,260.0,-4.0,3.0
UncalMag,1676592194294,29251116814604,-153.7322,769.271,389.6192,-174.57417,771.0116,430.86337
UncalGyro,1676592194298,29251120026488,0.39385536,-0.05390886,-0.2171626,0.0033502672,-0.0005930199,-0.00031971303
UncalAccel,1676592194302,29251124275338,1.0007981,-0.98584294,10.8047905,0.037048545,-0.031444572,0.0098014325
OrientationDeg,1676592194302,29251124275338,260.0,-4.0,3.0
UncalMag,1676592194304,29251126825550,-153.9518,769.00256,389.5582,-174.57417,771.0116,430.86337
UncalGyro,1676592194306,29251128516244,0.45280385,-0.05421429,-0.24281894,0.0033502672,-0.0005930199,-0.00031971303
UncalAccel,1676592194310,29251132753976,1.0438689,-1.0480564,10.857432,0.037048545,-0.031444572,0.0098014325
OrientationDeg,1676592194310,29251132753976,260.0,-4.0,2.0
UncalMag,1676592194314,29251136825144,-153.9762,768.661,389.7168,-174.57417,771.0116,430.86337
UncalGyro,1676592194314,29251136988829,0.52519137,-0.035888333,-0.28191432,0.0033502672,-0.0005930199,-0.00031971303
UncalAccel,1676592194319,29251141229786,1.1162517,-1.1246266,10.8682,0.037048545,-0.031444572,0.0098014325
OrientationDeg,1676592194319,29251141229786,260.0,-4.0,2.0
UncalGyro,1676592194323,29251145474435,0.6010914,-0.007788532,-0.32498032,0.0033502672,-0.0005930199,-0.00031971303
UncalMag,1676592194324,29251146814158,-154.025,769.52716,389.69238,-174.57417,771.0116,430.86337
UncalAccel,1676592194327,29251149715606,1.1539388,-1.2346965,10.974083,0.037048545,-0.031444572,0.0098014325
OrientationDeg,1676592194327,29251149715606,260.0,-4.0,2.0
UncalGyro,1676592194331,29251153955515,0.66843927,0.023060163,-0.36728272,0.0033502672,-0.0005930199,-0.00031971303
UncalMag,1676592194334,29251156814443,-153.842,769.088,389.58258,-174.57417,771.0116,430.86337
UncalAccel,1676592194336,29251158191110,1.2209377,-1.3680964,11.051251,0.037048545,-0.031444572,0.0098014325
OrientationDeg,1676592194336,29251158191110,260.0,-4.0,1.0
UncalGyro,1676592194340,29251162423898,0.72418076,0.038789943,-0.40515637,0.0033502672,-0.0005930199,-0.00031971303
UncalAccel,1676592194344,29251166671254,1.288535,-1.5403795,11.119447,0.037048545,-0.031444572,0.0098014325
OrientationDeg,1676592194344,29251166671254,260.0,-4.0,1.0
UncalMag,1676592194344,29251166816884,-153.8786,768.4902,389.8022,-174.57417,771.0116,430.86337
UncalGyro,1676592194348,29251170904358,0.76923203,0.037873644,-0.44180828,0.0033502672,-0.0005930199,-0.00031971303
UncalAccel,1676592194354,29251175156758,1.3274183,-1.7318054,11.197213,0.037048545,-0.031444572,0.0098014325
UncalMag,1676592194354,29251176814443,-153.8786,768.4902,389.8022,-174.57417,771.0116,430.86337
Fix,FLP,37.4307805000,-122.1550485000,-16.80000114440918,0.084039904,5.701,,1676592193185,,,29250007830163,3.151674
OrientationDeg,1676592194353,29251175156758,261.0,-4.0,1.0
UncalGyro,1676592194357,29251179395335,0.8038987,0.027947085,-0.49098295,0.0033502672,-0.0005930199,-0.00031971303
UncalAccel,1676592194361,29251183638071,1.2891332,-1.8376877,11.283355,0.037048545,-0.031444572,0.0098014325
OrientationDeg,1676592194361,29251183638071,261.0,-4.0,0.0
UncalMag,1676592194364,29251186825104,-153.9274,767.7826,389.5094,-174.57417,771.0116,430.86337
UncalGyro,1676592194365,29251187876221,0.8246681,0.014966198,-0.57528234,0.0033502672,-0.0005930199,-0.00031971303
UncalAccel,1676592194370,29251192113496,1.1647065,-1.8915263,11.306685,0.037048545,-0.031444572,0.0098014325
OrientationDeg,1676592194370,29251192113496,261.0,-4.0,0.0
UncalGyro,1676592194374,29251196352214,0.8347474,-0.011453724,-0.7069238,0.0033502672,-0.0005930199,-0.00031971303
UncalMag,1676592194374,29251196814688,-153.72,767.807,390.48538,-174.57417,771.0116,430.86337
UncalAccel,1676592194378,29251200594666,1.0600204,-1.8580267,11.167303,0.037048545,-0.031444572,0.0098014325
OrientationDeg,1676592194378,29251200594666,261.0,-4.0,0.0
UncalGyro,1676592194382,29251204835989,0.8266534,-0.06658431,-0.8886562,0.0033502672,-0.0005930199,-0.00031971303
UncalMag,1676592194384,29251206814647,-153.72,767.807,390.48538,-174.57417,771.0116,430.86337
UncalAccel,1676592194387,29251209075959,0.98524475,-1.9016958,11.042876,0.037048545,-0.031444572,0.0098014325
OrientationDeg,1676592194387,29251209075959,262.0,-4.0,0.0
UncalGyro,1676592194391,29251213316346,0.7840455,-0.13805555,-1.1027645,0.0033502672,-0.0005930199,-0.00031971303
UncalMag,1676592194394,29251216825186,-153.91519,767.868,389.7778,-174.57417,771.0116,430.86337
UncalAccel,1676592194395,29251217556286,1.0001999,-1.9830518,10.981261,0.037048545,-0.031444572,0.0098014325
OrientationDeg,1676592194395,29251217556286,262.0,-4.0,0.0
UncalGyro,1676592194400,29251221794180,0.7086037,-0.21380283,-1.3322971,0.0033502672,-0.0005930199,-0.00031971303
UncalAccel,1676592194404,29251226026622,1.0432707,-1.9010975,10.933405,0.037048545,-0.031444572,0.0098014325
OrientationDeg,1676592194404,29251226026622,263.0,-4.0,-1.0
UncalMag,1676592194404,29251226814444,-154.25679,767.4288,389.8022,-174.57417,771.0116,430.86337
UncalGyro,1676592194408,29251230276267,0.63194007,-0.29550606,-1.5633569,0.0033502672,-0.0005930199,-0.00031971303
UncalAccel,1676592194412,29251234515891,1.1670992,-1.8089739,10.914861,0.037048545,-0.031444572,0.0098014325
UncalMag,1676592194414,29251236825105,-154.0372,767.5996,389.47278,-174.57417,771.0116,430.86337
UncalGyro,1676592194416,29251238759524,0.57803124,-0.3717115,-1.7741054,0.0033502672,-0.0005930199,-0.00031971303
OrientationDeg,1676592194412,29251234515891,264.0,-4.0,-1.0
UncalAccel,1676592194420,29251242997509,1.3680964,-1.7838492,10.9017,0.037048545,-0.031444572,0.0098014325
OrientationDeg,1676592194420,29251242997509,265.0,-5.0,-1.0
UncalMag,1676592194424,29251246829989,-154.9034,767.2214,389.1678,-174.57417,771.0116,430.86337
UncalGyro,1676592194425,29251247235679,0.54473907,-0.4353942,-1.945453,0.0033502672,-0.0005930199,-0.00031971303
UncalAccel,1676592194429,29251251467003,1.5218352,-1.6534405,10.739586,0.037048545,-0.031444572,0.0098014325
OrientationDeg,1676592194429,29251251467003,266.0,-5.0,-2.0
UncalGyro,1676592194433,29251255718172,0.52519137,-0.49602258,-2.0839667,0.0033502672,-0.0005930199,-0.00031971303
UncalMag,1676592194434,29251256836662,-153.72,767.6972,389.363,-174.57417,771.0116,430.86337
UncalAccel,1676592194437,29251259955518,1.6331015,-1.5278172,10.42493,0.037048545,-0.031444572,0.0098014325
OrientationDeg,1676592194437,29251259955518,267.0,-5.0,-2.0
UncalGyro,1676592194442,29251264196911,0.50656,-0.5671884,-2.201253,0.0033502672,-0.0005930199,-0.00031971303
UncalMag,1676592194444,29251266814771,-154.3422,767.8558,389.302,-174.57417,771.0116,430.86337
UncalAccel,1676592194446,29251268436831,1.6540387,-1.4554343,10.17129,0.037048545,-0.031444572,0.0098014325
OrientationDeg,1676592194446,29251268436831,268.0,-5.0,-3.0
UncalGyro,1676592194450,29251272678062,0.47540587,-0.62888575,-2.314721,0.0033502672,-0.0005930199,-0.00031971303
UncalMag,1676592194454,29251276817579,-154.8546,768.0144,389.10678,-174.57417,771.0116,430.86337
UncalAccel,1676592194454,29251276921074,1.707279,-1.4931214,10.091131,0.037048545,-0.031444572,0.0098014325
OrientationDeg,1676592194454,29251276921074,269.0,-5.0,-3.0
UncalGyro,1676592194459,29251281168592,0.41508293,-0.66828656,-2.4242187,0.0033502672,-0.0005930199,-0.00031971303
UncalAccel,1676592194463,29251285387444,1.692922,-1.5314065,10.143773,0.037048545,-0.031444572,0.0098014325
UncalMag,1676592194464,29251286815341,-154.9278,768.5268,388.9848,-174.57417,771.0116,430.86337
OrientationDeg,1676592194463,29251285387444,270.0,-6.0,-3.0
UncalGyro,1676592194467,29251289639509,0.33414328,-0.6722572,-2.5392141,0.0033502672,-0.0005930199,-0.00031971303
UncalAccel,1676592194471,29251293878898,1.6677973,-1.5032908,10.234102,0.037048545,-0.031444572,0.0098014325
OrientationDeg,1676592194471,29251293878898,271.0,-6.0,-3.0
UncalMag,1676592194474,29251296824863,-155.5256,769.0514,389.2532,-174.57417,771.0116,430.86337
UncalGyro,1676592194476,29251298120934,0.24831672,-0.6443101,-2.6595545,0.0033502672,-0.0005930199,-0.00031971303
UncalAccel,1676592194480,29251302357638,1.7383857,-1.3686945,10.310075,0.037048545,-0.031444572,0.0098014325
OrientationDeg,1676592194480,29251302357638,273.0,-6.0,-4.0
UncalGyro,1676592194484,29251306597873,0.182496,-0.5934556,-2.7806585,0.0033502672,-0.0005930199,-0.00031971303
UncalMag,1676592194484,29251306819533,-155.50119,769.2954,388.8262,-174.57417,771.0116,430.86337
UncalAccel,1676592194488,29251310835463,1.8239291,-1.238884,10.338788,0.037048545,-0.031444572,0.0098014325
OrientationDeg,1676592194488,29251310835463,274.0,-6.0,-4.0
UncalGyro,1676592194493,29251315069257,0.14844026,-0.5476407,-2.8819096,0.0033502672,-0.0005930199,-0.00031971303
UncalMag,1676592194494,29251316825026,-155.79399,769.73456,388.936,-174.57417,771.0116,430.86337
UncalAccel,1676592194497,29251319318638,1.8723837,-1.0899308,10.137792,0.037048545,-0.031444572,0.0098014325
OrientationDeg,1676592194497,29251319318638,276.0,-6.0,-4.0
UncalGyro,1676592194501,29251323556400,0.15134187,-0.5384777,-2.946203,0.0033502672,-0.0005930199,-0.00031971303
UncalMag,1676592194504,29251326814203,-156.2576,770.57635,388.3016,-174.57417,771.0116,430.86337
UncalAccel,1676592194505,29251327794977,1.8263218,-0.9601201,9.807582,0.037048545,-0.031444572,0.0098014325
OrientationDeg,1676592194505,29251327794977,277.0,-7.0,-4.0
UncalGyro,1676592194510,29251332028212,0.17867808,-0.5662721,-2.9749138,0.0033502672,-0.0005930199,-0.00031971303
UncalAccel,1676592194514,29251336279006,1.7856439,-0.9984053,9.5353985,0.037048545,-0.031444572,0.0098014325
OrientationDeg,1676592194514,29251336279006,278.0,-7.0,-5.0
UncalMag,1676592194514,29251336814162,-156.0502,770.674,388.5578,-174.57417,771.0116,430.86337
UncalGyro,1676592194518,29251340520777,0.21090123,-0.61529404,-2.967278,0.0033502672,-0.0005930199,-0.00031971303
UncalAccel,1676592194522,29251344761783,1.7258233,-1.0654043,9.282357,0.037048545,-0.031444572,0.0098014325
OrientationDeg,1676592194522,29251344761783,280.0,-7.0,-5.0
UncalMag,1676592194524,29251346825068,-156.6358,771.2474,387.8624,-174.57417,771.0116,430.86337
UncalGyro,1676592194527,29251349000310,0.23884831,-0.6800457,-2.934444,0.0033502672,-0.0005930199,-0.00031971303
UncalAccel,1676592194531,29251353240075,1.6504494,-1.0606186,9.090932,0.037048545,-0.031444572,0.0098014325
OrientationDeg,1676592194531,29251353240075,281.0,-7.0,-5.0
UncalMag,1676592194534,29251356824986,-157.0018,772.1014,387.594,-174.57417,771.0116,430.86337
UncalGyro,1676592194535,29251357477442,0.25610524,-0.74006325,-2.8867965,0.0033502672,-0.0005930199,-0.00031971303
UncalAccel,1676592194539,29251361708817,1.5302101,-0.92243314,9.098708,0.037048545,-0.031444572,0.0098014325
OrientationDeg,1676592194539,29251361708817,283.0,-7.0,-6.0
UncalGyro,1676592194543,29251365957320,0.2666427,-0.76083267,-2.8200593,0.0033502672,-0.0005930199,-0.00031971303
UncalMag,1676592194544,29251366814651,-158.0266,772.5406,388.3382,-174.57417,771.0116,430.86337
UncalAccel,1676592194548,29251370186264,1.4327025,-0.6119644,9.139386,0.037048545,-0.031444572,0.0098014325
OrientationDeg,1676592194548,29251370186264,284.0,-8.0,-6.0
UncalGyro,1676592194552,29251374433222,0.27779096,-0.7128797,-2.7310257,0.0033502672,-0.0005930199,-0.00031971303
UncalMag,1676592194554,29251376824743,-158.0998,773.053,387.9722,-174.57417,771.0116,430.86337
UncalAccel,1676592194556,29251378679143,1.3489537,-0.22911277,9.156136,0.037048545,-0.031444572,0.0098014325
OrientationDeg,1676592194556,29251378679143,285.0,-8.0,-6.0
UncalGyro,1676592194560,29251382920740,0.2874121,-0.59406644,-2.6149614,0.0033502672,-0.0005930199,-0.00031971303
UncalMag,1676592194564,29251386824987,-157.9534,773.66296,387.8746,-174.57417,771.0116,430.86337
UncalAccel,1676592194565,29251387161270,1.204188,0.17288144,9.02453,0.037048545,-0.031444572,0.0098014325
OrientationDeg,1676592194565,29251387161270,286.0,-8.0,-7.0
UncalGyro,1676592194569,29251391390804,0.29275718,-0.44211373,-2.4813347,0.0033502672,-0.0005930199,-0.00031971303
UncalAccel,1676592194573,29251395637955,0.94755775,0.4444668,8.615956,0.037048545,-0.031444572,0.0098014325
OrientationDeg,1676592194573,29251395637955,288.0,-8.0,-7.0
UncalMag,1676592194574,29251396814530,-158.1608,773.6386,387.2646,-174.57417,771.0116,430.86337
UncalGyro,1676592194577,29251399881119,0.28160888,-0.29275718,-2.3480134,0.0033502672,-0.0005930199,-0.00031971303
UncalAccel,1676592194582,29251404120763,0.66759753,0.59700924,8.240881,0.037048545,-0.031444572,0.0098014325
OrientationDeg,1676592194582,29251404120763,289.0,-8.0,-7.0
UncalMag,1676592194584,29251406814408,-158.5878,773.4312,386.3862,-174.57417,771.0116,430.86337
UncalGyro,1676592194586,29251408354416,0.23472497,-0.16065755,-2.2380576,0.0033502672,-0.0005930199,-0.00031971303
UncalAccel,1676592194590,29251412603196,0.4103691,0.66759753,8.014759,0.037048545,-0.031444572,0.0098014325
OrientationDeg,1676592194590,29251412603196,290.0,-8.0,-7.0
UncalMag,1676592194594,29251416825110,-158.5878,773.48,388.0942,-174.57417,771.0116,430.86337
UncalGyro,1676592194594,29251416845383,0.13530666,-0.05955936,-2.1610885,0.0033502672,-0.0005930199,-0.00031971303
UncalAccel,1676592194599,29251421094621,0.19740787,0.67118675,7.765308,0.037048545,-0.031444572,0.0098014325
OrientationDeg,1676592194599,29251421094621,291.0,-8.0,-8.0
UncalGyro,1676592194603,29251425311347,-0.018325957,-0.016340645,-2.112983,0.0033502672,-0.0005930199,-0.00031971303
UncalMag,1676592194605,29251426824825,-158.4536,774.029,388.7042,-174.57417,771.0116,430.86337
UncalAccel,1676592194607,29251429561347,0.084346995,0.66161543,7.5637126,0.037048545,-0.031444572,0.0098014325
OrientationDeg,1676592194607,29251429561347,292.0,-8.0,-8.0
UncalGyro,1676592194611,29251433798916,-0.2133447,-0.031154128,-2.0990858,0.0033502672,-0.0005930199,-0.00031971303
UncalMag,1676592194614,29251436824948,-158.8074,775.0172,387.0084,-174.57417,771.0116,430.86337
UncalAccel,1676592194616,29251438043921,0.20937198,0.5665008,7.5032935,0.037048545,-0.031444572,0.0098014325
OrientationDeg,1676592194617,29251438043921,293.0,-7.0,-8.0
UncalGyro,1676592194620,29251442282741,-0.4222606,-0.059406646,-2.090381,0.0033502672,-0.0005930199,-0.00031971303
UncalAccel,1676592194624,29251446523403,0.28953153,0.4755735,7.7569327,0.037048545,-0.031444572,0.0098014325
UncalMag,1676592194624,29251446807533,-159.1002,775.371,387.5818,-174.57417,771.0116,430.86337
OrientationDeg,1676592194624,29251446523403,294.0,-7.0,-7.0
UncalGyro,1676592194628,29251450768470,-0.6236934,-0.044593163,-2.0690005,0.0033502672,-0.0005930199,-0.00031971303
UncalAccel,1676592194632,29251454997463,0.22971097,0.46959144,8.0715885,0.037048545,-0.031444572,0.0098014325
OrientationDeg,1676592194632,29251454997463,295.0,-7.0,-7.0
UncalMag,1676592194634,29251456814328,-159.1612,776.0786,387.7526,-174.57417,771.0116,430.86337
UncalGyro,1676592194637,29251459233670,-0.79809546,0.020463986,-2.022575,0.0033502672,-0.0005930199,-0.00031971303
UncalAccel,1676592194641,29251463480720,0.22851457,0.32123643,8.297112,0.037048545,-0.031444572,0.0098014325
OrientationDeg,1676592194641,29251463480720,296.0,-7.0,-7.0
UncalMag,1676592194644,29251466825071,-158.844,776.2494,387.5452,-174.57417,771.0116,430.86337
UncalGyro,1676592194645,29251467723650,-0.9326385,0.11957687,-1.9231565,0.0033502672,-0.0005930199,-0.00031971303
UncalAccel,1676592194649,29251471964882,0.2745764,-0.00059820566,8.733205,0.037048545,-0.031444572,0.0098014325
OrientationDeg,1676592194649,29251471964882,297.0,-7.0,-7.0
UncalGyro,1676592194654,29251476201210,-1.0251846,0.28237244,-1.7629571,0.0033502672,-0.0005930199,-0.00031971303
UncalMag,1676592194654,29251476806760,-159.4052,777.2986,387.8136,-174.57417,771.0116,430.86337
UncalAccel,1676592194658,29251480432666,0.22851457,-0.18364914,9.287143,0.037048545,-0.031444572,0.0098014325
OrientationDeg,1676592194658,29251480432666,298.0,-6.0,-6.0
UncalGyro,1676592194662,29251484683845,-1.0706941,0.4830417,-1.5859588,0.0033502672,-0.0005930199,-0.00031971303
UncalMag,1676592194664,29251486824827,-159.1856,777.56696,387.9844,-174.57417,771.0116,430.86337
UncalAccel,1676592194666,29251488923856,-0.07836494,-0.23389842,9.409775,0.037048545,-0.031444572,0.0098014325
OrientationDeg,1676592194666,29251488923856,298.0,-6.0,-6.0
UncalGyro,1676592194671,29251493166359,-1.0619892,0.6386596,-1.4463762,0.0033502672,-0.0005930199,-0.00031971303
UncalMag,1676592194674,29251496824827,-158.4048,778.2624,387.41098,-174.57417,771.0116,430.86337
UncalAccel,1676592194675,29251497400724,-0.48454657,-0.24107689,9.38824,0.037048545,-0.031444572,0.0098014325
OrientationDeg,1676592194675,29251497400724,299.0,-6.0,-5.0
UncalGyro,1676592194679,29251501633584,-1.0221303,0.7333437,-1.3686435,0.0033502672,-0.0005930199,-0.00031971303
UncalAccel,1676592194683,29251505883543,-0.91226363,-0.19142582,9.619147,0.037048545,-0.031444572,0.0098014325
OrientationDeg,1676592194683,29251505883543,300.0,-5.0,-5.0
UncalMag,1676592194684,29251506814899,-158.46579,778.97,387.7038,-174.57417,771.0116,430.86337
UncalGyro,1676592194688,29251510123981,-0.98746365,0.8089383,-1.3510813,0.0033502672,-0.0005930199,-0.00031971303
UncalAccel,1676592194692,29251514363259,-1.410569,-0.060418773,9.677173,0.037048545,-0.031444572,0.0098014325
OrientationDeg,1676592194692,29251514363259,301.0,-5.0,-4.0
UncalMag,1676592194694,29251516824909,-158.75859,779.4092,388.3016,-174.57417,771.0116,430.86337
UncalGyro,1676592194696,29251518605040,-0.9682214,0.837649,-1.3600914,0.0033502672,-0.0005930199,-0.00031971303
UncalAccel,1676592194700,29251522845131,-1.911267,0.008973085,9.430114,0.037048545,-0.031444572,0.0098014325
OrientationDeg,1676592194700,29251522845131,301.0,-4.0,-4.0
UncalMag,1676592194704,29251526836954,-158.173,780.2632,387.2768,-174.57417,771.0116,430.86337
UncalGyro,1676592194706,29251527082691,-0.96761054,0.79275036,-1.3568845,0.0033502672,-0.0005930199,-0.00031971303
UncalAccel,1676592194709,29251531308541,-2.1894326,0.08853444,9.423533,0.037048545,-0.031444572,0.0098014325
OrientationDeg,1676592194709,29251531308541,302.0,-4.0,-4.0
UncalGyro,1676592194713,29251535567961,-1.00075,0.7131852,-1.2986995,0.0033502672,-0.0005930199,-0.00031971303
UncalMag,1676592194714,29251536814452,-158.25839,780.64136,388.2162,-174.57417,771.0116,430.86337
UncalAccel,1676592194717,29251539803882,-2.3724837,0.16390835,9.588638,0.037048545,-0.031444572,0.0098014325
OrientationDeg,1676592194717,29251539803882,303.0,-3.0,-3.0
UncalGyro,1676592194722,29251544049589,-1.075581,0.60048056,-1.1621711,0.0033502672,-0.0005930199,-0.00031971303
UncalMag,1676592194724,29251546824828,-158.0998,781.532,388.9116,-174.57417,771.0116,430.86337
UncalAccel,1676592194726,29251548283721,-2.5543382,0.2009971,9.563514,0.037048545,-0.031444572,0.0098014325
OrientationDeg,1676592194726,29251548283721,303.0,-3.0,-3.0
UncalGyro,1676592194730,29251552526030,-1.1662945,0.3839288,-0.9416488,0.0033502672,-0.0005930199,-0.00031971303
UncalAccel,1676592194734,29251556765715,-2.8827531,0.17048861,9.356535,0.037048545,-0.031444572,0.0098014325
OrientationDeg,1676592194734,29251556765715,304.0,-3.0,-2.0
UncalMag,1676592194734,29251556814656,-157.6606,782.081,389.3996,-174.57417,771.0116,430.86337
UncalGyro,1676592194739,29251561006988,-1.2470814,0.049632803,-0.65484756,0.0033502672,-0.0005930199,-0.00031971303
UncalAccel,1676592194743,29251565249877,-3.054438,0.21296121,9.264411,0.037048545,-0.031444572,0.0098014325
OrientationDeg,1676592194743,29251565249877,304.0,-3.0,-1.0
UncalMag,1676592194744,29251566809936,-158.0388,782.65436,388.20398,-174.57417,771.0116,430.86337
UncalGyro,1676592194747,29251569493021,-1.3089315,-0.31887165,-0.3200934,0.0033502672,-0.0005930199,-0.00031971303
UncalAccel,1676592194751,29251573725371,-3.1597223,0.25064817,9.268599,0.037048545,-0.031444572,0.0098014325
OrientationDeg,1676592194751,29251573725371,304.0,-3.0,-1.0
UncalMag,1676592194754,29251576814168,-157.5508,783.7524,389.78998,-174.57417,771.0116,430.86337
UncalGyro,1676592194755,29251577965861,-1.318858,-0.690125,0.10247265,0.0033502672,-0.0005930199,-0.00031971303
UncalAccel,1676592194760,29251582203116,-5.4167523,-2.1104696,8.946166,0.037048545,-0.031444572,0.0098014325
OrientationDeg,1676592194760,29251582203116,304.0,-4.0,0.0
UncalMag,1676592194764,29251586814372,-158.0632,783.8866,388.99698,-174.57417,771.0116,430.86337
UncalGyro,1676592194764,29251586440990,-0.9640981,-1.302212,1.0792462,0.0033502672,-0.0005930199,-0.00031971303
UncalAccel,1676592194768,29251590678570,-8.806784,-2.8935208,11.926426,0.037048545,-0.031444572,0.0098014325
OrientationDeg,1676592194768,29251590678570,303.0,-5.0,0.0
UncalGyro,1676592194772,29251594916149,-0.4071417,-1.4676038,2.0676262,0.0033502672,-0.0005930199,-0.00031971303
UncalMag,1676592194774,29251596814169,-157.96559,783.81335,389.21658,-174.57417,771.0116,430.86337
UncalAccel,1676592194777,29251599153729,-5.2701917,-3.0616167,22.588245,0.037048545,-0.031444572,0.0098014325
OrientationDeg,1676592194777,29251599153729,302.0,-5.0,0.0
UncalGyro,1676592194781,29251603398437,0.54061574,-0.20066923,1.9501873,0.0033502672,-0.0005930199,-0.00031971303
UncalMag,1676592194784,29251606814495,-158.59999,783.789,388.74078,-174.57417,771.0116,430.86337
UncalAccel,1676592194785,29251607647003,-0.04007978,-2.1547368,12.674782,0.037048545,-0.031444572,0.0098014325
OrientationDeg,1676592194785,29251607647003,301.0,-5.0,0.0
UncalGyro,1676592194789,29251611884492,0.8895725,0.3042109,1.3385584,0.0033502672,-0.0005930199,-0.00031971303
UncalAccel,1676592194794,29251616129121,2.6195426,0.0059820567,7.917252,0.037048545,-0.031444572,0.0098014325
OrientationDeg,1676592194794,29251616129121,300.0,-5.0,-1.0
UncalMag,1676592194794,29251616830771,-159.0026,783.9598,388.9116,-174.57417,771.0116,430.86337
UncalGyro,1676592194798,29251620365663,0.8668178,-0.17440203,1.2087497,0.0033502672,-0.0005930199,-0.00031971303
UncalAccel,1676592194802,29251624598135,0.80817586,3.5001013,2.7290142,0.037048545,-0.031444572,0.0098014325
OrientationDeg,1676592194802,29251624598135,300.0,-5.0,-1.0
UncalMag,1676592194804,29251626825156,-159.07579,782.813,388.7652,-174.57417,771.0116,430.86337
UncalGyro,1676592194806,29251628837383,0.54336464,-0.95340794,1.314582,0.0033502672,-0.0005930199,-0.00031971303
UncalAccel,1676592194811,29251633087087,1.5260227,2.9419754,6.8979096,0.037048545,-0.031444572,0.0098014325
OrientationDeg,1676592194812,29251633087087,299.0,-6.0,-1.0
UncalMag,1676592194814,29251636824953,-158.9904,782.3738,388.2894,-174.57417,771.0116,430.86337
UncalGyro,1676592194815,29251637327323,0.076816306,-1.1849259,1.2606732,0.0033502672,-0.0005930199,-0.00031971303
UncalAccel,1676592194819,29251641558687,2.804388,0.66759753,8.301898,0.037048545,-0.031444572,0.0098014325
OrientationDeg,1676592194819,29251641558687,299.0,-6.0,-1.0
UncalGyro,1676592194823,29251645805319,-0.2875648,-1.2985468,1.0877982,0.0033502672,-0.0005930199,-0.00031971303
UncalMag,1676592194824,29251646814292,-159.1246,781.92236,387.93558,-174.57417,771.0116,430.86337
UncalAccel,1676592194828,29251650047426,2.7954152,-0.40558344,8.36471,0.037048545,-0.031444572,0.0098014325
OrientationDeg,1676592194828,29251650047426,298.0,-7.0,0.0
UncalGyro,1676592194832,29251654291200,-0.4605924,-1.4395039,0.9239337,0.0033502672,-0.0005930199,-0.00031971303
UncalMag,1676592194834,29251656825116,-159.8566,781.82477,388.3016,-174.57417,771.0116,430.86337
UncalAccel,1676592194836,29251658528455,2.1547368,-0.7860422,9.879965,0.037048545,-0.031444572,0.0098014325
OrientationDeg,1676592194836,29251658528455,298.0,-8.0,0.0
UncalGyro,1676592194840,29251662769868,-0.5123632,-1.4321736,0.86422163,0.0033502672,-0.0005930199,-0.00031971303
UncalMag,1676592194844,29251666825157,-159.7468,781.898,387.716,-174.57417,771.0116,430.86337
UncalAccel,1676592194845,29251667006981,1.8669999,-0.51146585,11.094322,0.037048545,-0.031444572,0.0098014325
OrientationDeg,1676592194845,29251667006981,297.0,-8.0,0.0
UncalGyro,1676592194849,29251671246188,-0.5152648,-1.3552046,0.8571966,0.0033502672,-0.0005930199,-0.00031971303
UncalAccel,1676592194853,29251675489758,2.1589243,0.08733802,11.928221,0.037048545,-0.031444572,0.0098014325
OrientationDeg,1676592194853,29251675489758,297.0,-9.0,0.0
UncalMag,1676592194854,29251676815717,-159.9298,782.33716,387.8136,-174.57417,771.0116,430.86337
UncalGyro,1676592194858,29251679736494,-0.45631635,-1.2082914,0.9147707,0.0033502672,-0.0005930199,-0.00031971303
UncalAccel,1676592194861,29251683969240,2.46042,-0.18484555,12.699906,0.037048545,-0.031444572,0.0098014325
OrientationDeg,1676592194861,29251683969240,297.0,-10.0,0.0
UncalMag,1676592194864,29251686828087,-160.8814,782.14197,387.5574,-174.57417,771.0116,430.86337
UncalGyro,1676592194867,29251688205223,-0.36086863,-0.9505063,1.0801625,0.0033502672,-0.0005930199,-0.00031971303
UncalAccel,1676592194870,29251692429893,2.7619154,-0.71306115,11.778669,0.037048545,-0.031444572,0.0098014325
OrientationDeg,1676592194870,29251692429893,296.0,-10.0,0.0
UncalGyro,1676592194875,29251696689720,-0.28985557,-0.7982482,1.2959507,0.0033502672,-0.0005930199,-0.00031971303
UncalMag,1676592194874,29251696822920,-161.3084,782.1176,387.3134,-174.57417,771.0116,430.86337
UncalAccel,1676592194878,29251700929111,3.3493536,-1.1958131,10.357333,0.037048545,-0.031444572,0.0098014325
OrientationDeg,1676592194878,29251700929111,295.0,-10.0,0.0
UncalGyro,1676592194883,29251705174492,-0.3118467,-0.7828238,1.4573717,0.0033502672,-0.0005930199,-0.00031971303
UncalMag,1676592194884,29251706815392,-161.3084,782.1176,387.3134,-174.57417,771.0116,430.86337
UncalAccel,1676592194887,29251709404911,3.8374894,-1.5846468,9.918848,0.037048545,-0.031444572,0.0098014325
OrientationDeg,1676592194887,29251709404911,295.0,-11.0,1.0
UncalGyro,1676592194891,29251713632774,-0.43279803,-0.7733554,1.521818,0.0033502672,-0.0005930199,-0.00031971303
UncalMag,1676592194894,29251716824792,-161.8086,782.44696,386.801,-174.57417,771.0116,430.86337
UncalAccel,1676592194895,29251717889621,4.128217,-1.2095718,9.803992,0.037048545,-0.031444572,0.0098014325
OrientationDeg,1676592194895,29251717889621,294.0,-11.0,1.0
UncalGyro,1676592194900,29251722130751,-0.5635232,-0.73792523,1.5115861,0.0033502672,-0.0005930199,-0.00031971303
UncalAccel,1676592194904,29251726375187,4.185645,-0.5288138,9.915857,0.037048545,-0.031444572,0.0098014325
OrientationDeg,1676592194904,29251726375187,293.0,-11.0,1.0
UncalMag,1676592194904,29251726816939,-161.38159,782.55676,387.5452,-174.57417,771.0116,430.86337
UncalGyro,1676592194909,29251730611627,-0.6273586,-0.67179906,1.4764613,0.0033502672,-0.0005930199,-0.00031971303
UncalAccel,1676592194912,29251734849959,3.7417765,0.22013968,9.970892,0.037048545,-0.031444572,0.0098014325
OrientationDeg,1676592194912,29251734849959,293.0,-12.0,2.0
UncalMag,1676592194914,29251736824996,-161.9428,782.01996,387.3134,-174.57417,771.0116,430.86337
UncalGyro,1676592194917,29251739090671,-0.6114761,-0.5859725,1.4511104,0.0033502672,-0.0005930199,-0.00031971303
UncalAccel,1676592194921,29251743327243,3.263212,0.8446664,10.198809,0.037048545,-0.031444572,0.0098014325
OrientationDeg,1676592194921,29251743327243,292.0,-12.0,2.0
UncalMag,1676592194924,29251746825037,-161.9184,782.386,387.6428,-174.57417,771.0116,430.86337
UncalGyro,1676592194925,29251747560744,-0.5143485,-0.48487428,1.464244,0.0033502672,-0.0005930199,-0.00031971303
UncalAccel,1676592194929,29251751810389,3.0717862,1.2747762,9.913465,0.037048545,-0.031444572,0.0098014325
OrientationDeg,1676592194929,29251751810389,291.0,-12.0,3.0
UncalGyro,1676592194934,29251756051630,-0.38026363,-0.42394048,1.496009,0.0033502672,-0.0005930199,-0.00031971303
UncalMag,1676592194934,29251756808517,-162.2356,782.386,388.1308,-174.57417,771.0116,430.86337
UncalAccel,1676592194938,29251760294255,2.9437702,0.90149593,9.380463,0.037048545,-0.031444572,0.0098014325
OrientationDeg,1676592194938,29251760294255,291.0,-12.0,3.0
UncalGyro,1676592194942,29251764527653,-0.26251933,-0.41157046,1.5335772,0.0033502672,-0.0005930199,-0.00031971303
UncalMag,1676592194944,29251766824915,-161.9306,782.12976,387.93558,-174.57417,771.0116,430.86337
UncalAccel,1676592194946,29251768753921,2.8348966,0.25962126,9.001201,0.037048545,-0.031444572,0.0098014325
OrientationDeg,1676592194946,29251768753921,290.0,-12.0,3.0
UncalGyro,1676592194951,29251773007878,-0.18661933,-0.42943826,1.5477798,0.0033502672,-0.0005930199,-0.00031971303
UncalMag,1676592194954,29251776814702,-161.833,782.01996,387.0694,-174.57417,771.0116,430.86337
UncalAccel,1676592194955,29251777245285,2.8253253,-0.42412782,8.26481,0.037048545,-0.031444572,0.0098014325
OrientationDeg,1676592194955,29251777245285,289.0,-13.0,3.0
UncalGyro,1676592194959,29251781485621,-0.1600467,-0.50228393,1.5519031,0.0033502672,-0.0005930199,-0.00031971303
UncalAccel,1676592194963,29251785734502,2.7266214,-0.8745767,7.650452,0.037048545,-0.031444572,0.0098014325
UncalMag,1676592194964,29251786819870,-162.0526,781.92236,387.167,-174.57417,771.0116,430.86337
OrientationDeg,1676592194963,29251785734502,289.0,-13.0,4.0
UncalGyro,1676592194967,29251789983302,-0.19318613,-0.5815437,1.5636623,0.0033502672,-0.0005930199,-0.00031971303
UncalAccel,1676592194972,29251794215632,2.4323041,-0.971486,7.4344997,0.037048545,-0.031444572,0.0098014325
OrientationDeg,1676592194972,29251794215632,288.0,-13.0,4.0
UncalMag,1676592194974,29251796825079,-162.443,782.34937,387.1548,-174.57417,771.0116,430.86337
UncalGyro,1676592194976,29251798450821,-0.2582433,-0.6107125,1.5952746,0.0033502672,-0.0005930199,-0.00031971303
UncalAccel,1676592194980,29251802677464,2.1649063,-0.7190432,7.1784678,0.037048545,-0.031444572,0.0098014325
OrientationDeg,1676592194980,29251802677464,287.0,-13.0,4.0
UncalMag,1676592194984,29251806833339,-162.565,782.0932,387.2158,-174.57417,771.0116,430.86337
UncalGyro,1676592194984,29251806932196,-0.3306308,-0.6356053,1.6412421,0.0033502672,-0.0005930199,-0.00031971303
UncalAccel,1676592194989,29251811167578,1.9938195,-0.6239285,7.0193453,0.037048545,-0.031444572,0.0098014325
OrientationDeg,1676592194989,29251811167578,286.0,-14.0,5.0
UncalGyro,1676592194993,29251815406998,-0.39629883,-0.660498,1.6859881,0.0033502672,-0.0005930199,-0.00031971303
UncalMag,1676592194994,29251816824835,-162.26,781.92236,387.0572,-174.57417,771.0116,430.86337
UncalAccel,1676592194997,29251819652268,1.8843478,-1.0223335,7.225726,0.037048545,-0.031444572,0.0098014325
OrientationDeg,1676592194998,29251819652268,286.0,-14.0,5.0
UncalGyro,1676592195001,29251823894171,-0.46471575,-0.6592763,1.7298176,0.0033502672,-0.0005930199,-0.00031971303
UncalMag,1676592195004,29251826824998,-162.3454,782.1908,387.36218,-174.57417,771.0116,430.86337
UncalAccel,1676592195006,29251828135993,1.9854445,-1.6546369,7.5493555,0.037048545,-0.031444572,0.0098014325
OrientationDeg,1676592195006,29251828135993,285.0,-14.0,6.0
UncalGyro,1676592195010,29251832372961,-0.56673026,-0.6339254,1.7492126,0.0033502672,-0.0005930199,-0.00031971303
UncalAccel,1676592195014,29251836609584,2.2761726,-2.2229323,7.435098,0.037048545,-0.031444572,0.0098014325
UncalMag,1676592195014,29251836819058,-162.5528,782.2762,387.3866,-174.57417,771.0116,430.86337
OrientationDeg,1676592195014,29251836609584,284.0,-14.0,6.0
UncalGyro,1676592195018,29251840853593,-0.73899424,-0.65576386,1.7469219,0.0033502672,-0.0005930199,-0.00031971303
UncalAccel,1676592195023,29251845093024,2.461018,-2.3742783,7.1886373,0.037048545,-0.031444572,0.0098014325
OrientationDeg,1676592195023,29251845093024,283.0,-15.0,7.0
UncalMag,1676592195025,29251846814501,-162.8822,782.0078,387.4476,-174.57417,771.0116,430.86337
UncalGyro,1676592195027,29251849334663,-0.9622655,-0.81107634,1.7692184,0.0033502672,-0.0005930199,-0.00031971303
UncalAccel,1676592195031,29251853571336,2.498107,-1.9573289,7.019943,0.037048545,-0.031444572,0.0098014325
OrientationDeg,1676592195031,29251853571336,283.0,-15.0,7.0
UncalMag,1676592195034,29251856825040,-162.6382,782.6422,387.96,-174.57417,771.0116,430.86337
UncalGyro,1676592195035,29251857807024,-1.1644619,-1.1301007,1.8132007,0.0033502672,-0.0005930199,-0.00031971303
UncalAccel,1676592195040,29251862054716,2.4293132,-1.599602,7.618747,0.037048545,-0.031444572,0.0098014325
OrientationDeg,1676592195040,29251862054716,282.0,-15.0,8.0
UncalGyro,1676592195044,29251866295560,-1.319469,-1.4779885,1.840537,0.0033502672,-0.0005930199,-0.00031971303
UncalMag,1676592195044,29251866818814,-163.236,782.9472,387.20358,-174.57417,771.0116,430.86337
UncalAccel,1676592195048,29251870535611,2.6225336,-1.7485552,8.770891,0.037048545,-0.031444572,0.0098014325
OrientationDeg,1676592195048,29251870535611,281.0,-16.0,9.0
UncalGyro,1676592195052,29251874774533,-1.4091134,-1.6945401,1.8542814,0.0033502672,-0.0005930199,-0.00031971303
UncalMag,1676592195054,29251876822151,-163.846,783.30096,387.78918,-174.57417,771.0116,430.86337
UncalAccel,1676592195057,29251879013781,3.0263224,-2.1601207,10.036097,0.037048545,-0.031444572,0.0098014325
OrientationDeg,1676592195057,29251879013781,281.0,-17.0,10.0
UncalGyro,1676592195061,29251883255114,-1.4300356,-1.7009543,1.9011654,0.0033502672,-0.0005930199,-0.00031971303
UncalMag,1676592195064,29251886837858,-164.2486,783.545,387.3744,-174.57417,771.0116,430.86337
UncalAccel,1676592195065,29251887491727,3.2787652,-2.6099713,10.545768,0.037048545,-0.031444572,0.0098014325
OrientationDeg,1676592195065,29251887491727,280.0,-18.0,11.0
UncalGyro,1676592195069,29251891725309,-1.345278,-1.6019942,1.9947804,0.0033502672,-0.0005930199,-0.00031971303
UncalAccel,1676592195073,29251895975654,3.3230324,-2.541776,10.287941,0.037048545,-0.031444572,0.0098014325
UncalMag,1676592195074,29251896814420,-164.4316,783.9598,386.6302,-174.57417,771.0116,430.86337
OrientationDeg,1676592195073,29251895975654,279.0,-18.0,12.0
UncalGyro,1676592195078,29251900214994,-1.1545353,-1.4411838,2.0839667,0.0033502672,-0.0005930199,-0.00031971303
UncalAccel,1676592195082,29251904454139,3.0299118,-2.3425734,10.332807,0.037048545,-0.031444572,0.0098014325
OrientationDeg,1676592195082,29251904454139,278.0,-19.0,13.0
UncalMag,1676592195085,29251906824797,-165.066,783.8866,387.472,-174.57417,771.0116,430.86337
UncalGyro,1676592195086,29251908694730,-0.9117164,-1.150412,2.1230621,0.0033502672,-0.0005930199,-0.00031971303
UncalAccel,1676592195090,29251912931587,2.1714866,-0.76331043,10.796415,0.037048545,-0.031444572,0.0098014325
OrientationDeg,1676592195090,29251912931587,277.0,-19.0,13.0
UncalMag,1676592195094,29251916825082,-165.13919,784.3136,387.3378,-174.57417,771.0116,430.86337
UncalGyro,1676592195095,29251917174477,-0.6956228,-0.70478576,1.9938642,0.0033502672,-0.0005930199,-0.00031971303
UncalAccel,1676592195099,29251921403879,1.2382857,0.3804588,10.770693,0.037048545,-0.031444572,0.0098014325
OrientationDeg,1676592195099,29251921403879,277.0,-19.0,14.0
UncalGyro,1676592195103,29251925654417,-0.4990769,-0.1957823,1.7310394,0.0033502672,-0.0005930199,-0.00031971303
UncalMag,1676592195104,29251926820281,-164.52919,784.0696,387.3744,-174.57417,771.0116,430.86337
UncalAccel,1676592195107,29251929896676,0.90329057,0.4432704,9.40798,0.037048545,-0.031444572,0.0098014325
OrientationDeg,1676592195107,29251929896676,276.0,-19.0,14.0
UncalGyro,1676592195112,29251934139942,-0.2910773,0.1348485,1.4143058,0.0033502672,-0.0005930199,-0.00031971303
UncalMag,1676592195114,29251936824879,-164.6146,784.4966,387.36218,-174.57417,771.0116,430.86337
UncalAccel,1676592195116,29251938376291,0.785444,0.15314065,7.4853473,0.037048545,-0.031444572,0.0098014325
OrientationDeg,1676592195116,29251938376291,275.0,-18.0,15.0
UncalGyro,1676592195121,29251942616077,-0.11484267,0.19349156,1.1285735,0.0033502672,-0.0005930199,-0.00031971303
UncalMag,1676592195124,29251946825205,-164.2242,784.094,387.9844,-174.57417,771.0116,430.86337
UncalAccel,1676592195124,29251946853006,1.5218352,-0.0077766734,6.3403816,0.037048545,-0.031444572,0.0098014325
OrientationDeg,1676592195124,29251946853006,275.0,-18.0,15.0
UncalGyro,1676592195129,29251951095316,0.008093964,0.030695979,0.96745783,0.0033502672,-0.0005930199,-0.00031971303
UncalAccel,1676592195133,29251955336312,2.9330025,-0.1369891,5.7487564,0.037048545,-0.031444572,0.0098014325
UncalMag,1676592195134,29251956814219,-164.1144,783.9964,387.594,-174.57417,771.0116,430.86337
OrientationDeg,1676592195133,29251955336312,275.0,-18.0,15.0
UncalGyro,1676592195137,29251959577392,0.09315695,-0.24251351,0.96577793,0.0033502672,-0.0005930199,-0.00031971303
UncalAccel,1676592195141,29251963814758,4.0845485,-0.5270192,5.605187,0.037048545,-0.031444572,0.0098014325
OrientationDeg,1676592195141,29251963814758,274.0,-18.0,15.0
UncalMag,1676592195144,29251966831960,-164.95619,783.9476,386.8742,-174.57417,771.0116,430.86337
UncalGyro,1676592195146,29251968058217,0.1255328,-0.61529404,1.0703887,0.0033502672,-0.0005930199,-0.00031971303
UncalAccel,1676592195150,29251972298237,4.2107697,-0.12921242,5.6997037,0.037048545,-0.031444572,0.0098014325
OrientationDeg,1676592195150,29251972298237,273.0,-18.0,15.0
UncalGyro,1676592195154,29251976538075,0.10629055,-0.98761636,1.1620184,0.0033502672,-0.0005930199,-0.00031971303
UncalMag,1676592195154,29251976822683,-165.2002,783.3254,386.61798,-174.57417,771.0116,430.86337
UncalAccel,1676592195158,29251980776815,4.0390844,0.5910272,7.0504518,0.037048545,-0.031444572,0.0098014325
OrientationDeg,1676592195158,29251980776815,273.0,-19.0,15.0
UncalGyro,1676592195164,29251985017680,0.02855795,-1.1922562,1.2006557,0.0033502672,-0.0005930199,-0.00031971303
UncalMag,1676592195164,29251986818085,-164.84639,783.9598,387.1182,-174.57417,771.0116,430.86337
UncalAccel,1676592195167,29251989257243,4.0498524,1.3172488,8.268398,0.037048545,-0.031444572,0.0098014325
OrientationDeg,1676592195167,29251989257243,272.0,-19.0,16.0
UncalGyro,1676592195171,29251993498535,-0.075289145,-1.2809844,1.1746938,0.0033502672,-0.0005930199,-0.00031971303
UncalMag,1676592195175,29251996825287,-165.371,784.0208,386.4228,-174.57417,771.0116,430.86337
UncalAccel,1676592195175,29251997738647,4.302295,1.7527425,9.389436,0.037048545,-0.031444572,0.0098014325
OrientationDeg,1676592195175,29251997738647,272.0,-20.0,16.0
UncalGyro,1676592195179,29252001979422,-0.21135938,-1.2710578,1.0963504,0.0033502672,-0.0005930199,-0.00031971303
UncalAccel,1676592195184,29252006214793,4.690531,1.9501505,10.383654,0.037048545,-0.031444572,0.0098014325
OrientationDeg,1676592195184,29252006214793,271.0,-20.0,16.0
UncalMag,1676592195184,29252006808116,-165.2856,783.7768,386.9596,-174.57417,771.0116,430.86337
UncalGyro,1676592195188,29252010448304,-0.38041633,-1.1890492,0.9980011,0.0033502672,-0.0005930199,-0.00031971303
UncalAccel,1676592195192,29252014699758,5.0482574,2.0518453,11.087144,0.037048545,-0.031444572,0.0098014325
OrientationDeg,1676592195192,29252014699758,271.0,-21.0,16.0
UncalMag,1676592195194,29252016814464,-166.6276,783.9964,386.3252,-174.57417,771.0116,430.86337
UncalGyro,1676592195196,29252018939484,-0.55878896,-1.0877982,0.90087354,0.0033502672,-0.0005930199,-0.00031971303
UncalAccel,1676592195201,29252023180888,5.17747,2.2145574,11.587842,0.037048545,-0.031444572,0.0098014325
OrientationDeg,1676592195201,29252023180888,271.0,-21.0,17.0
UncalMag,1676592195204,29252026824962,-166.83499,783.9964,386.56918,-174.57417,771.0116,430.86337
UncalGyro,1676592195205,29252027416566,-0.7405214,-0.9808969,0.7994699,0.0033502672,-0.0005930199,-0.00031971303
UncalAccel,1676592195209,29252031646913,5.1942196,2.1230319,11.989238,0.037048545,-0.031444572,0.0098014325
OrientationDeg,1676592195209,29252031646913,271.0,-22.0,17.0
UncalGyro,1676592195213,29252035892253,-0.93966347,-0.8720101,0.68691796,0.0033502672,-0.0005930199,-0.00031971303
UncalMag,1676592195214,29252036814424,-167.0302,784.1672,386.862,-174.57417,771.0116,430.86337
UncalAccel,1676592195218,29252040138521,5.21755,1.8975084,12.1866455,0.037048545,-0.031444572,0.0098014325
OrientationDeg,1676592195218,29252040138521,270.0,-22.0,18.0
UncalGyro,1676592195222,29252044382081,-1.1763737,-0.7675522,0.5681047,0.0033502672,-0.0005930199,-0.00031971303
UncalMag,1676592195224,29252046816784,-166.8838,784.9602,386.679,-174.57417,771.0116,430.86337
UncalAccel,1676592195226,29252048618125,5.2438707,1.4380864,12.217752,0.037048545,-0.031444572,0.0098014325
OrientationDeg,1676592195226,29252048618125,270.0,-22.0,19.0
UncalGyro,1676592195230,29252052853608,-1.4457654,-0.68126744,0.46715918,0.0033502672,-0.0005930199,-0.00031971303
UncalMag,1676592195234,29252056819551,-168.0062,785.3872,387.4232,-174.57417,771.0116,430.86337
UncalAccel,1676592195235,29252057108542,5.382056,0.6867401,12.150753,0.037048545,-0.031444572,0.0098014325
OrientationDeg,1676592195235,29252057108542,271.0,-23.0,19.0
UncalGyro,1676592195239,29252061329796,-1.7316502,-0.6180429,0.41431937,0.0033502672,-0.0005930199,-0.00031971303
UncalAccel,1676592195243,29252065582999,5.584848,-0.0059820567,11.816955,0.037048545,-0.031444572,0.0098014325
UncalMag,1676592195244,29252066814547,-167.78659,785.558,386.8498,-174.57417,771.0116,430.86337
OrientationDeg,1676592195243,29252065582999,271.0,-23.0,20.0
UncalGyro,1676592195248,29252069814241,-2.0187569,-0.61178154,0.41279218,0.0033502672,-0.0005930199,-0.00031971303
UncalAccel,1676592195252,29252074045249,5.7206407,-0.68494546,11.396416,0.037048545,-0.031444572,0.0098014325
UncalMag,1676592195254,29252076808118,-167.8232,786.717,387.72818,-174.57417,771.0116,430.86337
UncalGyro,1676592195256,29252078300204,-2.285705,-0.6507242,0.46700647,0.0033502672,-0.0005930199,-0.00031971303
OrientationDeg,1676592195252,29252074045249,271.0,-23.0,21.0
UncalAccel,1676592195260,29252082539624,5.7224355,-1.3639089,10.955539,0.037048545,-0.031444572,0.0098014325
OrientationDeg,1676592195260,29252082539624,271.0,-24.0,23.0
UncalGyro,1676592195264,29252086784762,-2.5062275,-0.70463306,0.56062156,0.0033502672,-0.0005930199,-0.00031971303
UncalMag,1676592195264,29252086807386,-167.8842,787.3026,387.2646,-174.57417,771.0116,430.86337
UncalAccel,1676592195269,29252091015851,5.532804,-1.896312,10.465608,0.037048545,-0.031444572,0.0098014325
UncalGyro,1676592195273,29252095258364,-2.659402,-0.75976366,0.66614854,0.0033502672,-0.0005930199,-0.00031971303
UncalMag,1676592195274,29252096823825,-168.0062,788.8276,388.6066,-174.57417,771.0116,430.86337
UncalAccel,1676592195277,29252099501458,5.2277193,-2.3958137,10.079765,0.037048545,-0.031444572,0.0098014325
UncalGyro,1676592195281,29252103742301,-2.7369816,-0.77671516,0.7612908,0.0033502672,-0.0005930199,-0.00031971303
OrientationDeg,1676592195269,29252091015851,272.0,-24.0,24.0
OrientationDeg,1676592195277,29252099501458,272.0,-25.0,25.0
UncalMag,1676592195284,29252106824842,-168.055,789.889,389.10678,-174.57417,771.0116,430.86337
UncalAccel,1676592195285,29252107981336,4.843073,-2.742773,9.935597,0.037048545,-0.031444572,0.0098014325
OrientationDeg,1676592195285,29252107981336,272.0,-25.0,27.0
UncalGyro,1676592195290,29252112218439,-2.7398834,-0.74067414,0.8196284,0.0033502672,-0.0005930199,-0.00031971303
UncalAccel,1676592195294,29252116445530,4.449454,-3.1232316,9.739387,0.037048545,-0.031444572,0.0098014325
UncalMag,1676592195294,29252116814467,-168.42099,790.5722,388.9116,-174.57417,771.0116,430.86337
OrientationDeg,1676592195294,29252116445530,272.0,-26.0,28.0
UncalGyro,1676592195298,29252120690779,-2.6925414,-0.674548,0.8414669,0.0033502672,-0.0005930199,-0.00031971303
UncalAccel,1676592195302,29252124934593,4.0767717,-3.618546,9.386445,0.037048545,-0.031444572,0.0098014325
UncalMag,1676592195305,29252126806695,-168.787,791.6092,389.0458,-174.57417,771.0116,430.86337
UncalGyro,1676592195307,29252129172396,-2.6132815,-0.6264423,0.83092946,0.0033502672,-0.0005930199,-0.00031971303
OrientationDeg,1676592195302,29252124934593,273.0,-26.0,29.0
UncalAccel,1676592195311,29252133410261,3.8111682,-4.127021,8.862417,0.037048545,-0.031444572,0.0098014325
OrientationDeg,1676592195311,29252133410261,273.0,-27.0,31.0
UncalMag,1676592195314,29252136815037,-168.8358,792.451,390.949,-174.57417,771.0116,430.86337
UncalGyro,1676592195315,29252137650414,-2.499966,-0.624457,0.78984874,0.0033502672,-0.0005930199,-0.00031971303
UncalAccel,1676592195319,29252141894169,3.5635111,-4.5876393,8.381459,0.037048545,-0.031444572,0.0098014325
OrientationDeg,1676592195319,29252141894169,273.0,-27.0,32.0
UncalGyro,1676592195324,29252146144636,-2.3493876,-0.6585127,0.7244862,0.0033502672,-0.0005930199,-0.00031971303
UncalMag,1676592195324,29252146814305,-168.7748,793.56116,389.8754,-174.57417,771.0116,430.86337
UncalAccel,1676592195328,29252150383234,3.4612179,-5.0901318,7.748558,0.037048545,-0.031444572,0.0098014325
OrientationDeg,1676592195328,29252150383234,273.0,-27.0,33.0
UncalGyro,1676592195332,29252154622470,-2.1623104,-0.7276932,0.6365216,0.0033502672,-0.0005930199,-0.00031971303
UncalMag,1676592195334,29252156824803,-168.8114,794.7202,390.9978,-174.57417,771.0116,430.86337
UncalAccel,1676592195336,29252158862116,3.4576287,-5.54417,7.2352977,0.037048545,-0.031444572,0.0098014325
OrientationDeg,1676592195336,29252158862116,274.0,-28.0,34.0
UncalGyro,1676592195341,29252163103417,-1.9320141,-0.8026769,0.538325,0.0033502672,-0.0005930199,-0.00031971303
UncalMag,1676592195344,29252166825088,-169.58,795.8304,390.80258,-174.57417,771.0116,430.86337
UncalAccel,1676592195345,29252167341506,3.5198421,-5.8307104,6.778867,0.037048545,-0.031444572,0.0098014325
OrientationDeg,1676592195345,29252167341506,274.0,-29.0,35.0
UncalGyro,1676592195349,29252171572901,-1.6520851,-0.8756753,0.42195517,0.0033502672,-0.0005930199,-0.00031971303
UncalAccel,1676592195353,29252175824559,3.6526437,-5.9150577,6.3314085,0.037048545,-0.031444572,0.0098014325
OrientationDeg,1676592195353,29252175824559,274.0,-29.0,36.0
UncalMag,1676592195354,29252176814794,-169.21399,796.5746,391.9372,-174.57417,771.0116,430.86337
UncalGyro,1676592195358,29252180072759,-1.319469,-0.9418015,0.28313604,0.0033502672,-0.0005930199,-0.00031971303
UncalAccel,1676592195362,29252184305404,3.778865,-5.899504,6.10768,0.037048545,-0.031444572,0.0098014325
OrientationDeg,1676592195362,29252184305404,274.0,-30.0,36.0
UncalMag,1676592195364,29252186836604,-169.336,796.3062,391.75418,-174.57417,771.0116,430.86337
UncalGyro,1676592195366,29252188544062,-0.93874717,-0.9726502,0.119729586,0.0033502672,-0.0005930199,-0.00031971303
UncalAccel,1676592195370,29252192780359,3.970889,-5.922236,6.018547,0.037048545,-0.031444572,0.0098014325
OrientationDeg,1676592195370,29252192780359,275.0,-30.0,36.0
UncalMag,1676592195374,29252196819555,-170.0314,797.087,392.2056,-174.57417,771.0116,430.86337
UncalGyro,1676592195375,29252197021825,-0.5140431,-0.959822,-0.06169739,0.0033502672,-0.0005930199,-0.00031971303
UncalAccel,1676592195379,29252201254787,4.339982,-6.025726,6.0119667,0.037048545,-0.031444572,0.0098014325
OrientationDeg,1676592195379,29252201254787,275.0,-31.0,36.0
UncalGyro,1676592195383,29252205505447,-0.059864793,-0.88438016,-0.24678956,0.0033502672,-0.0005930199,-0.00031971303
UncalMag,1676592195384,29252206824886,-169.7874,797.5384,392.4252,-174.57417,771.0116,430.86337
UncalAccel,1676592195387,29252209742142,4.7892346,-6.151947,6.129813,0.037048545,-0.031444572,0.0098014325
OrientationDeg,1676592195387,29252209742142,275.0,-31.0,36.0
UncalGyro,1676592195391,29252213980830,0.40607268,-0.7498371,-0.4017966,0.0033502672,-0.0005930199,-0.00031971303
UncalMag,1676592195394,29252216825293,-170.5316,797.3188,391.54678,-174.57417,771.0116,430.86337
UncalAccel,1676592195396,29252218223466,5.2534423,-6.326623,6.22433,0.037048545,-0.031444572,0.0098014325
OrientationDeg,1676592195396,29252218223466,275.0,-32.0,36.0
UncalGyro,1676592195400,29252222463914,0.86208355,-0.5919284,-0.50961435,0.0033502672,-0.0005930199,-0.00031971303
UncalAccel,1676592195404,29252226702195,5.7074804,-6.472585,6.390033,0.037048545,-0.031444572,0.0098014325
UncalMag,1676592195404,29252226838680,-171.3246,796.355,391.8152,-174.57417,771.0116,430.86337
OrientationDeg,1676592195404,29252226702195,275.0,-32.0,35.0
UncalGyro,1676592195408,29252230947506,1.2841915,-0.43508878,-0.5708536,0.0033502672,-0.0005930199,-0.00031971303
UncalAccel,1676592195413,29252235194555,6.0825553,-6.567102,6.827321,0.037048545,-0.031444572,0.0098014325
UncalMag,1676592195414,29252236814226,-171.8492,796.2452,391.6932,-174.57417,771.0116,430.86337
OrientationDeg,1676592195413,29252235194555,275.0,-32.0,34.0
UncalGyro,1676592195417,29252239426144,1.6554449,-0.2771801,-0.5815437,0.0033502672,-0.0005930199,-0.00031971303
UncalAccel,1676592195421,29252243664384,6.422934,-6.608378,7.3166533,0.037048545,-0.031444572,0.0098014325
UncalMag,1676592195424,29252246825009,-171.715,795.074,390.3146,-174.57417,771.0116,430.86337
UncalGyro,1676592195425,29252247902808,1.9515617,-0.14782938,-0.5386304,0.0033502672,-0.0005930199,-0.00031971303
OrientationDeg,1676592195421,29252243664384,274.0,-32.0,34.0
UncalAccel,1676592195430,29252252144335,6.7184477,-6.693323,7.533802,0.037048545,-0.031444572,0.0098014325
OrientationDeg,1676592195430,29252252144335,274.0,-32.0,33.0
UncalGyro,1676592195434,29252256385637,2.146275,-0.09743301,-0.43050727,0.0033502672,-0.0005930199,-0.00031971303
UncalMag,1676592195434,29252256836443,-171.8492,794.5372,389.58258,-174.57417,771.0116,430.86337
UncalAccel,1676592195438,29252260624997,6.7890363,-6.558727,7.6384883,0.037048545,-0.031444572,0.0098014325
OrientationDeg,1676592195438,29252260624997,273.0,-31.0,32.0
UncalGyro,1676592195442,29252264866309,2.2511911,-0.11346822,-0.27076602,0.0033502672,-0.0005930199,-0.00031971303
UncalMag,1676592195444,29252266825091,-172.1054,793.7564,390.2536,-174.57417,771.0116,430.86337
UncalAccel,1676592195447,29252269106443,6.5922265,-6.134599,8.045268,0.037048545,-0.031444572,0.0098014325
OrientationDeg,1676592195447,29252269106443,273.0,-31.0,31.0
UncalGyro,1676592195451,29252273347266,2.2883012,-0.12385293,-0.100792766,0.0033502672,-0.0005930199,-0.00031971303
UncalMag,1676592195454,29252276825131,-172.47139,792.8536,389.31418,-174.57417,771.0116,430.86337
UncalAccel,1676592195455,29252277585446,6.2937217,-5.634499,8.571091,0.037048545,-0.031444572,0.0098014325
OrientationDeg,1676592195455,29252277585446,272.0,-31.0,30.0
UncalGyro,1676592195459,29252281825488,2.2737932,-0.09101892,0.04795292,0.0033502672,-0.0005930199,-0.00031971303
UncalAccel,1676592195464,29252286062354,5.986842,-5.0859447,8.986245,0.037048545,-0.031444572,0.0098014325
UncalMag,1676592195464,29252286814267,-172.5324,791.87756,388.7164,-174.57417,771.0116,430.86337
OrientationDeg,1676592195464,29252286062354,271.0,-31.0,29.0
UncalGyro,1676592195468,29252290307198,2.2049181,-0.024587326,0.17547104,0.0033502672,-0.0005930199,-0.00031971303
UncalAccel,1676592195472,29252294545723,5.6327047,-4.4368916,9.162118,0.037048545,-0.031444572,0.0098014325
OrientationDeg,1676592195472,29252294545723,271.0,-30.0,28.0
UncalMag,1676592195474,29252296822813,-172.4836,790.8894,387.7648,-174.57417,771.0116,430.86337
UncalGyro,1676592195476,29252298787870,2.0815234,0.043829583,0.2855795,0.0033502672,-0.0005930199,-0.00031971303
UncalAccel,1676592195481,29252303026934,5.319843,-3.8590248,8.975478,0.037048545,-0.031444572,0.0098014325
OrientationDeg,1676592195481,29252303026934,270.0,-30.0,27.0
UncalMag,1676592195485,29252306825092,-171.99559,790.2062,388.0698,-174.57417,771.0116,430.86337
UncalGyro,1676592195485,29252307264646,1.9199494,0.054825157,0.37782016,0.0033502672,-0.0005930199,-0.00031971303
UncalAccel,1676592195489,29252311495787,5.0081778,-3.2859437,8.732008,0.037048545,-0.031444572,0.0098014325
OrientationDeg,1676592195489,29252311495787,269.0,-30.0,27.0
UncalGyro,1676592195493,29252315747333,1.7421877,0.012217305,0.44883323,0.0033502672,-0.0005930199,-0.00031971303
UncalMag,1676592195494,29252316809060,-171.8248,789.706,388.3016,-174.57417,771.0116,430.86337
UncalAccel,1676592195497,29252319985085,4.714459,-2.7026932,8.598608,0.037048545,-0.031444572,0.0098014325
OrientationDeg,1676592195497,29252319985085,269.0,-29.0,26.0
UncalGyro,1676592195502,29252324222817,1.5563319,-0.054825157,0.49663344,0.0033502672,-0.0005930199,-0.00031971303
UncalMag,1676592195504,29252326825011,-171.776,788.6446,387.93558,-174.57417,771.0116,430.86337
UncalAccel,1676592195506,29252328454029,4.551747,-2.344368,8.333005,0.037048545,-0.031444572,0.0098014325
OrientationDeg,1676592195506,29252328454029,268.0,-29.0,25.0
UncalGyro,1676592195510,29252332697599,1.3674219,-0.14340061,0.52946746,0.0033502672,-0.0005930199,-0.00031971303
UncalMag,1676592195514,29252336825214,-171.6906,788.37616,387.61838,-174.57417,771.0116,430.86337
UncalAccel,1676592195515,29252336949563,4.538586,-2.027319,7.9591265,0.037048545,-0.031444572,0.0098014325
OrientationDeg,1676592195514,29252336949563,267.0,-29.0,25.0
OrientationDeg,1676592195523,29252345411651,267.0,-29.0,25.0
UncalGyro,1676592195519,29252341187102,1.1917981,-0.24281894,0.5487097,0.003355681,-0.00059069484,-0.00031962275
UncalAccel,1676592195523,29252345411651,4.5152564,-1.7156538,7.6516485,0.037048545,-0.031444572,0.0098014325
UncalMag,1676592195524,29252346814269,-171.715,788.0102,386.923,-174.57417,771.0116,430.86337
UncalGyro,1676592195527,29252349667337,1.0519099,-0.3135266,0.5688683,0.0033586062,-0.00058943866,-0.00031957397
UncalAccel,1676592195531,29252353901599,4.5882373,-1.5373886,7.3603225,0.037048545,-0.031444572,0.0098014325
OrientationDeg,1676592195531,29252353901599,266.0,-29.0,24.0
UncalMag,1676592195534,29252356825215,-171.9468,787.6686,387.3378,-174.57417,771.0116,430.86337
UncalGyro,1676592195536,29252358142821,0.9549351,-0.34284812,0.59956425,0.0033590486,-0.0005892486,-0.0003195666
UncalAccel,1676592195540,29252362387734,4.7730827,-1.4925231,6.908079,0.037048545,-0.031444572,0.0098014325
OrientationDeg,1676592195540,29252362387734,266.0,-29.0,24.0
UncalGyro,1676592195544,29252366629780,0.8915578,-0.35246924,0.65836,0.0033591157,-0.00058921985,-0.0003195655
UncalMag,1676592195544,29252366826476,-171.8736,787.0586,387.3134,-174.57417,771.0116,430.86337
UncalAccel,1676592195548,29252370871744,4.9531426,-1.4811572,6.5030937,0.037048545,-0.031444572,0.0098014325
OrientationDeg,1676592195549,29252370871744,265.0,-29.0,24.0
UncalGyro,1676592195553,29252375105184,0.8498663,-0.34269542,0.7431176,0.003359126,-0.0005892155,-0.0003195653
UncalMag,1676592195554,29252376825053,-172.12979,786.3266,386.41058,-174.57417,771.0116,430.86337
