# 
# Header Description:
# 
# Version: v3.0.5.6 Platform: 13 Manufacturer: Google Model: Pixel 7
# 
# Raw,utcTimeMillis,TimeNanos,LeapSecond,TimeUncertaintyNanos,FullBiasNanos,BiasNanos,BiasUncertaintyNanos,DriftNanosPerSecond,DriftUncertaintyNanosPerSecond,HardwareClockDiscontinuityCount,Svid,TimeOffsetNanos,State,ReceivedSvTimeNanos,ReceivedSvTimeUncertaintyNanos,Cn0DbHz,PseudorangeRateMetersPerSecond,PseudorangeRateUncertaintyMetersPerSecond,AccumulatedDeltaRangeState,AccumulatedDeltaRangeMeters,AccumulatedDeltaRangeUncertaintyMeters,CarrierFrequencyHz,CarrierCycles,CarrierPhase,CarrierPhaseUncertainty,MultipathIndicator,SnrInDb,ConstellationType,AgcDb,BasebandCn0DbHz,FullInterSignalBiasNanos,FullInterSignalBiasUncertaintyNanos,SatelliteInterSignalBiasNanos,SatelliteInterSignalBiasUncertaintyNanos,CodeType,ChipsetElapsedRealtimeNanos
# 
# UncalAccel,utcTimeMillis,elapsedRealtimeNanos,UncalAccelXMps2,UncalAccelYMps2,UncalAccelZMps2,BiasXMps2,BiasYMps2,BiasZMps2
# 
# Accel,utcTimeMillis,elapsedRealtimeNanos,AccelXMps2,AccelYMps2,AccelZMps2
# 
# UncalGyro,utcTimeMillis,elapsedRealtimeNanos,UncalGyroXRadPerSec,UncalGyroYRadPerSec,UncalGyroZRadPerSec,DriftXRadPerSec,DriftYRadPerSec,DriftZRadPerSec
# 
# Gyro,utcTimeMillis,elapsedRealtimeNanos,GyroXRadPerSec,GyroYRadPerSec,GyroZRadPerSec
# 
# UncalMag,utcTimeMillis,elapsedRealtimeNanos,UncalMagXMicroT,UncalMagYMicroT,UncalMagZMicroT,BiasXMicroT,BiasYMicroT,BiasZMicroT
# 
# Mag,utcTimeMillis,elapsedRealtimeNanos,MagXMicroT,MagYMicroT,MagZMicroT
# 
# OrientationDeg,utcTimeMillis,elapsedRealtimeNanos,yawDeg,rollDeg,pitchDeg
# 
# Fix,Provider,LatitudeDegrees,LongitudeDegrees,AltitudeMeters,SpeedMps,AccuracyMeters,BearingDegrees,UnixTimeMillis,SpeedAccuracyMps,BearingAccuracyDegrees,elapsedRealtimeNanos,VerticalAccuracyMeters
# 
# Nav,Svid,Type,Status,MessageId,Sub-messageId,Data(Bytes)
# 
# Status,UnixTimeMillis,SignalCount,SignalIndex,ConstellationType,Svid,CarrierFrequencyHz,Cn0DbHz,AzimuthDegrees,ElevationDegrees,UsedInFix,HasAlmanacData,HasEphemerisData,BasebandCn0DbHz
# 
UncalAccel,1676594080870,31137692062420,-0.69571316,0.92662054,11.813964,0.037048545,-0.031444572,0.0098014325
UncalGyro,1676594080874,31137696295748,-0.013286319,-0.11255192,0.122783914,0.0006384142,-0.0013481528,-0.00032224949
UncalGyro,1676594080883,31137704779176,-0.072540246,-0.16126843,0.027794369,0.0006384142,-0.0013481528,-0.00032224949
UncalAccel,1676594080878,31137700537386,-0.6664011,0.78783685,11.867204,0.037048545,-0.031444572,0.0098014325
UncalAccel,1676594080887,31137709016897,-0.6658029,0.6346962,11.867802,0.037048545,-0.031444572,0.0098014325
OrientationDeg,1676594080878,31137700537386,226.0,3.0,-8.0
UncalMag,1676594080872,31137694575238,-156.4162,747.60376,395.646,-174.57417,771.0116,430.86337
UncalMag,1676594080882,31137704577841,-156.2088,747.6282,396.1218,-174.57417,771.0116,430.86337
Fix,FLP,37.4312867000,-122.1550352000,-16.200000762939453,0.14414053,4.021,315.0001,1676594079998,0.10348123,33.414013,31136820781000,2.0487113
OrientationDeg,1676594080887,31137709016897,227.0,2.0,-8.0
UncalGyro,1676594080891,31137713261373,-0.1226312,-0.22937989,-0.08353582,0.0006384142,-0.0013481528,-0.00032224949
UncalAccel,1676594080896,31137717503519,-0.64008003,0.4001996,11.802598,0.037048545,-0.031444572,0.0098014325
UncalGyro,1676594080899,31137721738922,-0.16050485,-0.31948254,-0.21059579,0.0006384142,-0.0013481528,-0.00032224949
UncalMag,1676594080892,31137714577759,-156.221,747.5306,395.62158,-174.57417,771.0116,430.86337
UncalMag,1676594080902,31137724579752,-156.465,748.55536,395.3898,-174.57417,771.0116,430.86337
UncalAccel,1676594080903,31137725977814,-0.6203393,0.1363909,11.88515,0.037048545,-0.031444572,0.0098014325
UncalGyro,1676594080908,31137730218597,-0.18570304,-0.39446622,-0.3538437,0.0006384142,-0.0013481528,-0.00032224949
UncalAccel,1676594080912,31137734459573,-0.6729814,-0.06520442,12.062219,0.037048545,-0.031444572,0.0098014325
OrientationDeg,1676594080895,31137717503519,227.0,2.0,-8.0
OrientationDeg,1676594080903,31137725977814,227.0,2.0,-8.0
OrientationDeg,1676594080912,31137734459573,227.0,2.0,-7.0
UncalMag,1676594080912,31137734573200,-156.709,748.12836,395.5362,-174.57417,771.0116,430.86337
UncalGyro,1676594080916,31137738702259,-0.19394971,-0.44898596,-0.5213735,0.0006384142,-0.0013481528,-0.00032224949
UncalAccel,1676594080920,31137742942339,-0.72442704,-0.2428715,12.000604,0.037048545,-0.031444572,0.0098014325
UncalMag,1676594080922,31137744577798,-156.13559,748.8238,395.19458,-174.57417,771.0116,430.86337
OrientationDeg,1676594080920,31137742942339,227.0,2.0,-7.0
UncalGyro,1676594080925,31137747183672,-0.1742493,-0.50671273,-0.7133379,0.0006384142,-0.0013481528,-0.00032224949
UncalAccel,1676594080929,31137751423266,-0.7932207,-0.50129634,11.820544,0.037048545,-0.031444572,0.0098014325
OrientationDeg,1676594080929,31137751423266,228.0,2.0,-7.0
UncalMag,1676594080932,31137754580157,-156.2576,748.66516,395.768,-174.57417,771.0116,430.86337
UncalGyro,1676594080933,31137755663795,-0.12064589,-0.5746715,-0.91904676,0.0006384142,-0.0013481528,-0.00032224949
UncalAccel,1676594080937,31137759903133,-0.8237292,-0.7507481,11.644671,0.037048545,-0.031444572,0.0098014325
OrientationDeg,1676594080937,31137759903133,228.0,1.0,-7.0
UncalGyro,1676594080942,31137764142889,-0.03894266,-0.64461553,-1.131017,0.0006384142,-0.0013481528,-0.00032224949
UncalMag,1676594080942,31137764574744,-156.2332,749.0068,395.6094,-174.57417,771.0116,430.86337
UncalAccel,1676594080946,31137768383052,-0.7938189,-0.89371926,11.526227,0.037048545,-0.031444572,0.0098014325
OrientationDeg,1676594080946,31137768383052,229.0,1.0,-7.0
UncalGyro,1676594080950,31137772625036,0.058337633,-0.70386946,-1.3509285,0.0006384142,-0.0013481528,-0.00032224949
UncalMag,1676594080952,31137774578935,-156.5382,749.0678,394.9018,-174.57417,771.0116,430.86337
UncalAccel,1676594080954,31137776865605,-0.6963114,-1.0031909,11.370095,0.037048545,-0.031444572,0.0098014325
OrientationDeg,1676594080954,31137776865605,230.0,1.0,-7.0
UncalGyro,1676594080959,31137781113978,0.15760323,-0.76067996,-1.5745052,0.0006384142,-0.0013481528,-0.00032224949
UncalMag,1676594080962,31137784578853,-156.3064,749.39716,394.3772,-174.57417,771.0116,430.86337
UncalAccel,1676594080963,31137785348780,-0.637089,-1.1318051,11.237293,0.037048545,-0.031444572,0.0098014325
OrientationDeg,1676594080963,31137785348780,230.0,1.0,-7.0
UncalGyro,1676594080967,31137789587316,0.25366178,-0.8054258,-1.79854,0.0006384142,-0.0013481528,-0.00032224949
UncalAccel,1676594080971,31137793827610,-0.6939186,-1.2137593,11.204392,0.037048545,-0.031444572,0.0098014325
UncalMag,1676594080972,31137794571690,-156.08679,749.7022,395.41418,-174.57417,771.0116,430.86337
OrientationDeg,1676594080971,31137793827610,231.0,0.0,-7.0
UncalGyro,1676594080976,31137798070438,0.34269542,-0.8352055,-2.0259347,0.0006384142,-0.0013481528,-0.00032224949
UncalAccel,1676594080980,31137802311313,-0.78364944,-1.1754742,11.045868,0.037048545,-0.031444572,0.0098014325
OrientationDeg,1676594080980,31137802311313,232.0,0.0,-7.0
UncalMag,1676594080982,31137804578770,-156.5748,750.2024,394.9384,-174.57417,771.0116,430.86337
UncalGyro,1676594080984,31137806550989,0.42714754,-0.8713993,-2.261423,0.0006384142,-0.0013481528,-0.00032224949
UncalAccel,1676594080988,31137810784620,-0.8063812,-1.1611172,10.85504,0.037048545,-0.031444572,0.0098014325
OrientationDeg,1676594080988,31137810784620,234.0,0.0,-8.0
UncalMag,1676594080992,31137814580437,-156.282,749.83636,394.2308,-174.57417,771.0116,430.86337
UncalGyro,1676594080993,31137815032209,0.5056437,-0.91981035,-2.49401,0.0006384142,-0.0013481528,-0.00032224949
UncalAccel,1676594080997,31137819268069,-0.762114,-1.2514462,10.788639,0.037048545,-0.031444572,0.0098014325
OrientationDeg,1676594080997,31137819268069,235.0,0.0,-8.0
UncalGyro,1676594081001,31137823513898,0.5670357,-0.95340794,-2.7111726,0.0006384142,-0.0013481528,-0.00032224949
UncalMag,1676594081002,31137824580640,-156.465,750.2878,394.9506,-174.57417,771.0116,430.86337
UncalAccel,1676594081005,31137827748791,-0.6945168,-1.3519448,10.780264,0.037048545,-0.031444572,0.0098014325
OrientationDeg,1676594081006,31137827748791,236.0,0.0,-8.0
UncalGyro,1676594081009,31137831990561,0.6064365,-0.9592112,-2.89993,0.0006384142,-0.0013481528,-0.00032224949
UncalMag,1676594081012,31137834579581,-155.8306,750.45856,394.2552,-174.57417,771.0116,430.86337
UncalAccel,1676594081014,31137836229931,-0.60777694,-1.4327025,10.695319,0.037048545,-0.031444572,0.0098014325
OrientationDeg,1676594081014,31137836229931,238.0,0.0,-8.0
UncalGyro,1676594081018,31137840474224,0.6310238,-0.95249164,-3.058144,0.0006384142,-0.0013481528,-0.00032224949
UncalMag,1676594081022,31137844582754,-155.7818,751.1784,395.2678,-174.57417,771.0116,430.86337
UncalAccel,1676594081022,31137844713898,-0.50488555,-1.4793626,10.442876,0.037048545,-0.031444572,0.0098014325
OrientationDeg,1676594081022,31137844713898,239.0,0.0,-9.0
UncalGyro,1676594081026,31137848954295,0.64721173,-0.9599747,-3.1893275,0.0006384142,-0.0013481528,-0.00032224949
UncalAccel,1676594081031,31137853194040,-0.3786642,-1.6366907,10.244272,0.037048545,-0.031444572,0.0098014325
UncalMag,1676594081032,31137854586456,-155.34259,751.4956,393.6452,-174.57417,771.0116,430.86337
OrientationDeg,1676594081031,31137853194040,241.0,0.0,-9.0
UncalGyro,1676594081035,31137857435658,0.6365216,-0.9763154,-3.2879822,0.0006384142,-0.0013481528,-0.00032224949
UncalAccel,1676594081039,31137861676981,-0.2620141,-1.7790636,10.145568,0.037048545,-0.031444572,0.0098014325
OrientationDeg,1676594081039,31137861676981,242.0,-1.0,-9.0
UncalMag,1676594081042,31137864580230,-155.1108,751.84937,393.9624,-174.57417,771.0116,430.86337
UncalGyro,1676594081043,31137865919585,0.5919284,-1.009913,-3.3603697,0.0006384142,-0.0013481528,-0.00032224949
UncalAccel,1676594081048,31137870155313,-0.14596218,-1.8071793,10.003195,0.037048545,-0.031444572,0.0098014325
OrientationDeg,1676594081048,31137870155313,244.0,-1.0,-10.0
UncalGyro,1676594081052,31137874396747,0.5215262,-1.0531317,-3.4196236,0.0006384142,-0.0013481528,-0.00032224949
UncalMag,1676594081052,31137874569894,-154.57399,752.13,394.13318,-174.57417,771.0116,430.86337
UncalAccel,1676594081056,31137878635475,-0.011964113,-1.791626,9.994222,0.037048545,-0.031444572,0.0098014325
OrientationDeg,1676594081057,31137878635475,246.0,-1.0,-10.0
UncalGyro,1676594081060,31137882881446,0.4288274,-1.0855075,-3.4691038,0.0006384142,-0.0013481528,-0.00032224949
UncalMag,1676594081062,31137884580554,-154.696,751.8616,393.8282,-174.57417,771.0116,430.86337
UncalAccel,1676594081065,31137887118323,0.016151553,-1.7246269,9.984651,0.037048545,-0.031444572,0.0098014325
OrientationDeg,1676594081065,31137887118323,248.0,-1.0,-10.0
UncalGyro,1676594081069,31137891361213,0.3352123,-1.1029172,-3.520111,0.0006384142,-0.0013481528,-0.00032224949
UncalMag,1676594081072,31137894578071,-154.4886,753.5086,393.6208,-174.57417,771.0116,430.86337
UncalAccel,1676594081073,31137895596676,-0.11844472,-1.6295122,9.983455,0.037048545,-0.031444572,0.0098014325
OrientationDeg,1676594081073,31137895596676,249.0,-1.0,-10.0
UncalGyro,1676594081077,31137899837988,0.26053402,-1.1142182,-3.5760052,0.0006384142,-0.0013481528,-0.00032224949
Status,0,30,0,6,2,1176450050,38.31,94.0,78.0,1,1,1,34.712994
Status,0,30,1,6,2,1575420030,38.86,94.0,78.0,1,1,1,35.25517
Status,0,30,2,3,17,1604249980,44.06,302.0,74.0,1,1,1,40.45718
Status,0,30,3,1,11,1575420030,40.77,138.0,74.0,1,1,1,37.17384
Status,0,30,4,1,11,1176450050,36.24,138.0,74.0,1,1,1,32.640488
Status,0,30,5,3,15,1602000000,42.90,325.0,72.0,1,1,1,39.302437
Status,0,30,6,6,36,1575420030,36.54,56.0,65.0,1,1,1,32.935696
Status,0,30,7,6,36,1176450050,40.05,56.0,65.0,1,1,1,36.45464
Status,0,30,8,1,12,1575420030,44.32,325.0,61.0,1,1,1,40.716347
Status,0,30,9,6,34,1176450050,36.48,204.0,56.0,1,1,1,32.883728
Status,0,30,10,6,34,1575420030,46.25,204.0,56.0,1,1,1,42.64703
Status,0,30,11,3,14,1598062460,40.35,149.0,50.0,1,1,1,36.75455
Status,0,30,12,1,6,1176450050,40.83,50.0,48.0,1,1,1,37.231613
Status,0,30,13,1,6,1575420030,37.49,50.0,48.0,1,1,1,33.89151
Status,0,30,14,6,30,1575420030,41.17,315.0,43.0,1,1,1,37.567642
Status,0,30,15,6,30,1176450050,38.56,315.0,43.0,1,1,1,34.95813
Status,0,30,16,1,24,1575420030,46.21,222.0,41.0,1,1,1,42.608746
Status,0,30,17,1,24,1176450050,38.81,222.0,41.0,1,1,1,35.205193
Status,0,30,18,3,24,1603124990,40.52,32.0,34.0,1,1,1,36.915714
Status,0,30,19,3,18,1600312450,45.77,235.0,32.0,1,1,1,42.16892
Status,0,30,20,1,25,1575420030,43.04,311.0,31.0,1,1,1,39.44204
Status,0,30,21,1,25,1176450050,38.32,311.0,31.0,1,1,1,34.71791
Status,0,30,22,1,19,1575420030,36.63,58.0,28.0,1,1,1,33.026432
Status,0,30,23,6,25,1575420030,37.78,124.0,28.0,1,1,1,34.175488
Status,0,30,24,6,25,1176450050,36.97,124.0,28.0,1,1,1,33.369205
Status,0,30,25,1,20,1575420030,45.21,144.0,23.0,1,1,1,41.609535
Status,0,30,26,3,16,1601437440,41.27,328.0,18.0,1,1,1,37.67144
Status,0,30,27,6,11,1176450050,33.90,40.0,17.0,1,1,1,30.30076
Status,0,30,28,6,11,1575420030,32.32,40.0,17.0,1,1,1,28.719675
Status,0,30,29,1,29,1575420030,47.05,262.0,12.0,1,1,1,43.4458
UncalAccel,1676594081082,31137904080644,-0.2656033,-1.5678971,9.843474,0.037048545,-0.031444572,0.0098014325
OrientationDeg,1676594081082,31137904080644,251.0,-2.0,-10.0
UncalMag,1676594081082,31137904577948,-154.696,753.5086,393.7428,-174.57417,771.0116,430.86337
Fix,GPS,37.4312853220,-122.1550352749,-7.9568674180735695,0.13544193,3.1078813,315.41788,1676594080999,0.100467764,25.315659,31137820758000,3.0
UncalGyro,1676594081086,31137908322007,0.21624629,-1.131017,-3.6338847,0.0006384142,-0.0013481528,-0.00032224949
UncalAccel,1676594081090,31137912560553,-0.3367898,-1.5828521,9.747761,0.037048545,-0.031444572,0.0098014325
OrientationDeg,1676594081090,31137912560553,253.0,-2.0,-10.0
Raw,1676594080999,837043000000,,,-1360628461956677541,0.0,7.671631265349215,156.0,1.0,56,6,0.0,16431,434098928405583,32,31.518482208251953,461.11286967266733,0.6947003814490178,16,354532.2630762792,340282346638528860000000000000000000000,1575420030,,,,0,,1,,27.918481826782227,0.320142130558394,1.0,0.320142130558394,1.0,C,31137820758000
Raw,1676594080999,837043000000,,,-1360628461956677541,0.0,7.671631265349215,156.0,1.0,56,11,0.0,16431,434098931515325,22,36.16551971435547,-80.61929022572963,0.15,16,-106292.73597552457,340282346638528860000000000000000000000,1575420030,,,,0,,1,,32.565521240234375,-0.20372681261465636,1.0,-0.20372681261465636,1.0,C,31137820758000
Raw,1676594080999,837043000000,,,-1360628461956677541,0.0,7.671631265349215,156.0,1.0,56,12,0.0,16431,434098930626901,16,39.63605880737305,-257.6122646688906,0.15,16,-236605.7872782866,340282346638528860000000000000000000000,1575420030,,,,0,,1,,36.03606033325195,-0.6984919076624261,1.0,-0.6984919076624261,1.0,C,31137820758000
Raw,1676594080999,837043000000,,,-1360628461956677541,0.0,7.671631265349215,156.0,1.0,56,19,0.0,16431,434098924130869,21,36.62643051147461,545.1985502215059,0.15,16,451701.3456647405,340282346638528860000000000000000000000,1575420030,,,,0,,1,,33.026432037353516,0.0,1.0,0.0,1.0,C,31137820758000
Raw,1676594080999,837043000000,,,-1360628461956677541,0.0,7.671631265349215,156.0,1.0,56,20,0.0,16431,434098921771324,13,44.64690399169922,-509.7074998530643,0.15,16,-431737.66527716373,340282346638528860000000000000000000000,1575420030,,,,0,,1,,41.046905517578125,0.0,1.0,0.0,1.0,C,31137820758000
Raw,1676594080999,837043000000,,,-1360628461956677541,0.0,7.671631265349215,156.0,1.0,56,24,0.0,16431,434098925884135,12,45.68391036987305,521.8028183537053,0.15,16,411014.90730620734,340282346638528860000000000000000000000,1575420030,,,,0,,1,,42.08391189575195,-0.20372681261465636,1.0,-0.20372681261465636,1.0,C,31137820758000
Raw,1676594080999,837043000000,,,-1360628461956677541,0.0,7.671631265349215,156.0,1.0,56,25,0.0,16431,434098925341652,22,35.9716682434082,-505.96572328125103,0.49389440255777073,16,-432202.9294792272,340282346638528860000000000000000000000,1575420030,,,,0,,1,,32.37166976928711,-2.0372682255564105,1.0,-2.0372682255564105,1.0,C,31137820758000
Raw,1676594080999,837043000000,,,-1360628461956677541,0.0,7.671631265349215,156.0,1.0,56,29,0.0,16419,434098917340241,11,47.045799255371094,-461.94679921886745,0.15,16,-254417.73566524,340282346638528860000000000000000000000,1575420030,,,,0,,1,,43.44580078125,-0.6984919076624261,1.0,-0.6984919076624261,1.0,C,31137820758000
Raw,1676594080999,837043000000,,,-1360628461956677541,0.0,7.671631265349215,156.0,1.0,56,6,0.0,81921,434098928406099,8,40.83161163330078,460.2021182694648,0.15,16,355762.57899395167,340282346638528860000000000000000000000,1176450050,,,,0,,1,,37.23161315917969,1.9208527336454408,1.342732148457653,1.9208527336454408,1.0,Q,31137820758000
Raw,1676594080999,837043000000,,,-1360628461956677541,0.0,7.671631265349215,156.0,1.0,56,11,0.0,81921,434098931515854,38,26.295007705688477,-79.57318034644675,0.9301536403857238,16,-106882.0652946652,340282346638528860000000000000000000000,1176450050,,,,0,,1,,22.69500732421875,0.0,1.342732148457653,0.0,1.0,Q,31137820758000
Raw,1676594080999,837043000000,,,-1360628461956677541,0.0,7.671631265349215,156.0,1.0,56,24,0.0,81921,434098925884623,11,35.90681838989258,521.9243223112092,0.4969083035373152,16,410964.42331900157,340282346638528860000000000000000000000,1176450050,,,,0,,1,,32.306819915771484,3.5215636101095664,1.342732148457653,3.5215636101095664,1.0,Q,31137820758000
Raw,1676594080999,837043000000,,,-1360628461956677541,0.0,7.671631265349215,156.0,1.0,56,25,0.0,81921,434098925342162,10,38.317909240722656,-506.02509492051377,0.15,16,-433768.2758296649,340282346638528860000000000000000000000,1176450050,,,,0,,1,,34.71791076660156,1.0186341127782053,1.342732148457653,1.0186341127782053,1.0,Q,31137820758000
Raw,1676594080999,837043000000,,,-1360628461956677541,0.0,7.671631265349215,156.0,1.0,56,14,0.0,32995,12880932063521,41,37.23372268676758,556.3572146519871,0.15,16,425775.12883826054,340282346638528860000000000000000000000,1598062460,,,,0,,3,,33.633724212646484,52.1540641784668,2.0000000474974513,52.1540641784668,2.0000000474974513,C,31137820758000
Raw,1676594080999,837043000000,,,-1360628461956677541,0.0,7.671631265349215,156.0,1.0,56,18,0.0,32995,12880928084454,33,45.58926010131836,-495.5506017222715,0.15,16,-441222.52334818046,340282346638528860000000000000000000000,1600312450,,,,0,,3,,41.989261627197266,52.1540641784668,2.0000000474974513,52.1540641784668,2.0000000474974513,C,31137820758000
Raw,1676594080999,837043000000,,,-1360628461956677541,0.0,7.671631265349215,156.0,1.0,56,16,0.0,32867,12880923385484,33,41.249473571777344,-709.4640958841255,0.15,16,-598088.4759632652,340282346638528860000000000000000000000,1601437440,,,,0,,3,,37.64947509765625,52.1540641784668,2.0000000474974513,52.1540641784668,2.0000000474974513,C,31137820758000
Raw,1676594080999,837043000000,,,-1360628461956677541,0.0,7.671631265349215,156.0,1.0,56,15,0.0,32995,12880935086797,47,35.387237548828125,-197.41748295744424,0.5219286209610381,16,-208627.69863646405,340282346638528860000000000000000000000,1602000000,,,,0,,3,,31.78723907470703,52.1540641784668,2.0000000474974513,52.1540641784668,2.0000000474974513,C,31137820758000
Raw,1676594080999,837043000000,,,-1360628461956677541,0.0,7.671631265349215,156.0,1.0,56,24,0.0,32995,12880928451612,62,32.04539489746094,667.8991768562973,0.6710140061078351,16,546536.8154888814,340282346638528860000000000000000000000,1603124990,,,,1,,3,,28.445396423339844,52.1540641784668,2.0000000474974513,52.1540641784668,2.0000000474974513,C,31137820758000
Raw,1676594080999,837043000000,,,-1360628461956677541,0.0,7.671631265349215,156.0,1.0,56,17,0.0,32995,12880935767703,33,41.694297790527344,79.87531280290733,0.15,16,26862.809789637722,340282346638528860000000000000000000000,1604249980,,,,0,,3,,38.09429931640625,52.1540641784668,2.0000000474974513,52.1540641784668,2.0000000474974513,C,31137820758000
Raw,1676594080999,837043000000,,,-1360628461956677541,0.0,7.671631265349215,156.0,1.0,56,2,0.0,85026,434098921824495,18,38.34049606323242,105.63964758983127,0.15,16,70850.74373398077,340282346638528860000000000000000000000,1575420030,,,,0,,6,,34.74049758911133,-5.878973752260207,1.5000000237487257,-5.878973752260207,1.5000000237487257,C,31137820758000
Raw,1676594080999,837043000000,,,-1360628461956677541,0.0,7.671631265349215,156.0,1.0,56,11,0.0,85026,434098910019831,35,30.59480094909668,569.090284079083,0.7358082174571883,16,471379.2073766276,340282346638528860000000000000000000000,1575420030,,,,0,,6,,26.994800567626953,-5.878973752260207,1.5000000237487257,-5.878973752260207,1.5000000237487257,C,31137820758000
Raw,1676594080999,837043000000,,,-1360628461956677541,0.0,7.671631265349215,156.0,1.0,56,25,0.0,85026,434098912110273,20,37.028175354003906,466.85061714582594,0.15,16,379725.6116979864,340282346638528860000000000000000000000,1575420030,,,,0,,6,,33.42817687988281,-5.878973752260207,1.5000000237487257,-5.878973752260207,1.5000000237487257,C,31137820758000
Raw,1676594080999,837043000000,,,-1360628461956677541,0.0,7.671631265349215,156.0,1.0,56,30,0.0,85026,434098915409636,22,36.09845733642578,-333.1184536433834,0.15,16,-284536.2517528995,340282346638528860000000000000000000000,1575420030,,,,0,,6,,32.49845886230469,-5.878973752260207,1.5000000237487257,-5.878973752260207,1.5000000237487257,C,31137820758000
Raw,1676594080999,837043000000,,,-1360628461956677541,0.0,7.671631265349215,156.0,1.0,56,34,0.0,85026,434098919201680,12,46.24702835083008,-299.3765831086055,0.15,16,-271419.19451275375,340282346638528860000000000000000000000,1575420030,,,,0,,6,,42.647029876708984,-5.878973752260207,1.5000000237487257,-5.878973752260207,1.5000000237487257,C,31137820758000
Raw,1676594080999,837043000000,,,-1360628461956677541,0.0,7.671631265349215,156.0,1.0,56,36,0.0,85026,434098920619640,26,34.27927017211914,232.34905276083566,0.5698698563674363,16,170400.2800519011,340282346638528860000000000000000000000,1575420030,,,,0,,6,,30.679269790649414,-5.878973752260207,1.5000000237487257,-5.878973752260207,1.5000000237487257,C,31137820758000
Raw,1676594080999,837043000000,,,-1360628461956677541,0.0,7.671631265349215,156.0,1.0,56,2,0.0,84003,434098921824995,7,35.66790008544922,105.72350747410565,0.5105194520727294,16,70753.8730576619,340282346638528860000000000000000000000,1176450050,,,,0,,6,,32.067901611328125,-4.216632805764675,1.8427321722063787,-4.216632805764675,1.5000000237487257,Q,31137820758000
Raw,1676594080999,837043000000,,,-1360628461956677541,0.0,7.671631265349215,156.0,1.0,56,11,0.0,84003,434098910020330,8,33.900760650634766,568.7268628451802,0.5878624644503727,16,474113.36585281097,340282346638528860000000000000000000000,1176450050,,,,0,,6,,30.30076026916504,4.279776476323602,1.8427321722063787,4.279776476323602,1.5000000237487257,Q,31137820758000
Raw,1676594080999,837043000000,,,-1360628461956677541,0.0,7.671631265349215,156.0,1.0,56,25,0.0,84003,434098912110797,22,29.208721160888672,467.338575675863,0.7992342045655847,16,380139.4784994483,340282346638528860000000000000000000000,1176450050,,,,0,,6,,25.608720779418945,-8.649541996419428,1.8427321722063787,-8.649541996419428,1.5000000237487257,Q,31137820758000
Raw,1676594080999,837043000000,,,-1360628461956677541,0.0,7.671631265349215,156.0,1.0,56,30,0.0,84003,434098915410123,15,31.104068756103516,-333.1864140616899,0.7145960154442084,16,-284985.60476521036,340282346638528860000000000000000000000,1176450050,,,,0,,6,,27.50406837463379,-8.2801328971982,1.8427321722063787,-8.2801328971982,1.5000000237487257,Q,31137820758000
Raw,1676594080999,837043000000,,,-1360628461956677541,0.0,7.671631265349215,156.0,1.0,56,34,0.0,84003,434098919202185,6,34.57707977294922,-299.2367427894924,0.5591007320483987,16,-272150.5511213224,340282346638528860000000000000000000000,1176450050,,,,0,,6,,30.977079391479492,-9.942473843693731,1.8427321722063787,-9.942473843693731,1.5000000237487257,Q,31137820758000
Raw,1676594080999,837043000000,,,-1360628461956677541,0.0,7.671631265349215,156.0,1.0,56,36,0.0,84003,434098920620160,7,40.05463790893555,231.84171835426537,0.15,16,170564.2465874556,340282346638528860000000000000000000000,1176450050,,,,0,,6,,36.45463943481445,-10.865996591746804,1.8427321722063787,-10.865996591746804,1.5000000237487257,Q,31137820758000
UncalMag,1676594081092,31137914577907,-153.9274,754.2162,393.4134,-174.57417,771.0116,430.86337
UncalGyro,1676594081094,31137916801672,0.19379699,-1.1446087,-3.6839755,0.0006384142,-0.0013481528,-0.00032224949
UncalAccel,1676594081100,31137921038946,-0.34576288,-1.6115661,9.68136,0.037048545,-0.031444572,0.0098014325
UncalMag,1676594081102,31137924582504,-153.9274,754.0088,392.38858,-174.57417,771.0116,430.86337
UncalGyro,1676594081103,31137925283604,0.18371773,-1.1531608,-3.7253616,0.0006384142,-0.0013481528,-0.00032224949
OrientationDeg,1676594081099,31137921038946,255.0,-2.0,-11.0
Fix,FLP,37.4312865000,-122.1550359000,-16.200000762939453,0.13793354,3.9,314.99377,1676594080998,0.100467764,25.315659,31137820758000,2.002545
UncalAccel,1676594081107,31137929518691,-0.36909288,-1.5876378,9.623335,0.037048545,-0.031444572,0.0098014325
OrientationDeg,1676594081107,31137929518691,257.0,-2.0,-11.0
UncalGyro,1676594081111,31137933759810,0.17745635,-1.1586586,-3.7630827,0.0006384142,-0.0013481528,-0.00032224949
UncalMag,1676594081112,31137934575627,-153.11,755.6192,393.1206,-174.57417,771.0116,430.86337
UncalAccel,1676594081116,31137938001102,-0.38404804,-1.5349957,9.661619,0.037048545,-0.031444572,0.0098014325
OrientationDeg,1676594081116,31137938001102,258.0,-2.0,-11.0
UncalGyro,1676594081120,31137942241784,0.16462818,-1.1775955,-3.8024833,0.0006384142,-0.0013481528,-0.00032224949
UncalMag,1676594081122,31137944580387,-153.415,755.6924,392.901,-174.57417,771.0116,430.86337
UncalAccel,1676594081124,31137946484460,-0.43669012,-1.4057833,9.574282,0.037048545,-0.031444572,0.0098014325
OrientationDeg,1676594081124,31137946484460,260.0,-3.0,-11.0
UncalGyro,1676594081128,31137950726667,0.1469131,-1.2392929,-3.8484511,0.0006384142,-0.0013481528,-0.00032224949
UncalMag,1676594081132,31137954580305,-153.8542,756.9856,392.9864,-174.57417,771.0116,430.86337
UncalAccel,1676594081132,31137954964001,-0.50368917,-1.262214,9.4636135,0.037048545,-0.031444572,0.0098014325
OrientationDeg,1676594081132,31137954964001,262.0,-3.0,-11.0
UncalGyro,1676594081137,31137959205039,0.1244638,-1.3232869,-3.897931,0.0006384142,-0.0013481528,-0.00032224949
UncalAccel,1676594081141,31137963442679,-0.5563313,-1.1952149,9.391231,0.037048545,-0.031444572,0.0098014325
UncalMag,1676594081143,31137964577985,-153.903,757.925,392.12018,-174.57417,771.0116,430.86337
OrientationDeg,1676594081141,31137963442679,264.0,-3.0,-11.0
UncalGyro,1676594081145,31137967687450,0.09193522,-1.4092661,-3.940539,0.0006384142,-0.0013481528,-0.00032224949
UncalAccel,1676594081149,31137971932536,-0.63230336,-1.090529,9.251849,0.037048545,-0.031444572,0.0098014325
OrientationDeg,1676594081149,31137971932536,266.0,-3.0,-11.0
UncalMag,1676594081152,31137974578472,-153.5736,758.2788,392.1934,-174.57417,771.0116,430.86337
UncalGyro,1676594081154,31137976177329,0.05222898,-1.4850134,-3.985743,0.0006384142,-0.0013481528,-0.00032224949
UncalAccel,1676594081158,31137980408315,-0.695115,-0.8991031,9.250652,0.037048545,-0.031444572,0.0098014325
OrientationDeg,1676594081158,31137980408315,268.0,-4.0,-11.0
UncalMag,1676594081162,31137984578227,-154.2202,759.6452,391.5712,-174.57417,771.0116,430.86337
UncalGyro,1676594081162,31137984652263,0.001985312,-1.5250251,-4.033238,0.0006384142,-0.0013481528,-0.00032224949
UncalAccel,1676594081166,31137988884684,-0.7686943,-0.6263213,9.263215,0.037048545,-0.031444572,0.0098014325
OrientationDeg,1676594081166,31137988884684,270.0,-4.0,-12.0
UncalGyro,1676594081171,31137993133148,-0.055741455,-1.5289958,-4.080427,0.0006384142,-0.0013481528,-0.00032224949
UncalMag,1676594081172,31137994577697,-154.5008,760.1454,391.2174,-174.57417,771.0116,430.86337
UncalAccel,1676594081175,31137997367766,-0.92243314,-0.33020952,9.184252,0.037048545,-0.031444572,0.0098014325
OrientationDeg,1676594081175,31137997367766,272.0,-4.0,-12.0
UncalGyro,1676594081179,31138001609974,-0.10751228,-1.5034921,-4.1231875,0.0006384142,-0.0013481528,-0.00032224949
UncalMag,1676594081182,31138004578063,-154.6594,760.84076,391.1442,-174.57417,771.0116,430.86337
UncalAccel,1676594081183,31138005846759,-1.018146,-0.086141616,9.0341015,0.037048545,-0.031444572,0.0098014325
OrientationDeg,1676594081183,31138005846759,274.0,-5.0,-12.0
UncalGyro,1676594081188,31138010085275,-0.15454891,-1.4575244,-4.142583,0.0006384142,-0.0013481528,-0.00032224949
UncalAccel,1676594081192,31138014338020,-1.1090733,0.066400826,8.889935,0.037048545,-0.031444572,0.0098014325
UncalMag,1676594081192,31138014577777,-155.1352,761.6704,389.89978,-174.57417,771.0116,430.86337
OrientationDeg,1676594081192,31138014338020,276.0,-5.0,-12.0
UncalGyro,1676594081196,31138018575365,-0.21029036,-1.3878858,-4.116468,0.0006384142,-0.0013481528,-0.00032224949
UncalAccel,1676594081200,31138022813728,-1.2239288,0.21894327,8.840881,0.037048545,-0.031444572,0.0098014325
UncalMag,1676594081202,31138024577614,-154.452,762.64636,389.9852,-174.57417,771.0116,430.86337
OrientationDeg,1676594081200,31138022813728,278.0,-5.0,-12.0
UncalGyro,1676594081205,31138027050921,-0.2863431,-1.2936599,-4.0367503,0.0006384142,-0.0013481528,-0.00032224949
UncalAccel,1676594081209,31138031292478,-1.3154542,0.4534399,8.700303,0.037048545,-0.031444572,0.0098014325
OrientationDeg,1676594081209,31138031292478,280.0,-5.0,-12.0
UncalMag,1676594081212,31138034579932,-155.5378,763.6468,389.2898,-174.57417,771.0116,430.86337
UncalGyro,1676594081213,31138035533301,-0.37033707,-1.1734722,-3.90236,0.0006384142,-0.0013481528,-0.00032224949
UncalAccel,1676594081217,31138039771836,-1.3686945,0.73579293,8.589037,0.037048545,-0.031444572,0.0098014325
OrientationDeg,1676594081217,31138039771836,281.0,-5.0,-12.0
UncalGyro,1676594081222,31138044012996,-0.4503604,-1.0083858,-3.7136025,0.0006384142,-0.0013481528,-0.00032224949
UncalMag,1676594081223,31138044569556,-155.2816,764.3544,389.69238,-174.57417,771.0116,430.86337
UncalAccel,1676594081226,31138048253840,-1.4793626,0.98943216,8.544171,0.037048545,-0.031444572,0.0098014325
OrientationDeg,1676594081226,31138048253840,283.0,-5.0,-12.0
UncalGyro,1676594081230,31138052500514,-0.5320636,-0.8089383,-3.472158,0.0006384142,-0.0013481528,-0.00032224949
UncalMag,1676594081232,31138054588272,-156.0746,765.123,389.6558,-174.57417,771.0116,430.86337
UncalAccel,1676594081234,31138056746557,-1.6378871,1.1850454,8.46102,0.037048545,-0.031444572,0.0098014325
OrientationDeg,1676594081234,31138056746557,285.0,-5.0,-12.0
UncalGyro,1676594081238,31138060987676,-0.6272059,-0.6094908,-3.1923819,0.0006384142,-0.0013481528,-0.00032224949
UncalMag,1676594081242,31138064588434,-156.0258,765.794,388.8506,-174.57417,771.0116,430.86337
UncalAccel,1676594081243,31138065226191,-1.7958134,1.3710874,8.344371,0.037048545,-0.031444572,0.0098014325
OrientationDeg,1676594081243,31138065226191,286.0,-5.0,-11.0
UncalGyro,1676594081247,31138069466211,-0.73624533,-0.4147775,-2.8831313,0.0006384142,-0.0013481528,-0.00032224949
UncalAccel,1676594081251,31138073705540,-1.9435701,1.6241283,8.141579,0.037048545,-0.031444572,0.0098014325
UncalMag,1676594081252,31138074578017,-156.26979,766.9164,388.6432,-174.57417,771.0116,430.86337
OrientationDeg,1676594081251,31138073705540,288.0,-5.0,-11.0
UncalGyro,1676594081255,31138077947278,-0.8437576,-0.24465153,-2.5618162,0.0006384142,-0.0013481528,-0.00032224949
UncalAccel,1676594081260,31138082186892,-2.1296122,1.9160527,7.838289,0.037048545,-0.031444572,0.0098014325
OrientationDeg,1676594081260,31138082186892,289.0,-5.0,-11.0
UncalMag,1676594081262,31138084578993,-155.92819,767.52637,388.2894,-174.57417,771.0116,430.86337
UncalGyro,1676594081264,31138086429151,-0.93722,-0.09666943,-2.249053,0.0006384142,-0.0013481528,-0.00032224949
UncalAccel,1676594081268,31138090667554,-2.3300111,2.0536401,7.645068,0.037048545,-0.031444572,0.0098014325
OrientationDeg,1676594081269,31138090667554,290.0,-4.0,-10.0
UncalMag,1676594081272,31138094588147,-156.3918,768.4048,388.753,-174.57417,771.0116,430.86337
UncalGyro,1676594081272,31138094905103,-1.0268645,0.031306844,-1.9459113,0.0006384142,-0.0013481528,-0.00032224949
UncalAccel,1676594081277,31138099129142,-2.4903302,2.0673988,7.4010005,0.037048545,-0.031444572,0.0098014325
OrientationDeg,1676594081277,31138099129142,291.0,-4.0,-10.0
UncalGyro,1676594081281,31138103389894,-1.1120802,0.160963,-1.6500998,0.0006384142,-0.0013481528,-0.00032224949
UncalMag,1676594081282,31138104577649,-156.7578,769.3686,389.241,-174.57417,771.0116,430.86337
UncalAccel,1676594081285,31138107629192,-2.6267211,2.009971,7.123433,0.037048545,-0.031444572,0.0098014325
OrientationDeg,1676594081285,31138107629192,291.0,-4.0,-10.0
UncalGyro,1676594081289,31138111874909,-1.1817188,0.31429017,-1.3600914,0.0006384142,-0.0013481528,-0.00032224949
UncalMag,1676594081292,31138114588268,-156.0624,770.47876,388.15518,-174.57417,771.0116,430.86337
UncalAccel,1676594081294,31138116107942,-2.696711,1.899303,6.9565334,0.037048545,-0.031444572,0.0098014325
OrientationDeg,1676594081294,31138116107942,292.0,-4.0,-9.0
UncalGyro,1676594081298,31138120354584,-1.2411255,0.49510628,-1.069625,0.0006384142,-0.0013481528,-0.00032224949
UncalAccel,1676594081302,31138124589355,-2.737389,1.9764715,6.559923,0.037048545,-0.031444572,0.0098014325
OrientationDeg,1676594081302,31138124589355,293.0,-3.0,-8.0
UncalMag,1676594081303,31138124597667,-156.221,771.1742,387.96,-174.57417,771.0116,430.86337
UncalGyro,1676594081306,31138128826385,-1.3057245,0.6872234,-0.7893906,0.0006384142,-0.0013481528,-0.00032224949
UncalAccel,1676594081311,31138133071268,-2.9473593,1.9992033,6.4959154,0.037048545,-0.031444572,0.0098014325
UncalMag,1676594081312,31138134577606,-156.221,771.1742,387.96,-174.57417,771.0116,430.86337
OrientationDeg,1676594081311,31138133071268,293.0,-3.0,-8.0
UncalGyro,1676594081315,31138137313282,-1.3993396,0.91645056,-0.5207626,0.0006384142,-0.0013481528,-0.00032224949
UncalAccel,1676594081319,31138141554575,-3.720241,1.3184453,15.615561,0.037048545,-0.031444572,0.0098014325
OrientationDeg,1676594081319,31138141554575,293.0,-2.0,-7.0
UncalMag,1676594081322,31138144588428,-155.5744,771.63776,388.42358,-174.57417,771.0116,430.86337
UncalGyro,1676594081323,31138145794198,-0.51159966,2.506533,0.27183503,0.0006384142,-0.0013481528,-0.00032224949
UncalAccel,1676594081328,31138150033659,-8.356933,-1.1551352,10.639686,0.037048545,-0.031444572,0.0098014325
OrientationDeg,1676594081328,31138150033659,292.0,-1.0,-8.0
UncalGyro,1676594081332,31138154274574,1.7078265,1.3765849,2.4236078,0.0006384142,-0.0013481528,-0.00032224949
UncalMag,1676594081332,31138154589567,-154.07379,772.1136,388.9848,-174.57417,771.0116,430.86337
UncalAccel,1676594081336,31138158515042,-5.773881,1.4913267,7.4309106,0.037048545,-0.031444572,0.0098014325
OrientationDeg,1676594081336,31138158515042,291.0,0.0,-9.0
UncalGyro,1676594081340,31138162757158,2.2327125,1.1840096,3.3899968,0.0006384142,-0.0013481528,-0.00032224949
UncalMag,1676594081342,31138164588223,-153.17099,769.8932,389.63138,-174.57417,771.0116,430.86337
UncalAccel,1676594081344,31138166995673,-7.064809,4.022933,18.358334,0.037048545,-0.031444572,0.0098014325
OrientationDeg,1676594081344,31138166995673,289.0,0.0,-10.0
UncalGyro,1676594081349,31138171236234,2.0766363,2.0457878,3.082426,0.0006384142,-0.0013481528,-0.00032224949
UncalMag,1676594081352,31138174588589,-153.2442,768.79517,390.827,-174.57417,771.0116,430.86337
UncalAccel,1676594081353,31138175473070,-7.151549,5.1625147,12.567702,0.037048545,-0.031444572,0.0098014325
OrientationDeg,1676594081353,31138175473070,288.0,0.0,-11.0
UncalGyro,1676594081357,31138179718013,1.2730432,1.4471397,2.144137,0.0006384142,-0.0013481528,-0.00032224949
UncalAccel,1676594081361,31138183955267,-4.8083773,3.815954,10.398609,0.037048545,-0.031444572,0.0098014325
UncalMag,1676594081362,31138184580898,-152.683,767.63617,389.8144,-174.57417,771.0116,430.86337
OrientationDeg,1676594081361,31138183955267,287.0,0.0,-11.0
UncalGyro,1676594081366,31138188190557,0.14844026,0.708451,1.2826643,0.0006384142,-0.0013481528,-0.00032224949
UncalAccel,1676594081370,31138192438298,-0.11545369,2.8905299,8.376076,0.037048545,-0.031444572,0.0098014325
UncalMag,1676594081372,31138194577398,-152.9636,768.0876,390.4122,-174.57417,771.0116,430.86337
OrientationDeg,1676594081370,31138192438298,287.0,0.0,-11.0
UncalGyro,1676594081374,31138196679560,-0.9056077,0.35338554,0.678824,0.0006384142,-0.0013481528,-0.00032224949
UncalAccel,1676594081378,31138200921290,1.5607185,2.8546374,7.408179,0.037048545,-0.031444572,0.0098014325
OrientationDeg,1676594081378,31138200921290,286.0,0.0,-10.0
UncalMag,1676594081382,31138204588180,-152.2072,768.5146,389.7656,-174.57417,771.0116,430.86337
UncalGyro,1676594081383,31138205160354,-1.6194037,0.44959682,0.23518312,0.0006384142,-0.0013481528,-0.00032224949
UncalAccel,1676594081387,31138209400079,0.6454639,2.5806592,7.265208,0.037048545,-0.031444572,0.0098014325
OrientationDeg,1676594081387,31138209400079,286.0,1.0,-9.0
UncalGyro,1676594081391,31138213641544,-2.081218,0.66767573,-0.13026701,0.0006384142,-0.0013481528,-0.00032224949
UncalMag,1676594081392,31138214577722,-151.7314,769.6004,390.6196,-174.57417,771.0116,430.86337
UncalAccel,1676594081395,31138217881106,-0.34337005,1.8939191,7.5296144,0.037048545,-0.031444572,0.0098014325
OrientationDeg,1676594081395,31138217881106,286.0,1.0,-8.0
UncalGyro,1676594081400,31138222123639,-2.3829854,0.7666359,-0.4529566,0.0006384142,-0.0013481528,-0.00032224949
UncalMag,1676594081402,31138224577680,-151.90219,770.2226,391.132,-174.57417,771.0116,430.86337
UncalAccel,1676594081404,31138226362298,-0.5395815,2.059622,8.053044,0.037048545,-0.031444572,0.0098014325
OrientationDeg,1676594081404,31138226362298,287.0,2.0,-7.0
UncalGyro,1676594081408,31138230603670,-2.4888177,0.7273878,-0.79076505,0.0006384142,-0.0013481528,-0.00032224949
UncalMag,1676594081412,31138234588422,-152.1218,771.6866,390.888,-174.57417,771.0116,430.86337
UncalAccel,1676594081412,31138234842368,-0.08315059,2.1864417,8.379665,0.037048545,-0.031444572,0.0098014325
OrientationDeg,1676594081412,31138234842368,287.0,2.0,-6.0
UncalGyro,1676594081417,31138239093985,-2.415972,0.61911196,-1.128879,0.0006384142,-0.0013481528,-0.00032224949
UncalAccel,1676594081421,31138243312592,0.41694933,1.8388842,8.914461,0.037048545,-0.031444572,0.0098014325
UncalMag,1676594081422,31138244579306,-151.3288,772.6748,391.0954,-174.57417,771.0116,430.86337
OrientationDeg,1676594081421,31138243312592,288.0,2.0,-4.0
UncalGyro,1676594081425,31138247566061,-2.2348504,0.60154957,-1.4863878,0.0006384142,-0.0013481528,-0.00032224949
UncalAccel,1676594081429,31138251801728,0.54675996,1.402194,9.766904,0.037048545,-0.031444572,0.0098014325
OrientationDeg,1676594081429,31138251801728,288.0,3.0,-3.0
UncalMag,1676594081432,31138254588379,-151.2556,773.8948,391.2662,-174.57417,771.0116,430.86337
UncalGyro,1676594081434,31138256049663,-1.9770653,0.81153446,-1.8315268,0.0006384142,-0.0013481528,-0.00032224949
UncalAccel,1676594081438,31138260282735,0.6017949,0.38823548,12.063416,0.037048545,-0.031444572,0.0098014325
OrientationDeg,1676594081438,31138260282735,289.0,3.0,-2.0
UncalGyro,1676594081442,31138264516326,-1.7762434,1.5161675,-1.9540052,0.0006384142,-0.0013481528,-0.00032224949
UncalMag,1676594081442,31138264578166,-149.9258,775.1758,392.1446,-174.57417,771.0116,430.86337
UncalAccel,1676594081446,31138268766204,0.24047868,0.18664017,8.043473,0.037048545,-0.031444572,0.0098014325
OrientationDeg,1676594081447,31138268766204,290.0,4.0,-2.0
UncalGyro,1676594081451,31138273007974,-1.5628988,1.6716328,-1.9402608,0.0006384142,-0.0013481528,-0.00032224949
UncalMag,1676594081452,31138274588256,-149.9746,776.1152,391.8884,-174.57417,771.0116,430.86337
UncalAccel,1676594081455,31138277249927,1.1659029,-0.42592242,8.195417,0.037048545,-0.031444572,0.0098014325
OrientationDeg,1676594081455,31138277249927,291.0,5.0,-1.0
UncalGyro,1676594081459,31138281488544,-1.3362677,1.7719674,-1.7249308,0.0006384142,-0.0013481528,-0.00032224949
UncalMag,1676594081462,31138284588418,-149.6818,777.445,392.0836,-174.57417,771.0116,430.86337
UncalAccel,1676594081463,31138285728463,3.1339993,-0.06759724,7.5954175,0.037048545,-0.031444572,0.0098014325
OrientationDeg,1676594081463,31138285728463,292.0,6.0,0.0
UncalGyro,1676594081467,31138289970629,-1.0241156,1.8193095,-1.1910346,0.0006384142,-0.0013481528,-0.00032224949
UncalAccel,1676594081472,31138294211210,4.7132626,1.0695918,6.678368,0.037048545,-0.031444572,0.0098014325
UncalMag,1676594081472,31138294583697,-148.291,778.11597,393.4134,-174.57417,771.0116,430.86337
OrientationDeg,1676594081472,31138294211210,292.0,7.0,0.0
UncalGyro,1676594081476,31138298458706,-0.48899764,1.8947513,-0.3379612,0.0006384142,-0.0013481528,-0.00032224949
UncalAccel,1676594081480,31138302688931,5.008776,2.318047,5.9820566,0.037048545,-0.031444572,0.0098014325
UncalMag,1676594081482,31138304576372,-147.7908,777.7134,394.03558,-174.57417,771.0116,430.86337
OrientationDeg,1676594081480,31138302688931,292.0,7.0,0.0
UncalGyro,1676594081484,31138306928025,0.1423316,1.7563903,0.45112398,0.0006384142,-0.0013481528,-0.00032224949
UncalAccel,1676594081489,31138311168830,4.697709,2.5692933,6.4462643,0.037048545,-0.031444572,0.0098014325
OrientationDeg,1676594081489,31138311168830,292.0,8.0,0.0
UncalMag,1676594081492,31138314588253,-147.1686,777.7012,393.4134,-174.57417,771.0116,430.86337
UncalGyro,1676594081493,31138315412167,0.7350236,1.6218473,0.89766645,0.0006384142,-0.0013481528,-0.00032224949
UncalAccel,1676594081497,31138319651576,3.4941192,1.7874385,8.070393,0.037048545,-0.031444572,0.0098014325
OrientationDeg,1676594081497,31138319651576,291.0,9.0,-1.0
UncalGyro,1676594081501,31138323889267,1.1928672,1.6948457,1.0528263,0.0006384142,-0.0013481528,-0.00032224949
UncalMag,1676594081502,31138324577632,-147.4126,777.0302,394.3406,-174.57417,771.0116,430.86337
UncalAccel,1676594081506,31138328129847,2.400001,1.9908284,8.410771,0.037048545,-0.031444572,0.0098014325
OrientationDeg,1676594081506,31138328129847,291.0,10.0,-1.0
UncalGyro,1676594081510,31138332363519,1.4656185,1.8031214,1.0639745,0.0006384142,-0.0013481528,-0.00032224949
UncalMag,1676594081512,31138334588333,-146.217,776.164,393.8648,-174.57417,771.0116,430.86337
UncalAccel,1676594081514,31138336614252,0.9625129,2.3688943,9.086744,0.037048545,-0.031444572,0.0098014325
OrientationDeg,1676594081514,31138336614252,291.0,11.0,-2.0
UncalGyro,1676594081518,31138340855055,1.5286902,1.758681,0.98929626,0.0006384142,-0.0013481528,-0.00032224949
UncalMag,1676594081522,31138344588251,-145.7534,775.26117,395.2068,-174.57417,771.0116,430.86337
UncalAccel,1676594081523,31138345098545,-1.3501502,3.2793634,8.819346,0.037048545,-0.031444572,0.0098014325
OrientationDeg,1676594081523,31138345098545,290.0,11.0,-3.0
UncalGyro,1676594081527,31138349339939,1.1337659,1.0567969,0.75976366,0.0006384142,-0.0013481528,-0.00032224949
UncalAccel,1676594081531,31138353569379,-4.217948,4.1892343,9.856036,0.037048545,-0.031444572,0.0098014325
OrientationDeg,1676594081531,31138353569379,290.0,12.0,-4.0
UncalMag,1676594081533,31138354577915,-145.058,774.578,395.2678,-174.57417,771.0116,430.86337
UncalGyro,1676594081535,31138357817914,0.17455475,0.03680463,0.33322698,0.0006384142,-0.0013481528,-0.00032224949
UncalAccel,1676594081540,31138362054425,-4.4446683,4.321438,10.021141,0.037048545,-0.031444572,0.0098014325
OrientationDeg,1676594081540,31138362054425,290.0,11.0,-3.0
UncalMag,1676594081542,31138364588453,-145.058,774.6634,395.0482,-174.57417,771.0116,430.86337
UncalGyro,1676594081544,31138366297213,-0.8881981,-0.56489766,-0.13698652,0.0006384142,-0.0013481528,-0.00032224949
UncalAccel,1676594081548,31138370536796,-2.9796624,4.651647,10.229317,0.037048545,-0.031444572,0.0098014325
OrientationDeg,1676594081548,31138370536796,290.0,11.0,-3.0
UncalMag,1676594081552,31138374588370,-145.3264,775.432,394.87738,-174.57417,771.0116,430.86337
UncalGyro,1676594081552,31138374776298,-1.5677856,-0.61010164,-0.50640726,0.0006384142,-0.0013481528,-0.00032224949
UncalAccel,1676594081557,31138379009980,-1.3070793,4.2478585,11.349157,0.037048545,-0.031444572,0.0098014325
OrientationDeg,1676594081557,31138379009980,290.0,11.0,-2.0
UncalGyro,1676594081561,31138383257813,-1.8752036,-0.37995818,-0.75518215,0.0006384142,-0.0013481528,-0.00032224949
UncalMag,1676594081562,31138384588329,-145.302,775.7004,395.1824,-174.57417,771.0116,430.86337
UncalAccel,1676594081565,31138387493357,0.34037903,3.0681968,12.4731865,0.037048545,-0.031444572,0.0098014325
OrientationDeg,1676594081565,31138387493357,290.0,11.0,-1.0
UncalGyro,1676594081569,31138391743632,-2.0169244,-0.022602014,-0.9088148,0.0006384142,-0.0013481528,-0.00032224949
UncalMag,1676594081572,31138394578115,-145.4484,776.7496,395.3166,-174.57417,771.0116,430.86337
UncalAccel,1676594081573,31138395979878,1.4153546,1.8855443,13.445271,0.037048545,-0.031444572,0.0098014325
OrientationDeg,1676594081573,31138395979878,291.0,11.0,0.0
UncalGyro,1676594081578,31138400222544,-2.1077905,0.47876564,-0.982424,0.0006384142,-0.0013481528,-0.00032224949
UncalAccel,1676594081582,31138404457478,1.678565,0.9529416,13.484752,0.037048545,-0.031444572,0.0098014325
OrientationDeg,1676594081583,31138404457478,291.0,11.0,0.0
UncalMag,1676594081582,31138404587066,-145.0824,777.75,396.3902,-174.57417,771.0116,430.86337
UncalGyro,1676594081586,31138408690795,-2.166739,1.0355693,-1.0009027,0.0006384142,-0.0013481528,-0.00032224949
UncalAccel,1676594081590,31138412938546,1.2855439,0.3385844,12.750753,0.037048545,-0.031444572,0.0098014325
UncalMag,1676594081592,31138414588408,-145.5338,778.86017,395.82898,-174.57417,771.0116,430.86337
OrientationDeg,1676594081590,31138412938546,291.0,12.0,2.0
UncalGyro,1676594081595,31138417182982,-2.186134,1.5317446,-0.979217,0.0006384142,-0.0013481528,-0.00032224949
UncalAccel,1676594081599,31138421425393,0.5347959,-0.062213387,11.750554,0.037048545,-0.031444572,0.0098014325
OrientationDeg,1676594081599,31138421425393,291.0,13.0,3.0
UncalMag,1676594081602,31138424588407,-145.0336,780.2754,396.3902,-174.57417,771.0116,430.86337
UncalGyro,1676594081603,31138425665596,-2.175444,1.8880317,-0.9418015,0.0006384142,-0.0013481528,-0.00032224949
UncalAccel,1676594081607,31138429902911,-0.29671,-0.14656039,10.408778,0.037048545,-0.031444572,0.0098014325
OrientationDeg,1676594081607,31138429902911,292.0,13.0,4.0
UncalGyro,1676594081612,31138434142728,-2.16567,2.0598376,-0.9210321,0.0006384142,-0.0013481528,-0.00032224949
UncalMag,1676594081612,31138434594714,-144.1674,780.64136,396.46338,-174.57417,771.0116,430.86337
UncalAccel,1676594081616,31138438387072,-0.9613165,-0.38344982,9.260822,0.037048545,-0.031444572,0.0098014325
OrientationDeg,1676594081616,31138438387072,292.0,14.0,5.0
UncalGyro,1676594081620,31138442637833,-2.1259637,2.0949624,-0.89476484,0.0006384142,-0.0013481528,-0.00032224949
UncalMag,1676594081622,31138444588202,-143.5696,782.0932,397.7566,-174.57417,771.0116,430.86337
UncalAccel,1676594081624,31138446865809,-1.3351951,-0.738784,8.405388,0.037048545,-0.031444572,0.0098014325
OrientationDeg,1676594081624,31138446865809,292.0,15.0,6.0
UncalGyro,1676594081629,31138451106665,-2.0442605,2.0500638,-0.8614727,0.0006384142,-0.0013481528,-0.00032224949
UncalMag,1676594081632,31138454588242,-142.7888,782.8374,398.8912,-174.57417,771.0116,430.86337
UncalAccel,1676594081633,31138455343226,-1.66361,-1.0079765,7.7126656,0.037048545,-0.031444572,0.0098014325
OrientationDeg,1676594081633,31138455343226,292.0,16.0,7.0
UncalGyro,1676594081637,31138459588506,-1.9375118,1.9231565,-0.8330675,0.0006384142,-0.0013481528,-0.00032224949
UncalAccel,1676594081641,31138463826767,-2.108675,-1.1294123,7.200003,0.037048545,-0.031444572,0.0098014325
UncalMag,1676594081642,31138464584498,-142.984,783.09357,398.95218,-174.57417,771.0116,430.86337
OrientationDeg,1676594081641,31138463826767,292.0,17.0,8.0
UncalGyro,1676594081646,31138468069697,-1.8145752,1.7188221,-0.8239045,0.0006384142,-0.0013481528,-0.00032224949
UncalAccel,1676594081650,31138472309940,-2.6566312,-1.1276177,6.8865438,0.037048545,-0.031444572,0.0098014325
OrientationDeg,1676594081650,31138472309940,292.0,18.0,9.0
UncalMag,1676594081652,31138474583277,-142.191,784.277,399.9404,-174.57417,771.0116,430.86337
UncalGyro,1676594081654,31138476538904,-1.6788104,1.4581354,-0.852157,0.0006384142,-0.0013481528,-0.00032224949
UncalAccel,1676594081658,31138480788802,-3.301497,-1.1030912,6.7722864,0.037048545,-0.031444572,0.0098014325
OrientationDeg,1676594081658,31138480788802,292.0,19.0,10.0
UncalMag,1676594081662,31138484588444,-142.1422,784.98456,400.2332,-174.57417,771.0116,430.86337
UncalGyro,1676594081663,31138485026462,-1.5291485,1.1640037,-0.9193522,0.0006384142,-0.0013481528,-0.00032224949
UncalAccel,1676594081667,31138489261141,-3.8853457,-1.1306087,6.821339,0.037048545,-0.031444572,0.0098014325
OrientationDeg,1676594081667,31138489261141,293.0,19.0,11.0
UncalGyro,1676594081671,31138493508090,-1.3608551,0.8717047,-1.019076,0.0006384142,-0.0013481528,-0.00032224949
UncalMag,1676594081672,31138494577741,-141.8616,786.2412,401.3678,-174.57417,771.0116,430.86337
UncalAccel,1676594081675,31138497747357,-4.2245283,-1.3339987,6.9678993,0.037048545,-0.031444572,0.0098014325
OrientationDeg,1676594081675,31138497747357,293.0,19.0,11.0
UncalGyro,1676594081679,31138501995668,-1.1669053,0.59895337,-1.1235338,0.0006384142,-0.0013481528,-0.00032224949
UncalMag,1676594081682,31138504577781,-142.1666,786.3266,401.4044,-174.57417,771.0116,430.86337
UncalAccel,1676594081684,31138506229525,-4.262215,-1.7030915,7.103094,0.037048545,-0.031444572,0.0098014325
OrientationDeg,1676594081684,31138506229525,293.0,20.0,12.0
UncalGyro,1676594081688,31138510463472,-0.9469938,0.35216382,-1.2050844,0.0006384142,-0.0013481528,-0.00032224949
UncalMag,1676594081692,31138514588197,-141.81279,786.961,402.02658,-174.57417,771.0116,430.86337
UncalAccel,1676594081692,31138514712160,-4.1222353,-2.2055843,7.3214393,0.037048545,-0.031444572,0.0098014325
OrientationDeg,1676594081692,31138514712160,294.0,20.0,13.0
UncalGyro,1676594081696,31138518953644,-0.7108944,0.1339322,-1.2420417,0.0006384142,-0.0013481528,-0.00032224949
UncalAccel,1676594081701,31138523196045,-3.9403806,-2.708077,7.611569,0.037048545,-0.031444572,0.0098014325
UncalMag,1676594081702,31138524577576,-141.8738,787.85156,402.6,-174.57417,771.0116,430.86337
OrientationDeg,1676594081701,31138523196045,294.0,19.0,13.0
UncalGyro,1676594081705,31138527435007,-0.47601673,-0.04550946,-1.2224941,0.0006384142,-0.0013481528,-0.00032224949
UncalAccel,1676594081709,31138531668346,-3.772285,-3.1339993,7.8628154,0.037048545,-0.031444572,0.0098014325
OrientationDeg,1676594081709,31138531668346,295.0,19.0,13.0
UncalMag,1676594081712,31138534588440,-142.252,788.364,402.4902,-174.57417,771.0116,430.86337
UncalGyro,1676594081713,31138535905009,-0.2593123,-0.19028452,-1.1542299,0.0006384142,-0.0013481528,-0.00032224949
UncalAccel,1676594081718,31138540154856,-3.720241,-3.3876386,8.098508,0.037048545,-0.031444572,0.0098014325
OrientationDeg,1676594081718,31138540154856,295.0,19.0,14.0
UncalGyro,1676594081722,31138544397450,-0.0759,-0.3118467,-1.0546589,0.0006384142,-0.0013481528,-0.00032224949
UncalMag,1676594081722,31138544592630,-142.0446,788.425,401.7826,-174.57417,771.0116,430.86337
UncalAccel,1676594081726,31138548636046,-3.7322052,-3.3930225,8.427522,0.037048545,-0.031444572,0.0098014325
OrientationDeg,1676594081726,31138548636046,296.0,19.0,14.0
UncalGyro,1676594081730,31138552866076,0.05497787,-0.41874814,-0.95249164,0.0006384142,-0.0013481528,-0.00032224949
UncalMag,1676594081732,31138554588276,-143.2402,789.3888,402.6488,-174.57417,771.0116,430.86337
UncalAccel,1676594081735,31138557113879,-3.8081772,-3.2937205,8.913862,0.037048545,-0.031444572,0.0098014325
OrientationDeg,1676594081735,31138557113879,296.0,18.0,14.0
UncalGyro,1676594081739,31138561358437,0.12385293,-0.49938235,-0.8697194,0.0006384142,-0.0013481528,-0.00032224949
UncalMag,1676594081742,31138564589048,-143.00839,789.6206,401.3556,-174.57417,771.0116,430.86337
UncalAccel,1676594081743,31138565596851,-3.8650067,-3.2470603,9.437891,0.037048545,-0.031444572,0.0098014325
OrientationDeg,1676594081743,31138565596851,296.0,18.0,14.0
UncalGyro,1676594081747,31138569841143,0.13209961,-0.5377141,-0.8028296,0.0006384142,-0.0013481528,-0.00032224949
UncalAccel,1676594081752,31138574078458,-3.8398821,-3.2333016,9.920045,0.037048545,-0.031444572,0.0098014325
UncalMag,1676594081752,31138574583473,-143.00839,789.8036,401.6484,-174.57417,771.0116,430.86337
OrientationDeg,1676594081752,31138574078458,297.0,18.0,14.0
UncalGyro,1676594081757,31138578321040,0.1001819,-0.52503866,-0.7483099,0.0006384142,-0.0013481528,-0.00032224949
UncalAccel,1676594081760,31138582556433,-3.737589,-3.2524443,10.312468,0.037048545,-0.031444572,0.0098014325
UncalMag,1676594081762,31138584588314,-143.7404,789.76697,401.1726,-174.57417,771.0116,430.86337
OrientationDeg,1676594081760,31138582556433,297.0,17.0,14.0
UncalGyro,1676594081764,31138586790432,0.055588737,-0.45982882,-0.6988298,0.0006384142,-0.0013481528,-0.00032224949
UncalAccel,1676594081769,31138591038123,-3.5958142,-3.3194432,10.57149,0.037048545,-0.031444572,0.0098014325
OrientationDeg,1676594081769,31138591038123,298.0,17.0,14.0
UncalMag,1676594081772,31138594588395,-143.3988,790.1086,400.6358,-174.57417,771.0116,430.86337
UncalGyro,1676594081773,31138595272415,0.008246681,-0.3472769,-0.6407976,0.0006384142,-0.0013481528,-0.00032224949
UncalAccel,1676594081777,31138599521062,-3.4809587,-3.4193435,10.643873,0.037048545,-0.031444572,0.0098014325
OrientationDeg,1676594081777,31138599521062,298.0,17.0,14.0
UncalGyro,1676594081781,31138603751103,-0.035277467,-0.20922135,-0.5749769,0.0006384142,-0.0013481528,-0.00032224949
UncalMag,1676594081782,31138604578140,-143.8136,790.3038,401.6728,-174.57417,771.0116,430.86337
UncalAccel,1676594081786,31138608004744,-3.4073794,-3.5096726,10.492527,0.037048545,-0.031444572,0.0098014325
OrientationDeg,1676594081787,31138608004744,298.0,17.0,15.0
UncalGyro,1676594081790,31138612243615,-0.0720821,-0.07941248,-0.5012149,0.0006384142,-0.0013481528,-0.00032224949
UncalMag,1676594081792,31138614588190,-143.7038,790.316,401.9046,-174.57417,771.0116,430.86337
UncalAccel,1676594081794,31138616483575,-3.385844,-3.566502,10.201799,0.037048545,-0.031444572,0.0098014325
OrientationDeg,1676594081794,31138616483575,298.0,17.0,15.0
UncalGyro,1676594081798,31138620713474,-0.105832405,0.010537425,-0.42485678,0.0006384142,-0.0013481528,-0.00032224949
UncalMag,1676594081802,31138624588230,-144.8262,790.6942,400.8188,-174.57417,771.0116,430.86337
UncalAccel,1676594081802,31138624958519,-3.4504502,-3.595216,9.905089,0.037048545,-0.031444572,0.0098014325
OrientationDeg,1676594081802,31138624958519,298.0,17.0,15.0
UncalGyro,1676594081807,31138629195936,-0.12980886,0.061086524,-0.3585779,0.0006384142,-0.0013481528,-0.00032224949
UncalAccel,1676594081811,31138633447746,-3.5581272,-3.6287155,9.642477,0.037048545,-0.031444572,0.0098014325
OrientationDeg,1676594081811,31138633447746,299.0,17.0,15.0
UncalMag,1676594081812,31138634577853,-144.30159,790.80396,401.07498,-174.57417,771.0116,430.86337
UncalGyro,1676594081815,31138637687929,-0.13698652,0.08170322,-0.3032946,0.0006384142,-0.0013481528,-0.00032224949
UncalAccel,1676594081819,31138641927939,-3.6466618,-3.6813576,9.360723,0.037048545,-0.031444572,0.0098014325
OrientationDeg,1676594081820,31138641927939,299.0,17.0,15.0
UncalMag,1676594081822,31138644588269,-144.7042,791.0602,401.2702,-174.57417,771.0116,430.86337
UncalGyro,1676594081824,31138646167085,-0.11957687,0.079107046,-0.25457808,0.0006384142,-0.0013481528,-0.00032224949
UncalAccel,1676594081828,31138650406506,-3.6496527,-3.7531424,9.122038,0.037048545,-0.031444572,0.0098014325
OrientationDeg,1676594081828,31138650406506,299.0,17.0,15.0
UncalMag,1676594081832,31138654588431,-144.3138,790.6454,401.39218,-174.57417,771.0116,430.86337
UncalGyro,1676594081832,31138654645529,-0.07880162,0.058337633,-0.204029,0.0006384142,-0.0013481528,-0.00032224949
UncalAccel,1676594081836,31138658875998,-3.5563326,-3.8434713,8.91805,0.037048545,-0.031444572,0.0098014325
OrientationDeg,1676594081836,31138658875998,299.0,17.0,15.0
UncalGyro,1676594081841,31138663124979,-0.015882496,0.023060163,-0.14813483,0.0006384142,-0.0013481528,-0.00032224949
UncalMag,1676594081842,31138664588593,-144.5212,790.5356,401.01398,-174.57417,771.0116,430.86337
UncalAccel,1676594081845,31138667368529,-3.4695928,-3.9140596,8.823533,0.037048545,-0.031444572,0.0098014325
OrientationDeg,1676594081845,31138667368529,299.0,17.0,15.0
UncalGyro,1676594081849,31138671612996,0.05879578,-0.018478673,-0.08628472,0.0006384142,-0.0013481528,-0.00032224949
UncalMag,1676594081852,31138674588551,-144.2894,790.91376,401.6972,-174.57417,771.0116,430.86337
UncalAccel,1676594081853,31138675851756,-3.426522,-3.952345,8.852247,0.037048545,-0.031444572,0.0098014325
OrientationDeg,1676594081853,31138675851756,299.0,17.0,15.0
UncalGyro,1676594081858,31138680089456,0.1330159,-0.04795292,-0.017715093,0.0006384142,-0.0013481528,-0.00032224949
UncalAccel,1676594081862,31138684324645,-3.4025939,-3.9810586,8.862417,0.037048545,-0.031444572,0.0098014325
UncalMag,1676594081862,31138684577605,-143.7892,790.5478,401.0018,-174.57417,771.0116,430.86337
OrientationDeg,1676594081862,31138684324645,299.0,17.0,15.0
UncalGyro,1676594081866,31138688571643,0.2041817,-0.069027774,0.054519724,0.0006384142,-0.0013481528,-0.00032224949
UncalAccel,1676594081870,31138692808845,-3.3643086,-3.9140596,8.881559,0.037048545,-0.031444572,0.0098014325
UncalMag,1676594081872,31138694577564,-144.6066,790.91376,401.9534,-174.57417,771.0116,430.86337
OrientationDeg,1676594081870,31138692808845,299.0,17.0,15.0
UncalGyro,1676594081875,31138697044512,0.27183503,-0.081397794,0.13179417,0.0006384142,-0.0013481528,-0.00032224949
UncalAccel,1676594081879,31138701292508,-3.3463624,-3.784249,8.900104,0.037048545,-0.031444572,0.0098014325
OrientationDeg,1676594081879,31138701292508,299.0,17.0,15.0
UncalMag,1676594081882,31138704577685,-144.4236,790.56,401.624,-174.57417,771.0116,430.86337
UncalGyro,1676594081883,31138705531857,0.32604933,-0.08674286,0.21044308,0.0006384142,-0.0013481528,-0.00032224949
UncalAccel,1676594081887,31138709765103,-3.370889,-3.6550367,8.894122,0.037048545,-0.031444572,0.0098014325
OrientationDeg,1676594081887,31138709765103,299.0,17.0,15.0
UncalGyro,1676594081892,31138714014340,0.36041048,-0.103847094,0.2864958,0.0006384142,-0.0013481528,-0.00032224949
UncalMag,1676594081892,31138714601813,-144.75299,790.27936,401.197,-174.57417,771.0116,430.86337
UncalAccel,1676594081896,31138718253770,-3.400201,-3.5066817,8.893523,0.037048545,-0.031444572,0.0098014325
OrientationDeg,1676594081896,31138718253770,299.0,17.0,14.0
UncalGyro,1676594081900,31138722497981,0.3724751,-0.13576481,0.35934147,0.0006384142,-0.0013481528,-0.00032224949
UncalMag,1676594081902,31138724592006,-144.448,789.9988,400.6358,-174.57417,771.0116,430.86337
UncalAccel,1676594081904,31138726738053,-3.4396825,-3.2961133,8.901898,0.037048545,-0.031444572,0.0098014325
OrientationDeg,1676594081904,31138726738053,299.0,17.0,14.0
UncalGyro,1676594081908,31138730990037,0.37048978,-0.17821993,0.41905355,0.0006384142,-0.0013481528,-0.00032224949
UncalMag,1676594081912,31138734588303,-144.3504,789.9378,401.1116,-174.57417,771.0116,430.86337
UncalAccel,1676594081913,31138735215856,-3.4606197,-3.0759735,8.952746,0.037048545,-0.031444572,0.0098014325
OrientationDeg,1676594081913,31138735215856,298.0,17.0,14.0
UncalGyro,1676594081917,31138739457239,0.36361754,-0.226631,0.4642576,0.0006384142,-0.0013481528,-0.00032224949
UncalAccel,1676594081921,31138743693302,-3.461816,-2.922833,9.033504,0.037048545,-0.031444572,0.0098014325
