# 
# Header Description:
# 
# Version: v3.0.5.6 Platform: 13 Manufacturer: Google Model: Pixel 7
# 
# Raw,utcTimeMillis,TimeNanos,LeapSecond,TimeUncertaintyNanos,FullBiasNanos,BiasNanos,BiasUncertaintyNanos,DriftNanosPerSecond,DriftUncertaintyNanosPerSecond,HardwareClockDiscontinuityCount,Svid,TimeOffsetNanos,State,ReceivedSvTimeNanos,ReceivedSvTimeUncertaintyNanos,Cn0DbHz,PseudorangeRateMetersPerSecond,PseudorangeRateUncertaintyMetersPerSecond,AccumulatedDeltaRangeState,AccumulatedDeltaRangeMeters,AccumulatedDeltaRangeUncertaintyMeters,CarrierFrequencyHz,CarrierCycles,CarrierPhase,CarrierPhaseUncertainty,MultipathIndicator,SnrInDb,ConstellationType,AgcDb,BasebandCn0DbHz,FullInterSignalBiasNanos,FullInterSignalBiasUncertaintyNanos,SatelliteInterSignalBiasNanos,SatelliteInterSignalBiasUncertaintyNanos,CodeType,ChipsetElapsedRealtimeNanos
# 
# UncalAccel,utcTimeMillis,elapsedRealtimeNanos,UncalAccelXMps2,UncalAccelYMps2,UncalAccelZMps2,BiasXMps2,BiasYMps2,BiasZMps2
# 
# Accel,utcTimeMillis,elapsedRealtimeNanos,AccelXMps2,AccelYMps2,AccelZMps2
# 
# UncalGyro,utcTimeMillis,elapsedRealtimeNanos,UncalGyroXRadPerSec,UncalGyroYRadPerSec,UncalGyroZRadPerSec,DriftXRadPerSec,DriftYRadPerSec,DriftZRadPerSec
# 
# Gyro,utcTimeMillis,elapsedRealtimeNanos,GyroXRadPerSec,GyroYRadPerSec,GyroZRadPerSec
# 
# UncalMag,utcTimeMillis,elapsedRealtimeNanos,UncalMagXMicroT,UncalMagYMicroT,UncalMagZMicroT,BiasXMicroT,BiasYMicroT,BiasZMicroT
# 
# Mag,utcTimeMillis,elapsedRealtimeNanos,MagXMicroT,MagYMicroT,MagZMicroT
# 
# OrientationDeg,utcTimeMillis,elapsedRealtimeNanos,yawDeg,rollDeg,pitchDeg
# 
# Fix,Provider,LatitudeDegrees,LongitudeDegrees,AltitudeMeters,SpeedMps,AccuracyMeters,BearingDegrees,UnixTimeMillis,SpeedAccuracyMps,BearingAccuracyDegrees,elapsedRealtimeNanos,VerticalAccuracyMeters
# 
# Nav,Svid,Type,Status,MessageId,Sub-messageId,Data(Bytes)
# 
# Status,UnixTimeMillis,SignalCount,SignalIndex,ConstellationType,Svid,CarrierFrequencyHz,Cn0DbHz,AzimuthDegrees,ElevationDegrees,UsedInFix,HasAlmanacData,HasEphemerisData,BasebandCn0DbHz
# 
UncalMag,1676594517432,31574254931503,-197.22519,789.8036,393.8038,-174.57417,771.0116,430.86337
UncalAccel,1676594517434,31574256930556,3.0502508,-0.3589234,16.587046,0.037048545,-0.031444572,0.0098014325
UncalMag,1676594517442,31574264931706,-197.06659,790.7674,394.1576,-174.57417,771.0116,430.86337
UncalGyro,1676594517443,31574265406224,-1.0564915,0.89659745,-0.21563543,-0.00041315527,-0.001448707,-0.0005306996
UncalAccel,1676594517443,31574265406224,2.8408787,-0.63948184,14.773885,0.037048545,-0.031444572,0.0098014325
UncalGyro,1676594517451,31574273888483,-0.64461553,0.9804387,-0.16050485,-0.00041315527,-0.001448707,-0.0005306996
UncalAccel,1676594517451,31574273888483,2.6811578,-0.8488538,13.232309,0.037048545,-0.031444572,0.0098014325
UncalMag,1676594517452,31574274931666,-195.6026,790.7796,393.40118,-174.57417,771.0116,430.86337
UncalGyro,1676594517460,31574282368067,-0.2350304,1.0380127,-0.11148291,-0.00041315527,-0.001448707,-0.0005306996
UncalAccel,1676594517460,31574282368067,2.5148566,-0.95772725,11.904891,0.037048545,-0.031444572,0.0098014325
UncalMag,1676594517462,31574284932887,-195.82219,790.5356,393.9502,-174.57417,771.0116,430.86337
OrientationDeg,1676594517451,31574273888483,40.0,-9.0,0.0
OrientationDeg,1676594517460,31574282368067,40.0,-9.0,0.0
Fix,FLP,37.4311369000,-122.1551596000,-15.80000114440918,0.000000053646662,9.492,,1676594517005,0.13664508,,31573827133000,2.2997727
UncalGyro,1676594517468,31574290846043,0.13897185,1.0775663,-0.08017606,-0.00041315527,-0.001448707,-0.0005306996
UncalAccel,1676594517468,31574290846043,2.297708,-0.91405827,10.853246,0.037048545,-0.031444572,0.0098014325
OrientationDeg,1676594517468,31574290846043,40.0,-8.0,0.0
UncalMag,1676594517472,31574294934637,-195.7124,790.59656,393.1084,-174.57417,771.0116,430.86337
UncalGyro,1676594517477,31574299325200,0.45433104,1.1039863,-0.09407325,-0.00041315527,-0.001448707,-0.0005306996
UncalAccel,1676594517477,31574299325200,1.9770697,-0.72323066,10.076775,0.037048545,-0.031444572,0.0098014325
OrientationDeg,1676594517477,31574299325200,40.0,-8.0,0.0
UncalMag,1676594517482,31574304931952,-195.2854,790.865,393.29138,-174.57417,771.0116,430.86337
UncalGyro,1676594517485,31574307807714,0.67011917,1.0937542,-0.15424347,-0.00041315527,-0.001448707,-0.0005306996
UncalAccel,1676594517485,31574307807714,1.6701902,-0.54675996,9.472587,0.037048545,-0.031444572,0.0098014325
OrientationDeg,1676594517485,31574307807714,40.0,-7.0,-1.0
UncalMag,1676594517492,31574314934027,-194.6022,789.9988,393.0596,-174.57417,771.0116,430.86337
UncalGyro,1676594517494,31574316289698,0.8046622,1.0354166,-0.21838433,-0.00041315527,-0.001448707,-0.0005306996
UncalAccel,1676594517494,31574316289698,1.396212,-0.45702913,8.916854,0.037048545,-0.031444572,0.0098014325
OrientationDeg,1676594517494,31574316289698,40.0,-7.0,-1.0
UncalGyro,1676594517502,31574324768185,0.88224214,0.91981035,-0.25259277,-0.00041315527,-0.001448707,-0.0005306996
UncalAccel,1676594517502,31574324768185,1.2083755,-0.47138608,8.467003,0.037048545,-0.031444572,0.0098014325
UncalMag,1676594517502,31574324931464,-194.1996,789.7304,392.2666,-174.57417,771.0116,430.86337
OrientationDeg,1676594517502,31574324768185,40.0,-6.0,-2.0
UncalGyro,1676594517511,31574333247656,0.9114109,0.75701475,-0.24724771,-0.00041315527,-0.001448707,-0.0005306996
UncalAccel,1676594517511,31574333247656,1.1449656,-0.67776704,8.167302,0.037048545,-0.031444572,0.0098014325
OrientationDeg,1676594517511,31574333247656,40.0,-6.0,-2.0
UncalMag,1676594517512,31574334931464,-194.6632,788.9252,392.0836,-174.57417,771.0116,430.86337
UncalGyro,1676594517519,31574341728156,0.9072876,0.58093286,-0.20937407,-0.00041315527,-0.001448707,-0.0005306996
UncalAccel,1676594517519,31574341728156,1.1419746,-0.91226363,8.082356,0.037048545,-0.031444572,0.0098014325
OrientationDeg,1676594517519,31574341728156,40.0,-6.0,-2.0
UncalMag,1676594517522,31574344932197,-194.0288,788.9984,391.2418,-174.57417,771.0116,430.86337
UncalGyro,1676594517528,31574350208554,0.8773552,0.43661594,-0.15286903,-0.00041315527,-0.001448707,-0.0005306996
UncalAccel,1676594517528,31574350208554,1.2227324,-1.0797613,8.260024,0.037048545,-0.031444572,0.0098014325
OrientationDeg,1676594517529,31574350208554,40.0,-5.0,-3.0
UncalMag,1676594517532,31574354934191,-194.05319,788.6568,391.5224,-174.57417,771.0116,430.86337
UncalGyro,1676594517536,31574358687201,0.83031857,0.3576616,-0.08597928,-0.00041315527,-0.001448707,-0.0005306996
UncalAccel,1676594517536,31574358687201,1.3692927,-1.1509477,8.586046,0.037048545,-0.031444572,0.0098014325
OrientationDeg,1676594517536,31574358687201,40.0,-5.0,-3.0
UncalMag,1676594517542,31574364933866,-193.62619,788.8398,391.54678,-174.57417,771.0116,430.86337
UncalGyro,1676594517545,31574367167914,0.7742717,0.32482758,-0.018784106,-0.00041315527,-0.001448707,-0.0005306996
UncalAccel,1676594517545,31574367167914,1.5337993,-1.0737791,8.892327,0.037048545,-0.031444572,0.0098014325
OrientationDeg,1676594517545,31574367167914,40.0,-5.0,-4.0
UncalMag,1676594517552,31574374936389,-193.76039,788.242,391.9006,-174.57417,771.0116,430.86337
UncalGyro,1676594517554,31574375646511,0.7267769,0.33551773,0.042913284,-0.00041315527,-0.001448707,-0.0005306996
UncalAccel,1676594517553,31574375646511,1.634896,-0.887139,9.273982,0.037048545,-0.031444572,0.0098014325
OrientationDeg,1676594517553,31574375646511,40.0,-5.0,-4.0
UncalGyro,1676594517562,31574384128649,0.7067711,0.38163805,0.0926988,-0.00041315527,-0.001448707,-0.0005306996
UncalAccel,1676594517562,31574384128649,1.6887345,-0.63828546,9.568898,0.037048545,-0.031444572,0.0098014325
UncalMag,1676594517562,31574384931791,-193.7726,788.0102,390.1438,-174.57417,771.0116,430.86337
OrientationDeg,1676594517562,31574384128649,40.0,-5.0,-4.0
UncalGyro,1676594517570,31574392614214,0.7078401,0.44822237,0.11927144,-0.00041315527,-0.001448707,-0.0005306996
UncalAccel,1676594517570,31574392614214,1.7001005,-0.37507495,9.772886,0.037048545,-0.031444572,0.0098014325
OrientationDeg,1676594517570,31574392614214,40.0,-4.0,-5.0
UncalMag,1676594517572,31574394931954,-193.3822,787.5954,390.27798,-174.57417,771.0116,430.86337
UncalGyro,1676594517579,31574401089170,0.70509124,0.5403103,0.11148291,-0.00041315527,-0.001448707,-0.0005306996
UncalAccel,1676594517579,31574401089170,1.602593,-0.11246266,9.842278,0.037048545,-0.031444572,0.0098014325
OrientationDeg,1676594517579,31574401089170,40.0,-4.0,-5.0
UncalMag,1676594517582,31574404933053,-193.4066,787.2416,390.43658,-174.57417,771.0116,430.86337
UncalGyro,1676594517587,31574409568723,0.68829244,0.6374379,0.07513642,-0.00041315527,-0.001448707,-0.0005306996
UncalAccel,1676594517587,31574409568723,1.4344971,0.04965107,9.826126,0.037048545,-0.031444572,0.0098014325
OrientationDeg,1676594517587,31574409568723,40.0,-4.0,-5.0
UncalMag,1676594517592,31574414931629,-193.1138,786.88776,390.10718,-174.57417,771.0116,430.86337
UncalGyro,1676594517596,31574418060188,0.6478226,0.7133379,0.02321288,-0.00041315527,-0.001448707,-0.0005306996
UncalAccel,1676594517596,31574418060188,1.2233306,0.17766708,9.819546,0.037048545,-0.031444572,0.0098014325
OrientationDeg,1676594517596,31574418060188,40.0,-4.0,-5.0
UncalMag,1676594517602,31574424935251,-192.8942,787.0708,390.0218,-174.57417,771.0116,430.86337
UncalGyro,1676594517604,31574426526446,0.5907067,0.745561,-0.02733622,-0.00041315527,-0.001448707,-0.0005306996
UncalAccel,1676594517604,31574426526446,1.0899308,0.22971097,9.756136,0.037048545,-0.031444572,0.0098014325
OrientationDeg,1676594517604,31574426526446,40.0,-3.0,-6.0
UncalMag,1676594517612,31574434942005,-192.2842,786.839,390.5586,-174.57417,771.0116,430.86337
UncalGyro,1676594517613,31574435022470,0.52931476,0.72051555,-0.054519724,-0.00041315527,-0.001448707,-0.0005306996
UncalAccel,1676594517613,31574435022470,1.0091729,0.21954148,9.722038,0.037048545,-0.031444572,0.0098014325
OrientationDeg,1676594517613,31574435022470,40.0,-3.0,-6.0
UncalGyro,1676594517621,31574443498004,0.46838093,0.6598872,-0.059864793,-0.00041315527,-0.001448707,-0.0005306996
UncalAccel,1676594517621,31574443498004,0.9451649,0.2428715,9.903295,0.037048545,-0.031444572,0.0098014325
UncalMag,1676594517622,31574444931426,-192.19879,786.3998,390.32678,-174.57417,771.0116,430.86337
OrientationDeg,1676594517621,31574443498004,40.0,-3.0,-6.0
UncalGyro,1676594517629,31574451974750,0.41340306,0.593761,-0.054061573,-0.00041315527,-0.001448707,-0.0005306996
UncalAccel,1676594517629,31574451974750,0.9236295,0.3188436,10.184451,0.037048545,-0.031444572,0.0098014325
OrientationDeg,1676594517629,31574451974750,40.0,-2.0,-6.0
UncalMag,1676594517632,31574454945709,-192.0158,786.0216,389.3874,-174.57417,771.0116,430.86337
UncalGyro,1676594517638,31574460460549,0.366061,0.5392413,-0.052534413,-0.00041315527,-0.001448707,-0.0005306996
UncalAccel,1676594517638,31574460460549,0.99302137,0.36670008,10.499705,0.037048545,-0.031444572,0.0098014325
OrientationDeg,1676594517638,31574460460549,40.0,-2.0,-7.0
UncalMag,1676594517642,31574464932078,-191.3814,786.1192,389.1434,-174.57417,771.0116,430.86337
UncalGyro,1676594517646,31574468935403,0.32696563,0.5172501,-0.05879578,-0.00041315527,-0.001448707,-0.0005306996
UncalAccel,1676594517646,31574468935403,1.0899308,0.45762733,10.862219,0.037048545,-0.031444572,0.0098014325
OrientationDeg,1676594517646,31574468935403,40.0,-2.0,-7.0
UncalMag,1676594517652,31574474942210,-191.3814,786.1192,389.1434,-174.57417,771.0116,430.86337
UncalGyro,1676594517655,31574477412343,0.3016147,0.5542075,-0.070554934,-0.00041315527,-0.001448707,-0.0005306996
UncalAccel,1676594517655,31574477412343,1.1533405,0.5772685,11.248659,0.037048545,-0.031444572,0.0098014325
OrientationDeg,1676594517655,31574477412343,40.0,-2.0,-7.0
UncalMag,1676594517663,31574484942088,-191.29599,785.863,389.4484,-174.57417,771.0116,430.86337
UncalGyro,1676594517663,31574485901152,0.30192015,0.6542367,-0.0777326,-0.00041315527,-0.001448707,-0.0005306996
UncalAccel,1676594517663,31574485901152,1.1706885,0.60598236,11.472986,0.037048545,-0.031444572,0.0098014325
OrientationDeg,1676594517663,31574485901152,40.0,-1.0,-7.0
UncalGyro,1676594517672,31574494381154,0.32635477,0.7874053,-0.06887506,-0.00041315527,-0.001448707,-0.0005306996
UncalAccel,1676594517672,31574494381154,1.1222339,0.6197411,11.544173,0.037048545,-0.031444572,0.0098014325
UncalMag,1676594517672,31574494931427,-190.5762,785.63116,390.10718,-174.57417,771.0116,430.86337
OrientationDeg,1676594517672,31574494381154,40.0,-1.0,-7.0
UncalGyro,1676594517680,31574502858561,0.36651915,0.91324353,-0.04627304,-0.00041315527,-0.001448707,-0.0005306996
UncalAccel,1676594517680,31574502858561,0.98883396,0.6478567,11.486147,0.037048545,-0.031444572,0.0098014325
UncalMag,1676594517682,31574504942292,-190.5762,785.63116,390.10718,-174.57417,771.0116,430.86337
OrientationDeg,1676594517680,31574502858561,40.0,0.0,-7.0
UncalGyro,1676594517689,31574511338511,0.419359,0.9746355,-0.01450805,-0.00041315527,-0.001448707,-0.0005306996
UncalAccel,1676594517689,31574511338511,0.7507481,0.6753742,11.322239,0.037048545,-0.031444572,0.0098014325
OrientationDeg,1676594517689,31574511338511,40.0,0.0,-8.0
UncalMag,1676594517692,31574514942251,-190.18579,785.1554,388.1674,-174.57417,771.0116,430.86337
UncalGyro,1676594517697,31574519818777,0.4813618,0.98975444,0.024587326,-0.00041315527,-0.001448707,-0.0005306996
UncalAccel,1676594517697,31574519818777,0.549751,0.68853474,11.3162565,0.037048545,-0.031444572,0.0098014325
OrientationDeg,1676594517697,31574519818777,40.0,0.0,-8.0
UncalMag,1676594517702,31574524931469,-188.94139,784.8382,388.42358,-174.57417,771.0116,430.86337
UncalGyro,1676594517706,31574528298828,0.5491679,1.0358747,0.07345655,-0.00041315527,-0.001448707,-0.0005306996
UncalAccel,1676594517707,31574528298828,0.45403808,0.721436,11.2959175,0.037048545,-0.031444572,0.0098014325
OrientationDeg,1676594517706,31574528298828,40.0,0.0,-8.0
UncalMag,1676594517712,31574534942455,-188.1362,784.4844,387.94778,-174.57417,771.0116,430.86337
UncalGyro,1676594517714,31574536776632,0.61559945,1.1343768,0.12660182,-0.00041315527,-0.001448707,-0.0005306996
UncalAccel,1676594517714,31574536776632,0.39182472,0.82672024,11.2139635,0.037048545,-0.031444572,0.0098014325
OrientationDeg,1676594517714,31574536776632,40.0,1.0,-8.0
UncalMag,1676594517722,31574544942049,-187.941,784.24036,388.3748,-174.57417,771.0116,430.86337
UncalGyro,1676594517723,31574545256206,0.66706485,1.2525792,0.16829337,-0.00041315527,-0.001448707,-0.0005306996
UncalAccel,1676594517723,31574545256206,0.34636107,0.9559326,10.850254,0.037048545,-0.031444572,0.0098014325
OrientationDeg,1676594517723,31574545256206,40.0,1.0,-9.0
UncalGyro,1676594517731,31574553739229,0.69913524,1.3590225,0.19532417,-0.00041315527,-0.001448707,-0.0005306996
UncalAccel,1676594517731,31574553739229,0.22911277,1.1623136,10.385448,0.037048545,-0.031444572,0.0098014325
UncalMag,1676594517732,31574554933911,-187.3188,784.0818,388.4358,-174.57417,771.0116,430.86337
OrientationDeg,1676594517731,31574553739229,40.0,2.0,-9.0
UncalGyro,1676594517740,31574562222037,0.7101309,1.4417948,0.20922135,-0.00041315527,-0.001448707,-0.0005306996
UncalAccel,1676594517740,31574562222037,0.011365907,1.3004991,9.944571,0.037048545,-0.031444572,0.0098014325
UncalMag,1676594517742,31574564949089,-186.9406,783.4718,388.2894,-174.57417,771.0116,430.86337
OrientationDeg,1676594517740,31574562222037,40.0,3.0,-9.0
UncalGyro,1676594517748,31574570688041,0.70432764,1.483028,0.20952678,-0.00041315527,-0.001448707,-0.0005306996
UncalAccel,1676594517748,31574570688041,-0.2865405,1.4769697,9.393025,0.037048545,-0.031444572,0.0098014325
OrientationDeg,1676594517748,31574570688041,40.0,3.0,-10.0
UncalMag,1676594517752,31574574951571,-186.13539,782.86176,387.63058,-174.57417,771.0116,430.86337
UncalGyro,1676594517757,31574579179038,0.68325275,1.464244,0.19074267,-0.00041315527,-0.001448707,-0.0005306996
UncalAccel,1676594517757,31574579179038,-0.67058855,1.6959131,8.816355,0.037048545,-0.031444572,0.0098014325
OrientationDeg,1676594517757,31574579179038,39.0,4.0,-10.0
UncalMag,1676594517762,31574584942050,-185.52539,782.6056,387.5574,-174.57417,771.0116,430.86337
UncalGyro,1676594517765,31574587658896,0.6569856,1.3828462,0.15806139,-0.00041315527,-0.001448707,-0.0005306996
UncalAccel,1676594517765,31574587658896,-1.1090733,1.9477576,8.358727,0.037048545,-0.031444572,0.0098014325
OrientationDeg,1676594517765,31574587658896,39.0,5.0,-10.0
UncalMag,1676594517772,31574594942091,-185.013,782.3128,386.2642,-174.57417,771.0116,430.86337
UncalGyro,1676594517774,31574596139406,0.6421721,1.2649492,0.10888673,-0.00041315527,-0.001448707,-0.0005306996
UncalAccel,1676594517774,31574596139406,-1.5044873,2.204388,8.006983,0.037048545,-0.031444572,0.0098014325
OrientationDeg,1676594517774,31574596139406,39.0,5.0,-11.0
UncalGyro,1676594517782,31574604616387,0.6426302,1.1334605,0.03924809,-0.00041315527,-0.001448707,-0.0005306996
UncalAccel,1676594517782,31574604616387,-1.7617157,2.4329023,7.7365937,0.037048545,-0.031444572,0.0098014325
UncalMag,1676594517782,31574604935458,-184.1956,782.1054,387.3988,-174.57417,771.0116,430.86337
OrientationDeg,1676594517782,31574604616387,39.0,6.0,-11.0
UncalGyro,1676594517791,31574613099500,0.6647741,1.0085385,-0.060170226,-0.00041315527,-0.001448707,-0.0005306996
UncalAccel,1676594517791,31574613099500,-1.9920249,2.676372,7.6337023,0.037048545,-0.031444572,0.0098014325
OrientationDeg,1676594517791,31574613099500,40.0,6.0,-11.0
UncalMag,1676594517792,31574614942091,-183.9028,781.837,386.8498,-174.57417,771.0116,430.86337
UncalGyro,1676594517799,31574621580498,0.70432764,0.91415983,-0.18295415,-0.00041315527,-0.001448707,-0.0005306996
UncalAccel,1676594517799,31574621580498,-2.1218355,2.7852457,7.670791,0.037048545,-0.031444572,0.0098014325
OrientationDeg,1676594517799,31574621580498,40.0,7.0,-12.0
UncalMag,1676594517802,31574624942091,-183.3904,781.471,386.14218,-174.57417,771.0116,430.86337
UncalGyro,1676594517808,31574630059604,0.75915277,0.8394816,-0.31016684,-0.00041315527,-0.001448707,-0.0005306996
UncalAccel,1676594517808,31574630059604,-2.0691934,2.7236304,7.685746,0.037048545,-0.031444572,0.0098014325
OrientationDeg,1676594517808,31574630059604,40.0,7.0,-12.0
UncalMag,1676594517812,31574634942336,-183.5002,781.39777,386.61798,-174.57417,771.0116,430.86337
UncalGyro,1676594517816,31574638538405,0.8116872,0.77106464,-0.41355577,-0.00041315527,-0.001448707,-0.0005306996
UncalAccel,1676594517816,31574638538405,-1.8592232,2.4658036,7.926823,0.037048545,-0.031444572,0.0098014325
OrientationDeg,1676594517816,31574638538405,40.0,8.0,-12.0
UncalMag,1676594517822,31574644942133,-183.01219,780.9342,385.39798,-174.57417,771.0116,430.86337
UncalGyro,1676594517825,31574647018842,0.83459467,0.7506007,-0.472657,-0.00041315527,-0.001448707,-0.0005306996
UncalAccel,1676594517825,31574647018842,-1.5439688,2.0165513,8.30788,0.037048545,-0.031444572,0.0098014325
OrientationDeg,1676594517825,31574647018842,40.0,8.0,-13.0
UncalMag,1676594517832,31574654924311,-182.29239,780.6292,386.2764,-174.57417,771.0116,430.86337
UncalGyro,1676594517833,31574655500015,0.8165741,0.7861836,-0.47250426,-0.00041315527,-0.001448707,-0.0005306996
UncalAccel,1676594517833,31574655500015,-1.2376875,1.500898,8.623135,0.037048545,-0.031444572,0.0098014325
OrientationDeg,1676594517833,31574655500015,41.0,9.0,-13.0
UncalGyro,1676594517841,31574663976211,0.7545713,0.8713993,-0.419359,-0.00041315527,-0.001448707,-0.0005306996
UncalAccel,1676594517841,31574663976211,-0.99302137,1.1760724,8.802596,0.037048545,-0.031444572,0.0098014325
OrientationDeg,1676594517841,31574663976211,41.0,9.0,-13.0
UncalMag,1676594517842,31574664931594,-181.9996,780.373,386.4472,-174.57417,771.0116,430.86337
UncalGyro,1676594517850,31574672459579,0.66248333,1.0027353,-0.32711834,-0.00041315527,-0.001448707,-0.0005306996
UncalAccel,1676594517850,31574672459579,-0.8596215,1.1389836,8.827721,0.037048545,-0.031444572,0.0098014325
OrientationDeg,1676594517850,31574672459579,41.0,10.0,-14.0
UncalMag,1676594517852,31574674942337,-182.0362,779.6532,385.55658,-174.57417,771.0116,430.86337
UncalGyro,1676594517858,31574680940484,0.5494733,1.1563679,-0.21319197,-0.00041315527,-0.001448707,-0.0005306996
UncalAccel,1676594517858,31574680940484,-0.8392825,1.2352947,8.655437,0.037048545,-0.031444572,0.0098014325
OrientationDeg,1676594517858,31574680940484,41.0,10.0,-14.0
UncalMag,1676594517862,31574684942256,-181.0358,779.06757,385.7518,-174.57417,771.0116,430.86337
UncalGyro,1676594517867,31574689407303,0.42302418,1.2788464,-0.087659165,-0.00041315527,-0.001448707,-0.0005306996
UncalAccel,1676594517867,31574689407303,-0.9421739,1.3166506,8.258229,0.037048545,-0.031444572,0.0098014325
OrientationDeg,1676594517867,31574689407303,41.0,11.0,-14.0
UncalMag,1676594517872,31574694942093,-180.9138,779.336,385.6908,-174.57417,771.0116,430.86337
UncalGyro,1676594517875,31574697900344,0.29260445,1.323745,0.041691553,-0.00041315527,-0.001448707,-0.0005306996
UncalAccel,1676594517875,31574697900344,-1.2412767,1.4207385,7.8741813,0.037048545,-0.031444572,0.0098014325
OrientationDeg,1676594517875,31574697900344,41.0,11.0,-14.0
UncalMag,1676594517882,31574704942053,-180.2916,779.16516,385.3858,-174.57417,771.0116,430.86337
UncalGyro,1676594517884,31574706379796,0.16310102,1.2945762,0.16294831,-0.00041315527,-0.001448707,-0.0005306996
UncalAccel,1676594517884,31574706379796,-1.579263,1.4285151,7.6953177,0.037048545,-0.031444572,0.0098014325
OrientationDeg,1676594517884,31574706379796,41.0,12.0,-14.0
UncalGyro,1676594517892,31574714868851,0.026267206,1.2325734,0.28053987,-0.00041315527,-0.001448707,-0.0005306996
UncalAccel,1676594517892,31574714868851,-1.7886349,1.2693924,7.637292,0.037048545,-0.031444572,0.0098014325
UncalMag,1676594517892,31574714944088,-179.0228,779.38477,386.2642,-174.57417,771.0116,430.86337
OrientationDeg,1676594517892,31574714868851,41.0,13.0,-14.0
UncalGyro,1676594517901,31574723339524,-0.1160644,1.1513283,0.41431937,-0.00041315527,-0.001448707,-0.0005306996
UncalAccel,1676594517902,31574723339524,-1.7904296,0.9774681,7.500303,0.037048545,-0.031444572,0.0098014325
UncalMag,1676594517902,31574724929195,-179.157,778.94556,386.03238,-174.57417,771.0116,430.86337
OrientationDeg,1676594517901,31574723339524,41.0,13.0,-14.0
UncalGyro,1676594517909,31574731810482,-0.26297748,1.0422888,0.56230146,-0.00041315527,-0.001448707,-0.0005306996
UncalAccel,1676594517909,31574731810482,-1.7312071,0.84825563,7.344171,0.037048545,-0.031444572,0.0098014325
OrientationDeg,1676594517909,31574731810482,41.0,14.0,-14.0
UncalMag,1676594517912,31574734942298,-178.7056,779.48236,386.3984,-174.57417,771.0116,430.86337
UncalGyro,1676594517918,31574740300776,-0.4147775,0.9233228,0.7099781,-0.00041315527,-0.001448707,-0.0005306996
UncalAccel,1676594517919,31574740300776,-1.7593229,0.7860422,7.2580295,0.037048545,-0.031444572,0.0098014325
OrientationDeg,1676594517918,31574740300776,40.0,14.0,-14.0
UncalMag,1676594517922,31574744925371,-178.4738,779.89716,385.52,-174.57417,771.0116,430.86337
UncalGyro,1676594517926,31574748780392,-0.56337047,0.7698429,0.8507826,-0.00041315527,-0.001448707,-0.0005306996
UncalAccel,1676594517926,31574748780392,-1.8203398,0.80518484,7.071389,0.037048545,-0.031444572,0.0098014325
OrientationDeg,1676594517926,31574748780392,40.0,14.0,-14.0
UncalMag,1676594517932,31574754931841,-178.1444,780.1778,386.069,-174.57417,771.0116,430.86337
UncalGyro,1676594517935,31574757260718,-0.6947065,0.56153786,0.9656252,-0.00041315527,-0.001448707,-0.0005306996
UncalAccel,1676594517935,31574757260718,-2.4239295,1.0695918,7.057032,0.037048545,-0.031444572,0.0098014325
OrientationDeg,1676594517935,31574757260718,39.0,14.0,-14.0
UncalMag,1676594517942,31574764941932,-177.4856,780.7146,385.8128,-174.57417,771.0116,430.86337
UncalGyro,1676594517943,31574765740789,-0.8060367,0.35430184,0.95356065,-0.00041315527,-0.001448707,-0.0005306996
UncalAccel,1676594517943,31574765740789,-4.3268213,2.1541386,7.4829545,0.037048545,-0.031444572,0.0098014325
OrientationDeg,1676594517943,31574765740789,39.0,14.0,-13.0
UncalGyro,1676594517951,31574774222754,-0.8565858,0.22632557,0.79290307,-0.00041315527,-0.001448707,-0.0005306996
UncalAccel,1676594517952,31574774222754,-5.5190454,3.2907293,8.123632,0.037048545,-0.031444572,0.0098014325
UncalMag,1676594517952,31574774933184,-177.26599,780.86096,384.7514,-174.57417,771.0116,430.86337
OrientationDeg,1676594517952,31574774222754,38.0,14.0,-13.0
UncalGyro,1676594517960,31574782700508,-0.7626653,0.14737125,0.6009387,-0.00041315527,-0.001448707,-0.0005306996
UncalAccel,1676594517960,31574782700508,-5.035097,3.4941192,8.502895,0.037048545,-0.031444572,0.0098014325
OrientationDeg,1676594517960,31574782700508,38.0,14.0,-13.0
UncalMag,1676594517962,31574784942258,-176.94879,780.97076,385.4956,-174.57417,771.0116,430.86337
UncalGyro,1676594517969,31574791170855,-0.5358815,0.056046885,0.47342056,-0.00041315527,-0.001448707,-0.0005306996
UncalAccel,1676594517969,31574791170855,-3.8500516,2.4999015,8.734999,0.037048545,-0.031444572,0.0098014325
OrientationDeg,1676594517969,31574791170855,38.0,14.0,-13.0
UncalMag,1676594517972,31574794942584,-177.3392,781.3246,385.71518,-174.57417,771.0116,430.86337
UncalGyro,1676594517977,31574799660061,-0.23671028,-0.053145275,0.42913285,-0.00041315527,-0.001448707,-0.0005306996
UncalAccel,1676594517977,31574799660061,-2.9066813,1.2364911,8.799605,0.037048545,-0.031444572,0.0098014325
OrientationDeg,1676594517977,31574799660061,37.0,14.0,-13.0
UncalMag,1676594517982,31574804951740,-177.10739,781.6906,386.3984,-174.57417,771.0116,430.86337
UncalGyro,1676594517986,31574808141477,0.08781188,-0.13561209,0.47235155,-0.00041315527,-0.001448707,-0.0005306996
UncalAccel,1676594517986,31574808141477,-2.329413,0.40618163,8.936594,0.037048545,-0.031444572,0.0098014325
OrientationDeg,1676594517986,31574808141477,37.0,14.0,-13.0
UncalMag,1676594517992,31574814942056,-176.79019,781.7638,385.8006,-174.57417,771.0116,430.86337
UncalGyro,1676594517994,31574816619108,0.38530326,-0.19074267,0.5900958,-0.00041315527,-0.001448707,-0.0005306996
UncalAccel,1676594517994,31574816619108,-2.059622,0.14955142,8.839087,0.037048545,-0.031444572,0.0098014325
OrientationDeg,1676594517994,31574816619108,37.0,14.0,-13.0
UncalMag,1676594518002,31574824942259,-177.55879,781.2514,386.30078,-174.57417,771.0116,430.86337
UncalGyro,1676594518003,31574825090422,0.5893322,-0.24236079,0.7325801,-0.00041315527,-0.001448707,-0.0005306996
UncalAccel,1676594518003,31574825090422,-2.0171494,0.37986058,8.790632,0.037048545,-0.031444572,0.0098014325
OrientationDeg,1676594518003,31574825090422,37.0,14.0,-13.0
UncalGyro,1676594518011,31574833584044,0.679893,-0.29077184,0.84879726,-0.00041315527,-0.001448707,-0.0005306996
UncalAccel,1676594518011,31574833584044,-2.1535404,0.92482597,8.739186,0.037048545,-0.031444572,0.0098014325
OrientationDeg,1676594518011,31574833584044,36.0,14.0,-14.0
UncalMag,1676594518012,31574834931721,-177.2782,780.6292,385.7884,-174.57417,771.0116,430.86337
UncalGyro,1676594518020,31574842060942,0.679893,-0.35094208,0.9095783,-0.00041315527,-0.001448707,-0.0005306996
UncalAccel,1676594518020,31574842060942,-2.3665016,1.5080764,8.620144,0.037048545,-0.031444572,0.0098014325
OrientationDeg,1676594518020,31574842060942,36.0,13.0,-14.0
UncalMag,1676594518022,31574844942260,-177.1806,780.54376,386.008,-174.57417,771.0116,430.86337
UncalGyro,1676594518028,31574850540201,0.61437774,-0.4428773,0.9211848,-0.00041315527,-0.001448707,-0.0005306996
UncalAccel,1676594518028,31574850540201,-2.464009,1.905285,8.5938225,0.037048545,-0.031444572,0.0098014325
OrientationDeg,1676594518028,31574850540201,35.0,13.0,-15.0
UncalMag,1676594518032,31574854931558,-177.205,780.1656,385.0686,-174.57417,771.0116,430.86337
UncalGyro,1676594518037,31574859011534,0.52396965,-0.5572618,0.91797775,-0.00041315527,-0.001448707,-0.0005306996
UncalAccel,1676594518037,31574859011534,-2.2660031,2.044667,8.928818,0.037048545,-0.031444572,0.0098014325
OrientationDeg,1676594518038,31574859011534,35.0,13.0,-15.0
UncalMag,1676594518042,31574864941975,-176.9366,779.3238,385.5932,-174.57417,771.0116,430.86337
UncalGyro,1676594518045,31574867501993,0.45158213,-0.61926466,0.9314168,-0.00041315527,-0.001448707,-0.0005306996
UncalAccel,1676594518045,31574867501993,-1.869991,2.0027926,9.70469,0.037048545,-0.031444572,0.0098014325
OrientationDeg,1676594518045,31574867501993,35.0,12.0,-15.0
UncalMag,1676594518052,31574874942098,-177.632,779.90936,385.50778,-174.57417,771.0116,430.86337
UncalGyro,1676594518053,31574875978219,0.40882155,-0.57360244,0.95539325,-0.00041315527,-0.001448707,-0.0005306996
UncalAccel,1676594518053,31574875978219,-1.5361922,1.931606,10.532607,0.037048545,-0.031444572,0.0098014325
OrientationDeg,1676594518053,31574875978219,34.0,12.0,-15.0
UncalGyro,1676594518062,31574884445434,0.39370266,-0.43417248,0.9665415,-0.00041315527,-0.001448707,-0.0005306996
UncalAccel,1676594518062,31574884445434,-1.3974084,2.012962,11.105688,0.037048545,-0.031444572,0.0098014325
UncalMag,1676594518062,31574884937785,-177.5344,779.8362,385.6054,-174.57417,771.0116,430.86337
OrientationDeg,1676594518062,31574884445434,34.0,12.0,-16.0
UncalGyro,1676594518070,31574892928863,0.3932445,-0.25244007,0.94913185,-0.00041315527,-0.001448707,-0.0005306996
UncalAccel,1676594518070,31574892928863,-1.2759727,2.1858435,11.397015,0.037048545,-0.031444572,0.0098014325
UncalMag,1676594518072,31574894942220,-177.754,779.7386,385.4712,-174.57417,771.0116,430.86337
OrientationDeg,1676594518070,31574892928863,33.0,11.0,-16.0
UncalGyro,1676594518079,31574901421854,0.41157046,-0.055436023,0.89812464,-0.00041315527,-0.001448707,-0.0005306996
UncalAccel,1676594518079,31574901421854,-1.2927225,2.4107687,11.500504,0.037048545,-0.031444572,0.0098014325
OrientationDeg,1676594518079,31574901421854,33.0,11.0,-16.0
UncalMag,1676594518082,31574904941936,-177.7784,779.214,385.703,-174.57417,771.0116,430.86337
UncalGyro,1676594518088,31574909887451,0.46089783,0.15668693,0.8219192,-0.00041315527,-0.001448707,-0.0005306996
UncalAccel,1676594518087,31574909887451,-1.2909278,2.4448664,11.266605,0.037048545,-0.031444572,0.0098014325
OrientationDeg,1676594518087,31574909887451,33.0,11.0,-17.0
UncalMag,1676594518092,31574914932008,-177.6808,779.214,385.45898,-174.57417,771.0116,430.86337
UncalGyro,1676594518096,31574918381500,0.52381694,0.33551773,0.7386888,-0.00041315527,-0.001448707,-0.0005306996
UncalAccel,1676594518096,31574918381500,-1.3920245,2.411367,10.69831,0.037048545,-0.031444572,0.0098014325
OrientationDeg,1676594518096,31574918381500,32.0,11.0,-17.0
UncalMag,1676594518102,31574924942221,-177.58319,779.05536,385.8982,-174.57417,771.0116,430.86337
UncalGyro,1676594518104,31574926859731,0.5720753,0.42943826,0.66614854,-0.00041315527,-0.001448707,-0.0005306996
UncalAccel,1676594518104,31574926859731,-1.442872,2.4221346,9.84826,0.037048545,-0.031444572,0.0098014325
OrientationDeg,1676594518104,31574926859731,32.0,11.0,-17.0
UncalMag,1676594518112,31574934942059,-177.0952,778.4454,385.50778,-174.57417,771.0116,430.86337
UncalGyro,1676594518113,31574935339153,0.5893322,0.44638976,0.6010914,-0.00041315527,-0.001448707,-0.0005306996
UncalAccel,1676594518113,31574935339153,-1.6163517,2.6518457,9.182457,0.037048545,-0.031444572,0.0098014325
OrientationDeg,1676594518113,31574935339153,32.0,11.0,-18.0
UncalGyro,1676594518121,31574943824382,0.56184334,0.4071417,0.5346598,-0.00041315527,-0.001448707,-0.0005306996
UncalAccel,1676594518121,31574943824382,-1.8825532,3.0053852,8.739784,0.037048545,-0.031444572,0.0098014325
UncalMag,1676594518122,31574944931764,-177.205,778.42096,384.7758,-174.57417,771.0116,430.86337
OrientationDeg,1676594518121,31574943824382,32.0,12.0,-18.0
Nav,14,769,1,4,14,117,-96,46,-57,53,-111,24,-96,37,9,-120
UncalGyro,1676594518130,31574952304557,0.49006665,0.3391829,0.46517387,-0.00041315527,-0.001448707,-0.0005306996
UncalAccel,1676594518130,31574952304557,-2.1834507,3.2386854,8.536395,0.037048545,-0.031444572,0.0098014325
OrientationDeg,1676594518130,31574952304557,31.0,12.0,-18.0
Nav,16,769,1,4,14,117,-96,46,-57,53,-111,24,-96,37,9,-120
UncalMag,1676594518132,31574954945518,-176.717,777.8598,386.2032,-174.57417,771.0116,430.86337
Nav,15,769,1,4,14,117,-96,46,-57,53,-111,24,-96,37,9,-120
Nav,24,769,1,4,14,117,-96,46,-57,53,-111,24,-96,37,9,-120
Nav,17,769,1,4,14,117,-96,46,-57,53,-111,24,-96,37,9,-120
UncalGyro,1676594518139,31574960782350,0.3819435,0.26465738,0.41218132,-0.00041315527,-0.001448707,-0.0005306996
UncalAccel,1676594518138,31574960782350,-2.3844478,3.199204,8.563912,0.037048545,-0.031444572,0.0098014325
OrientationDeg,1676594518138,31574960782350,31.0,12.0,-18.0
UncalMag,1676594518142,31574964951133,-176.3022,777.8598,385.703,-174.57417,771.0116,430.86337
UncalGyro,1676594518147,31574969267793,0.24404067,0.18768835,0.3912592,-0.00041315527,-0.001448707,-0.0005306996
UncalAccel,1676594518147,31574969267793,-2.714059,2.8809586,8.735598,0.037048545,-0.031444572,0.0098014325
OrientationDeg,1676594518147,31574969267793,31.0,12.0,-19.0
UncalMag,1676594518152,31574974942141,-176.8024,778.10376,385.77618,-174.57417,771.0116,430.86337
UncalGyro,1676594518155,31574977741864,0.085673854,-0.0571159,0.40775254,-0.00041315527,-0.001448707,-0.0005306996
UncalAccel,1676594518155,31574977741864,-3.8793638,2.2995026,8.277371,0.037048545,-0.031444572,0.0098014325
OrientationDeg,1676594518155,31574977741864,31.0,12.0,-19.0
UncalMag,1676594518162,31574984942182,-176.6438,777.3962,384.9954,-174.57417,771.0116,430.86337
UncalGyro,1676594518164,31574986218884,0.00870483,-0.35521814,0.6036876,-0.00041315527,-0.001448707,-0.0005306996
UncalAccel,1676594518164,31574986218884,-4.3202415,1.5002998,9.004191,0.037048545,-0.031444572,0.0098014325
OrientationDeg,1676594518164,31574986218884,31.0,11.0,-19.0
Raw,1676594517999,37999000000,,,-1360629698000580908,0.0,6.516234353762027,227.0,1.0,58,2,0.0,16431,434535918007855,22,36.12565612792969,-583.9594033038329,0.15,25,-22061.664549016565,0.0020253800321370363,1575420030,,,,0,,1,,32.525657653808594,0.0,1.0,0.0,1.0,C,31574827128000
Raw,1676594517999,37999000000,,,-1360629698000580908,0.0,6.516234353762027,227.0,1.0,58,6,0.0,16431,434535927677601,15,40.963905334472656,519.9073566166458,0.15,25,19613.508354602018,0.0012307516299188137,1575420030,,,,0,,1,,37.36390686035156,0.320142130558394,1.0,0.320142130558394,1.0,C,31574827128000
Raw,1676594517999,37999000000,,,-1360629698000580908,0.0,6.516234353762027,227.0,1.0,58,11,0.0,16431,434535931565055,17,39.22193908691406,-6.137094811466675,0.15,25,-298.76319859597123,0.0015040722209960222,1575420030,,,,0,,1,,35.62194061279297,-0.20372681261465636,1.0,-0.20372681261465636,1.0,C,31574827128000
Raw,1676594517999,37999000000,,,-1360629698000580908,0.0,6.516234353762027,227.0,1.0,58,12,0.0,16431,434535930951016,12,43.266815185546875,-204.48896216048172,0.15,29,-7735.417843283783,0.0009441149304620922,1575420030,,,,0,,1,,39.66681671142578,-0.6984919076624261,1.0,-0.6984919076624261,1.0,C,31574827128000
Raw,1676594517999,37999000000,,,-1360629698000580908,0.0,6.516234353762027,227.0,1.0,58,19,0.0,16431,434535923301940,20,37.205135345458984,574.1270917513934,0.15,16,21629.442633823535,340282346638528860000000000000000000000,1575420030,,,,0,,1,,33.60513687133789,0.0,1.0,0.0,1.0,C,31574827128000
Raw,1676594517999,37999000000,,,-1360629698000580908,0.0,6.516234353762027,227.0,1.0,58,20,0.0,16431,434535922475101,14,41.66624450683594,-473.79778058869647,0.15,25,-17866.90558060428,0.0011351504363119602,1575420030,,,,0,,1,,38.066246032714844,0.0,1.0,0.0,1.0,C,31574827128000
Raw,1676594517999,37999000000,,,-1360629698000580908,0.0,6.516234353762027,227.0,1.0,58,24,0.0,16431,434535925071313,30,32.5267448425293,575.1527691979909,0.6487602255846747,17,21707.647248221907,0.0982119903555957,1575420030,,,,0,,1,,28.92674446105957,-0.20372681261465636,1.0,-0.20372681261465636,1.0,C,31574827128000
Raw,1676594517999,37999000000,,,-1360629698000580908,0.0,6.516234353762027,227.0,1.0,58,25,0.0,16431,434535926038272,13,42.284576416015625,-467.5873776084795,0.15,25,-17698.658880815317,0.0010571504244580865,1575420030,,,,0,,1,,38.68457794189453,-2.0372682255564105,1.0,-2.0372682255564105,1.0,C,31574827128000
Raw,1676594517999,37999000000,,,-1360629698000580908,0.0,6.516234353762027,227.0,1.0,58,29,0.0,16431,434535917977613,25,34.636714935302734,-430.6410404289704,0.5561987306966176,16,-16235.483203340445,340282346638528860000000000000000000000,1575420030,,,,0,,1,,31.036714553833008,-0.6984919076624261,1.0,-0.6984919076624261,1.0,C,31574827128000
Raw,1676594517999,37999000000,,,-1360629698000580908,0.0,6.516234353762027,227.0,1.0,58,6,0.0,81921,434535927678132,11,35.10868453979492,520.0507755936937,0.5331220785205144,25,21201.46751553736,0.003049144521355629,1176450050,,,,0,,1,,31.508686065673828,1.9208527336454408,3.0890418679831844,1.9208527336454408,1.0,Q,31574827128000
Raw,1676594517999,37999000000,,,-1360629698000580908,0.0,6.516234353762027,227.0,1.0,58,11,0.0,81921,434535931565548,7,44.373863220214844,-4.980275527706809,0.15,25,-321.0817671345686,0.0011130005586892366,1176450050,,,,0,,1,,40.77386474609375,0.0,3.0890418679831844,0.0,1.0,Q,31574827128000
Raw,1676594517999,37999000000,,,-1360629698000580908,0.0,6.516234353762027,227.0,1.0,58,24,0.0,81921,434535925071818,11,33.486141204833984,573.9199385806478,0.6056172275779264,25,23472.278453277486,0.003675404703244567,1176450050,,,,0,,1,,29.88614273071289,3.5215636101095664,3.0890418679831844,3.5215636101095664,1.0,Q,31574827128000
Raw,1676594517999,37999000000,,,-1360629698000580908,0.0,6.516234353762027,227.0,1.0,58,25,0.0,81921,434535926038792,7,40.08894348144531,-467.4577620263233,0.15,25,-19125.01679096702,0.0018228096887469292,1176450050,,,,0,,1,,36.48894500732422,1.0186341127782053,3.0890418679831844,1.0186341127782053,1.0,Q,31574827128000
Raw,1676594517999,37999000000,,,-1360629698000580908,0.0,6.516234353762027,227.0,1.0,58,14,0.0,32995,13317931186912,33,40.191009521484375,627.5245535400718,0.15,17,24202.864498432667,0.09512495426734033,1598062460,,,,0,,3,,36.59101104736328,52.1540641784668,2.0000000474974513,52.1540641784668,2.0000000474974513,C,31574827128000
Raw,1676594517999,37999000000,,,-1360629698000580908,0.0,6.516234353762027,227.0,1.0,58,18,0.0,32995,13317928749391,78,29.176179885864258,-434.61212376826916,0.8000929892757425,17,-16730.717924212793,0.09810469308756777,1600312450,,,,0,,3,,25.57617950439453,52.1540641784668,2.0000000474974513,52.1540641784668,2.0000000474974513,C,31574827128000
Raw,1676594517999,37999000000,,,-1360629698000580908,0.0,6.516234353762027,227.0,1.0,58,16,0.0,32995,13317924379751,33,43.90455627441406,-672.9397676812819,0.15,17,-24813.380063042834,0.09451075861958207,1601437440,,,,0,,3,,40.30455780029297,52.1540641784668,2.0000000474974513,52.1540641784668,2.0000000474974513,C,31574827128000
Raw,1676594517999,37999000000,,,-1360629698000580908,0.0,6.516234353762027,227.0,1.0,58,15,0.0,32995,13317935301497,33,39.8606071472168,-114.90533830257903,0.15,25,-4405.1919328470985,0.0013742605224251747,1602000000,,,,0,,3,,36.2606086730957,52.1540641784668,2.0000000474974513,52.1540641784668,2.0000000474974513,C,31574827128000
Raw,1676594517999,37999000000,,,-1360629698000580908,0.0,6.516234353762027,227.0,1.0,58,24,0.0,32995,13317927438717,33,40.302711486816406,703.5395424667654,0.15,17,26527.818775495572,0.09480766669082433,1603124990,,,,0,,3,,36.70271301269531,52.1540641784668,2.0000000474974513,52.1540641784668,2.0000000474974513,C,31574827128000
Raw,1676594517999,37999000000,,,-1360629698000580908,0.0,6.516234353762027,227.0,1.0,58,17,0.0,32995,13317935585359,33,40.97230911254883,151.4988027684792,0.15,16,5803.059638279365,340282346638528860000000000000000000000,1604249980,,,,0,,3,,37.372310638427734,52.1540641784668,2.0000000474974513,52.1540641784668,2.0000000474974513,C,31574827128000
Raw,1676594517999,37999000000,,,-1360629698000580908,0.0,6.516234353762027,227.0,1.0,58,2,0.0,85026,434535921622600,19,37.870357513427734,153.26959087957835,0.15,16,6049.718483586867,340282346638528860000000000000000000000,1575420030,,,,0,,6,,34.27035903930664,-5.878973752260207,1.5000000237487257,-5.878973752260207,1.5000000237487257,C,31574827128000
Raw,1676594517999,37999000000,,,-1360629698000580908,0.0,6.516234353762027,227.0,1.0,58,11,0.0,85026,434535909156117,35,30.463911056518555,598.0081237176223,0.7415387298638731,25,21828.09882540803,0.003886815393343568,1575420030,,,,0,,6,,26.863910675048828,-5.878973752260207,1.5000000237487257,-5.878973752260207,1.5000000237487257,C,31574827128000
Raw,1676594517999,37999000000,,,-1360629698000580908,0.0,6.516234353762027,227.0,1.0,58,25,0.0,84002,434535911388128,1000000000,34.311771392822266,505.08510076961466,299792458,25,19187.581365745074,0.0024957493878901005,1575420030,,,,0,,6,,30.71177101135254,-5.878973752260207,1.5000000237487257,-5.878973752260207,1.5000000237487257,C,31574827128000
Raw,1676594517999,37999000000,,,-1360629698000580908,0.0,6.516234353762027,227.0,1.0,58,30,0.0,85026,434535915857777,15,40.803951263427734,-299.6294749360047,0.15,25,-11245.989896102004,0.00125362619291991,1575420030,,,,0,,6,,37.20395278930664,-5.878973752260207,1.5000000237487257,-5.878973752260207,1.5000000237487257,C,31574827128000
Raw,1676594517999,37999000000,,,-1360629698000580908,0.0,6.516234353762027,227.0,1.0,58,34,0.0,85026,434535919587013,23,35.77934265136719,-247.03032652646016,0.502227463326651,16,-9840.665547519518,340282346638528860000000000000000000000,1575420030,,,,0,,6,,32.179344177246094,-5.878973752260207,1.5000000237487257,-5.878973752260207,1.5000000237487257,C,31574827128000
Raw,1676594517999,37999000000,,,-1360629698000580908,0.0,6.516234353762027,227.0,1.0,58,36,0.0,85026,434535920229695,13,42.44343185424805,284.62056651582645,0.15,16,10980.741773094232,340282346638528860000000000000000000000,1575420030,,,,0,,6,,38.84343338012695,-5.878973752260207,1.5000000237487257,-5.878973752260207,1.5000000237487257,C,31574827128000
Raw,1676594517999,37999000000,,,-1360629698000580908,0.0,6.516234353762027,227.0,1.0,58,2,0.0,84003,434535921623096,8,38.01888656616211,153.44782508596438,0.15,25,5948.188865855078,0.0023133649956434965,1176450050,,,,0,,6,,34.418888092041016,-4.216632805764675,3.58904189173191,-4.216632805764675,1.5000000237487257,Q,31574827128000
Raw,1676594517999,37999000000,,,-1360629698000580908,0.0,6.516234353762027,227.0,1.0,58,11,0.0,84003,434535909156630,57,24.436357498168945,597.7696146868757,1.0133106405616137,16,21234.76554260797,340282346638528860000000000000000000000,1176450050,,,,0,,6,,20.83635711669922,5.203299224376676,3.58904189173191,5.203299224376676,1.5000000237487257,Q,31574827128000
Raw,1676594517999,37999000000,,,-1360629698000580908,0.0,6.516234353762027,227.0,1.0,58,25,0.0,84003,434535911389188,20,30.20863151550293,505.1581053914865,0.7541395199518202,25,20656.229801581536,0.005360196344554424,1176450050,,,,0,,6,,26.608631134033203,-8.649541996419428,3.58904189173191,-8.649541996419428,1.5000000237487257,Q,31574827128000
Raw,1676594517999,37999000000,,,-1360629698000580908,0.0,6.516234353762027,227.0,1.0,58,30,0.0,84003,434535915858285,6,41.189353942871094,-299.6599446521361,0.15,25,-10950.241039910106,0.0016059087356552482,1176450050,,,,0,,6,,37.58935546875,-8.2801328971982,3.58904189173191,-8.2801328971982,1.5000000237487257,Q,31574827128000
Raw,1676594517999,37999000000,,,-1360629698000580908,0.0,6.516234353762027,227.0,1.0,58,34,0.0,84003,434535919587533,7,34.14965057373047,-247.2509081850758,0.5783909364692241,25,-9897.112333318277,0.003405098570510745,1176450050,,,,0,,6,,30.549652099609375,-9.942473843693731,3.58904189173191,-9.942473843693731,1.5000000237487257,Q,31574827128000
Raw,1676594517999,37999000000,,,-1360629698000580908,0.0,6.516234353762027,227.0,1.0,58,36,0.0,84003,434535920230215,8,34.78099060058594,284.6911512832852,0.5501159108658176,16,11274.703742120071,340282346638528860000000000000000000000,1176450050,,,,0,,6,,31.180992126464844,-10.865996591746804,3.58904189173191,-10.865996591746804,1.5000000237487257,Q,31574827128000
UncalGyro,1676594518172,31574994702568,0.04596761,-0.4720461,1.012051,-0.00041315527,-0.001448707,-0.0005306996
UncalAccel,1676594518172,31574994702568,-3.4749768,0.40677986,9.897911,0.037048545,-0.031444572,0.0098014325
UncalMag,1676594518172,31574994925825,-176.9366,777.6646,385.4346,-174.57417,771.0116,430.86337
UncalGyro,1676594518181,31575003189517,0.07070765,-0.37797287,1.4136949,-0.00041315527,-0.001448707,-0.0005306996
UncalAccel,1676594518181,31575003189517,-2.818147,0.509073,11.562717,0.037048545,-0.031444572,0.0098014325
UncalMag,1676594518182,31575004942101,-176.9366,777.6646,385.4346,-174.57417,771.0116,430.86337
UncalGyro,1676594518189,31575011662072,0.12064589,-0.24938573,1.6549866,-0.00041315527,-0.001448707,-0.0005306996
UncalAccel,1676594518189,31575011662072,-2.295315,1.0725827,11.587244,0.037048545,-0.031444572,0.0098014325
OrientationDeg,1676594518172,31574994702568,30.0,11.0,-19.0
OrientationDeg,1676594518181,31575003189517,29.0,11.0,-19.0
OrientationDeg,1676594518189,31575011662072,28.0,10.0,-19.0
Status,0,31,0,6,2,1575420030,40.22,105.0,76.0,1,1,1,36.621346
Status,0,31,1,6,2,1176450050,40.50,105.0,76.0,1,1,1,36.90152
Status,0,31,2,3,15,1602000000,42.44,319.0,76.0,1,1,1,38.84081
Status,0,31,3,1,11,1575420030,41.61,126.0,76.0,1,1,1,38.00753
Status,0,31,4,1,11,1176450050,44.42,126.0,76.0,1,1,1,40.818546
Status,0,31,5,3,17,1604249980,43.95,317.0,73.0,1,1,1,40.35366
Status,0,31,6,1,12,1575420030,45.22,327.0,64.0,1,1,1,41.617516
Status,0,31,7,6,36,1575420030,43.06,52.0,63.0,1,1,1,39.455933
Status,0,31,8,6,36,1176450050,37.09,52.0,63.0,1,1,1,33.49196
Status,0,31,9,6,34,1176450050,34.40,206.0,59.0,1,1,1,30.803736
Status,0,31,10,6,34,1575420030,35.78,206.0,59.0,1,1,1,32.179344
Status,0,31,11,3,14,1598062460,42.89,152.0,46.0,1,1,1,39.291378
Status,0,31,12,1,6,1176450050,40.70,48.0,45.0,1,1,1,37.096912
Status,0,31,13,1,6,1575420030,42.94,48.0,45.0,1,1,1,39.344063
Status,0,31,14,6,30,1176450050,43.16,315.0,45.0,1,1,1,39.5587
Status,0,31,15,6,30,1575420030,41.73,315.0,45.0,1,1,1,38.130558
Status,0,31,16,1,24,1575420030,33.09,219.0,39.0,1,1,1,29.485367
Status,0,31,17,1,24,1176450050,36.43,219.0,39.0,1,1,1,32.832195
Status,0,31,18,3,18,1600312450,31.41,238.0,35.0,1,1,1,27.806648
Status,0,31,19,1,25,1176450050,40.09,312.0,34.0,1,1,1,36.488945
Status,0,31,20,1,25,1575420030,42.28,312.0,34.0,1,1,1,38.684578
Status,0,31,21,3,24,1603124990,46.20,34.0,31.0,1,1,1,42.597443
Status,0,31,22,6,25,1575420030,36.23,126.0,26.0,0,1,1,32.632248
Status,0,31,23,6,25,1176450050,31.01,126.0,26.0,1,1,1,27.412397
Status,0,31,24,1,20,1575420030,43.42,142.0,26.0,1,1,1,39.823193
Status,0,31,25,1,19,1575420030,43.92,60.0,25.0,1,1,1,40.320435
Status,0,31,26,3,16,1601437440,46.47,328.0,21.0,1,1,1,42.868027
Status,0,31,27,6,11,1575420030,34.89,41.0,14.0,1,1,1,31.293875
Status,0,31,28,6,11,1176450050,27.60,41.0,14.0,1,1,1,24.001492
Status,0,31,29,1,29,1575420030,34.64,264.0,14.0,1,1,1,31.036715
Status,0,31,30,1,2,1575420030,37.95,217.0,11.0,1,1,1,34.348316
UncalMag,1676594518193,31575014942264,-176.31439,777.67676,385.7884,-174.57417,771.0116,430.86337
UncalGyro,1676594518198,31575020144432,0.2753475,-0.22724187,1.7988454,-0.00041315527,-0.001448707,-0.0005306996
UncalAccel,1676594518198,31575020144432,-1.8089739,1.6319051,11.420344,0.037048545,-0.031444572,0.0098014325
OrientationDeg,1676594518198,31575020144432,28.0,10.0,-19.0
Fix,GPS,37.4311377628,-122.1551566656,-16.276691347902595,0.0,3.974196,306.25198,1676594517999,0.015216377,30.03634,31574827128000,3.0
UncalMag,1676594518202,31575024931807,-176.5706,776.8838,385.4834,-174.57417,771.0116,430.86337
UncalGyro,1676594518206,31575028622826,0.4961753,-0.23640485,1.8840611,-0.00041315527,-0.001448707,-0.0005306996
UncalAccel,1676594518206,31575028622826,-1.5888343,2.2025933,11.614162,0.037048545,-0.031444572,0.0098014325
OrientationDeg,1676594518206,31575028622826,27.0,9.0,-20.0
Fix,FLP,37.4311376000,-122.1551581000,-15.80000114440918,0.00000003285477,8.812,,1676594518005,0.015216377,,31574827128000,2.3824484
UncalMag,1676594518212,31575034942061,-176.5706,776.8838,385.4834,-174.57417,771.0116,430.86337
UncalGyro,1676594518215,31575037100934,0.73624533,-0.19135354,1.9144517,-0.00041315527,-0.001448707,-0.0005306996
UncalAccel,1676594518215,31575037100934,-1.5601203,2.5136602,12.05205,0.037048545,-0.031444572,0.0098014325
OrientationDeg,1676594518216,31575037100934,26.0,9.0,-20.0
UncalMag,1676594518222,31575044942143,-177.1928,776.9692,385.9958,-174.57417,771.0116,430.86337
UncalGyro,1676594518223,31575045579389,0.9363037,-0.13225232,1.9385809,-0.00041315527,-0.001448707,-0.0005306996
UncalAccel,1676594518223,31575045579389,-1.5990037,2.4987051,12.137593,0.037048545,-0.031444572,0.0098014325
OrientationDeg,1676594518223,31575045579389,25.0,9.0,-21.0
UncalGyro,1676594518232,31575054064436,1.0809261,-0.106901415,1.9802724,-0.00041315527,-0.001448707,-0.0005306996
UncalAccel,1676594518232,31575054064436,-1.6803597,2.4646072,12.171092,0.037048545,-0.031444572,0.0098014325
UncalMag,1676594518232,31575054928756,-176.7658,776.957,385.2638,-174.57417,771.0116,430.86337
OrientationDeg,1676594518232,31575054064436,24.0,8.0,-21.0
UncalGyro,1676594518240,31575062542993,1.2018774,-0.107359566,2.0422752,-0.00041315527,-0.001448707,-0.0005306996
UncalAccel,1676594518240,31575062542993,-1.8191434,2.4592235,12.150753,0.037048545,-0.031444572,0.0098014325
OrientationDeg,1676594518241,31575062542993,23.0,8.0,-22.0
UncalMag,1676594518242,31575064928064,-176.7292,775.8102,384.49518,-174.57417,771.0116,430.86337
UncalGyro,1676594518249,31575071020420,1.3023647,-0.1244638,2.100002,-0.00041315527,-0.001448707,-0.0005306996
UncalAccel,1676594518249,31575071020420,-2.155335,2.6578279,12.233904,0.037048545,-0.031444572,0.0098014325
OrientationDeg,1676594518249,31575071020420,22.0,7.0,-23.0
UncalMag,1676594518252,31575074942184,-176.6682,775.24896,386.0568,-174.57417,771.0116,430.86337
UncalGyro,1676594518258,31575079491957,1.3739886,-0.16172658,2.1429152,-0.00041315527,-0.001448707,-0.0005306996
UncalAccel,1676594518257,31575079491957,-2.39701,2.833102,12.455838,0.037048545,-0.031444572,0.0098014325
OrientationDeg,1676594518257,31575079491957,21.0,7.0,-24.0
UncalMag,1676594518262,31575084942144,-176.8756,775.1026,384.33658,-174.57417,771.0116,430.86337
UncalGyro,1676594518265,31575087979903,1.4382823,-0.15088372,2.182316,-0.00041315527,-0.001448707,-0.0005306996
UncalAccel,1676594518265,31575087979903,-2.352743,3.0245278,12.793824,0.037048545,-0.031444572,0.0098014325
OrientationDeg,1676594518265,31575087979903,20.0,6.0,-25.0
UncalMag,1676594518272,31575094942103,-176.99759,774.883,385.7396,-174.57417,771.0116,430.86337
UncalGyro,1676594518274,31575096463433,1.4818064,-0.07727446,2.2085834,-0.00041315527,-0.001448707,-0.0005306996
UncalAccel,1676594518274,31575096463433,-2.1104696,3.3182468,12.803396,0.037048545,-0.031444572,0.0098014325
OrientationDeg,1676594518274,31575096463433,19.0,6.0,-25.0
UncalGyro,1676594518282,31575104945399,1.4816537,-0.019700404,2.2163718,-0.00041315527,-0.001448707,-0.0005306996
UncalAccel,1676594518283,31575104945399,-2.1337996,3.6681972,12.44866,0.037048545,-0.031444572,0.0098014325
UncalMag,1676594518282,31575104951544,-177.083,773.54095,384.9344,-174.57417,771.0116,430.86337
OrientationDeg,1676594518282,31575104945399,18.0,5.0,-26.0
UncalGyro,1676594518291,31575113412267,1.4570663,-0.05299256,2.234087,-0.00041315527,-0.001448707,-0.0005306996
UncalAccel,1676594518291,31575113412267,-2.3892334,3.7441692,11.973684,0.037048545,-0.031444572,0.0098014325
UncalMag,1676594518292,31575114931443,-177.1684,773.724,384.9832,-174.57417,771.0116,430.86337
OrientationDeg,1676594518291,31575113412267,17.0,5.0,-27.0
UncalGyro,1676594518299,31575121901921,1.446987,-0.118507855,2.2710443,-0.00041315527,-0.001448707,-0.0005306996
UncalAccel,1676594518299,31575121901921,-2.562115,3.7716868,12.120843,0.037048545,-0.031444572,0.0098014325
OrientationDeg,1676594518299,31575121901921,15.0,4.0,-28.0
UncalMag,1676594518302,31575124942226,-177.0464,772.4064,384.788,-174.57417,771.0116,430.86337
UncalGyro,1676594518308,31575130384171,1.4714217,-0.13469578,2.3139575,-0.00041315527,-0.001448707,-0.0005306996
UncalAccel,1676594518308,31575130384171,-2.6829524,3.6364923,12.368501,0.037048545,-0.031444572,0.0098014325
OrientationDeg,1676594518308,31575130384171,14.0,4.0,-29.0
UncalMag,1676594518312,31575134933600,-177.3026,771.7354,385.8372,-174.57417,771.0116,430.86337
UncalGyro,1676594518316,31575138855464,1.5360206,-0.113926366,2.3744333,-0.00041315527,-0.001448707,-0.0005306996
UncalAccel,1676594518316,31575138855464,-2.7176483,3.2679975,12.117254,0.037048545,-0.031444572,0.0098014325
OrientationDeg,1676594518316,31575138855464,13.0,3.0,-29.0
UncalMag,1676594518322,31575144942308,-177.7296,771.4548,385.4224,-174.57417,771.0116,430.86337
UncalGyro,1676594518325,31575147347336,1.6299412,-0.13057245,2.4565945,-0.00041315527,-0.001448707,-0.0005306996
UncalAccel,1676594518325,31575147347336,-2.556731,2.92044,11.356337,0.037048545,-0.031444572,0.0098014325
OrientationDeg,1676594518325,31575147347336,12.0,2.0,-30.0
UncalMag,1676594518332,31575154942349,-177.7906,770.4056,385.28818,-174.57417,771.0116,430.86337
UncalGyro,1676594518333,31575155823542,1.7592919,-0.172264,2.550057,-0.00041315527,-0.001448707,-0.0005306996
UncalAccel,1676594518333,31575155823542,-2.3587248,2.7649066,10.561321,0.037048545,-0.031444572,0.0098014325
OrientationDeg,1676594518333,31575155823542,10.0,1.0,-31.0
UncalGyro,1676594518342,31575164303768,1.915368,-0.27382034,2.6186266,-0.00041315527,-0.001448707,-0.0005306996
UncalAccel,1676594518342,31575164303768,-2.140978,2.7870402,9.531809,0.037048545,-0.031444572,0.0098014325
OrientationDeg,1676594518342,31575164303768,9.0,1.0,-32.0
UncalMag,1676594518342,31575164931444,-177.71739,770.06396,385.5688,-174.57417,771.0116,430.86337
UncalGyro,1676594518350,31575172782884,2.1071796,-0.38515055,2.659402,-0.00041315527,-0.001448707,-0.0005306996
UncalAccel,1676594518350,31575172782884,-1.814956,2.9198418,8.693125,0.037048545,-0.031444572,0.0098014325
UncalMag,1676594518352,31575174942471,-178.4128,768.8196,385.1662,-174.57417,771.0116,430.86337
OrientationDeg,1676594518350,31575172782884,7.0,0.0,-33.0
UncalGyro,1676594518359,31575181263537,2.31747,-0.46135598,2.6951375,-0.00041315527,-0.001448707,-0.0005306996
UncalAccel,1676594518359,31575181263537,-1.5206388,2.9425735,7.744969,0.037048545,-0.031444572,0.0098014325
OrientationDeg,1676594518359,31575181263537,6.0,-1.0,-34.0
UncalMag,1676594518362,31575184942309,-178.4372,768.4048,385.8006,-174.57417,771.0116,430.86337
UncalGyro,1676594518367,31575189733863,2.5247061,-0.5129741,2.758362,-0.00041315527,-0.001448707,-0.0005306996
UncalAccel,1676594518367,31575189733863,-1.0971092,2.7643085,6.8464637,0.037048545,-0.031444572,0.0098014325
OrientationDeg,1676594518367,31575189733863,4.0,-2.0,-35.0
UncalMag,1676594518372,31575194931364,-179.3644,767.014,386.45938,-174.57417,771.0116,430.86337
UncalGyro,1676594518376,31575198222124,2.7214046,-0.572228,2.8460212,-0.00041315527,-0.001448707,-0.0005306996
UncalAccel,1676594518376,31575198222124,-0.64247286,2.4675984,5.767899,0.037048545,-0.031444572,0.0098014325
OrientationDeg,1676594518376,31575198222124,2.0,-3.0,-36.0
UncalMag,1676594518382,31575204929655,-179.3522,765.428,385.9592,-174.57417,771.0116,430.86337
UncalGyro,1676594518384,31575206703946,2.908024,-0.6632469,2.928488,-0.00041315527,-0.001448707,-0.0005306996
UncalAccel,1676594518384,31575206703946,-0.2943172,2.5579274,4.59063,0.037048545,-0.031444572,0.0098014325
OrientationDeg,1676594518384,31575206703946,0.0,-5.0,-38.0
UncalMag,1676594518392,31575214942106,-180.0354,764.45197,385.8616,-174.57417,771.0116,430.86337
UncalGyro,1676594518393,31575215183724,3.0789135,-0.7870999,2.965598,-0.00041315527,-0.001448707,-0.0005306996
UncalAccel,1676594518393,31575215183724,0.069391854,2.9736803,3.5934215,0.037048545,-0.031444572,0.0098014325
OrientationDeg,1676594518393,31575215183724,358.0,-6.0,-39.0
UncalGyro,1676594518401,31575223664060,3.2273538,-0.91797775,2.9513955,-0.00041315527,-0.001448707,-0.0005306996
UncalAccel,1676594518401,31575223664060,0.40378883,3.2356944,2.8540392,0.037048545,-0.031444572,0.0098014325
UncalMag,1676594518402,31575224931649,-181.0846,762.805,387.0694,-174.57417,771.0116,430.86337
OrientationDeg,1676594518401,31575223664060,356.0,-8.0,-41.0
UncalGyro,1676594518410,31575232146686,3.3360877,-1.0178542,2.9261973,-0.00041315527,-0.001448707,-0.0005306996
UncalAccel,1676594518410,31575232146686,0.78065836,3.080759,2.4514468,0.037048545,-0.031444572,0.0098014325
OrientationDeg,1676594518410,31575232146686,354.0,-10.0,-42.0
UncalMag,1676594518412,31575234942025,-181.3652,761.6094,387.8746,-174.57417,771.0116,430.86337
UncalGyro,1676594518418,31575240623482,3.4002287,-1.0476339,2.9303205,-0.00041315527,-0.001448707,-0.0005306996
UncalAccel,1676594518418,31575240623482,1.1539388,2.676372,2.0404794,0.037048545,-0.031444572,0.0098014325
OrientationDeg,1676594518418,31575240623482,351.0,-12.0,-43.0
UncalMag,1676594518422,31575244931650,-182.0484,760.63336,387.655,-174.57417,771.0116,430.86337
UncalGyro,1676594518427,31575249095854,3.4162638,-1.041678,2.9417744,-0.00041315527,-0.001448707,-0.0005306996
UncalAccel,1676594518427,31575249095854,1.3477573,2.3629124,1.332204,0.037048545,-0.031444572,0.0098014325
OrientationDeg,1676594518427,31575249095854,349.0,-14.0,-45.0
UncalMag,1676594518432,31575254942270,-183.0732,759.3402,388.8262,-174.57417,771.0116,430.86337
UncalGyro,1676594518435,31575257582802,3.3864841,-1.0792462,2.9251282,-0.00041315527,-0.001448707,-0.0005306996
UncalAccel,1676594518435,31575257582802,1.4841483,2.379662,0.3499503,0.037048545,-0.031444572,0.0098014325
OrientationDeg,1676594518435,31575257582802,346.0,-17.0,-46.0
UncalMag,1676594518442,31575264930958,-183.7686,758.2788,388.83838,-174.57417,771.0116,430.86337
UncalGyro,1676594518444,31575266057381,3.3334916,-1.2078333,2.8936687,-0.00041315527,-0.001448707,-0.0005306996
UncalAccel,1676594518444,31575266057381,1.5595222,2.487339,-0.82911307,0.037048545,-0.031444572,0.0098014325
OrientationDeg,1676594518444,31575266057381,343.0,-20.0,-47.0
UncalGyro,1676594518452,31575274544403,3.2966871,-1.4382823,2.8712194,-0.00041315527,-0.001448707,-0.0005306996
UncalAccel,1676594518452,31575274544403,1.6402799,2.5525436,-2.1272194,0.037048545,-0.031444572,0.0098014325
OrientationDeg,1676594518452,31575274544403,341.0,-22.0,-48.0
UncalMag,1676594518452,31575274929941,-184.6958,756.81476,389.9608,-174.57417,771.0116,430.86337
UncalGyro,1676594518461,31575283024199,3.270267,-1.7560849,2.8831313,-0.00041315527,-0.001448707,-0.0005306996
UncalAccel,1676594518461,31575283024199,1.8203398,2.3682961,-3.0556345,0.037048545,-0.031444572,0.0098014325
UncalMag,1676594518462,31575284942230,-185.6962,755.79,391.193,-174.57417,771.0116,430.86337
OrientationDeg,1676594518461,31575283024199,338.0,-26.0,-49.0
UncalGyro,1676594518469,31575291493957,3.2293391,-2.1041253,2.9283352,-0.00041315527,-0.001448707,-0.0005306996
UncalAccel,1676594518469,31575291493957,1.9537396,2.2019951,-3.4929228,0.037048545,-0.031444572,0.0098014325
OrientationDeg,1676594518469,31575291493957,334.0,-29.0,-50.0
UncalMag,1676594518472,31575294942190,-187.0016,755.0702,391.6566,-174.57417,771.0116,430.86337
UncalGyro,1676594518477,31575299984018,3.18047,-2.447737,3.004999,-0.00041315527,-0.001448707,-0.0005306996
UncalAccel,1676594518477,31575299984018,2.2390838,2.0512471,-3.8051863,0.037048545,-0.031444572,0.0098014325
OrientationDeg,1676594518477,31575299984018,331.0,-33.0,-50.0
UncalMag,1676594518482,31575304931895,-188.2582,753.42316,392.6326,-174.57417,771.0116,430.86337
UncalGyro,1676594518486,31575308462687,3.1731396,-2.8286116,3.0955596,-0.00041315527,-0.001448707,-0.0005306996
UncalAccel,1676594518486,31575308462687,2.6512475,1.9974087,-4.494319,0.037048545,-0.031444572,0.0098014325
