# 
# Header Description:
# 
# Version: v3.0.5.6 Platform: 13 Manufacturer: Google Model: Pixel 7
# 
# Raw,utcTimeMillis,TimeNanos,LeapSecond,TimeUncertaintyNanos,FullBiasNanos,BiasNanos,BiasUncertaintyNanos,DriftNanosPerSecond,DriftUncertaintyNanosPerSecond,HardwareClockDiscontinuityCount,Svid,TimeOffsetNanos,State,ReceivedSvTimeNanos,ReceivedSvTimeUncertaintyNanos,Cn0DbHz,PseudorangeRateMetersPerSecond,PseudorangeRateUncertaintyMetersPerSecond,AccumulatedDeltaRangeState,AccumulatedDeltaRangeMeters,AccumulatedDeltaRangeUncertaintyMeters,CarrierFrequencyHz,CarrierCycles,CarrierPhase,CarrierPhaseUncertainty,MultipathIndicator,SnrInDb,ConstellationType,AgcDb,BasebandCn0DbHz,FullInterSignalBiasNanos,FullInterSignalBiasUncertaintyNanos,SatelliteInterSignalBiasNanos,SatelliteInterSignalBiasUncertaintyNanos,CodeType,ChipsetElapsedRealtimeNanos
# 
# UncalAccel,utcTimeMillis,elapsedRealtimeNanos,UncalAccelXMps2,UncalAccelYMps2,UncalAccelZMps2,BiasXMps2,BiasYMps2,BiasZMps2
# 
# Accel,utcTimeMillis,elapsedRealtimeNanos,AccelXMps2,AccelYMps2,AccelZMps2
# 
# UncalGyro,utcTimeMillis,elapsedRealtimeNanos,UncalGyroXRadPerSec,UncalGyroYRadPerSec,UncalGyroZRadPerSec,DriftXRadPerSec,DriftYRadPerSec,DriftZRadPerSec
# 
# Gyro,utcTimeMillis,elapsedRealtimeNanos,GyroXRadPerSec,GyroYRadPerSec,GyroZRadPerSec
# 
# UncalMag,utcTimeMillis,elapsedRealtimeNanos,UncalMagXMicroT,UncalMagYMicroT,UncalMagZMicroT,BiasXMicroT,BiasYMicroT,BiasZMicroT
# 
# Mag,utcTimeMillis,elapsedRealtimeNanos,MagXMicroT,MagYMicroT,MagZMicroT
# 
# OrientationDeg,utcTimeMillis,elapsedRealtimeNanos,yawDeg,rollDeg,pitchDeg
# 
# Fix,Provider,LatitudeDegrees,LongitudeDegrees,AltitudeMeters,SpeedMps,AccuracyMeters,BearingDegrees,UnixTimeMillis,SpeedAccuracyMps,BearingAccuracyDegrees,elapsedRealtimeNanos,VerticalAccuracyMeters
# 
# Nav,Svid,Type,Status,MessageId,Sub-messageId,Data(Bytes)
# 
# Status,UnixTimeMillis,SignalCount,SignalIndex,ConstellationType,Svid,CarrierFrequencyHz,Cn0DbHz,AzimuthDegrees,ElevationDegrees,UsedInFix,HasAlmanacData,HasEphemerisData,BasebandCn0DbHz
# 
UncalAccel,1676592458639,29515461325180,-1.0235299,2.6751757,9.383454,0.037048545,-0.031444572,0.0098014325
UncalAccel,1676592458646,29515468836065,-1.0953146,2.6075785,9.445667,0.037048545,-0.031444572,0.0098014325
UncalAccel,1676592458655,29515477731554,-1.0630114,2.4969103,9.637094,0.037048545,-0.031444572,0.0098014325
UncalMag,1676592458656,29515478512254,-151.58499,744.7978,400.53818,-174.57417,771.0116,430.86337
UncalGyro,1676592458664,29515485723488,-0.42730024,-0.117438845,-0.16554448,0.0013464554,-0.0016874648,-0.00032962635
UncalAccel,1676592458663,29515485723488,-0.9816555,2.4448664,9.699904,0.037048545,-0.031444572,0.0098014325
UncalMag,1676592458666,29515488522752,-151.58499,744.7978,400.2942,-174.57417,771.0116,430.86337
UncalGyro,1676592458672,29515494291850,-0.3587306,-0.113162786,-0.15286903,0.0013464554,-0.0016874648,-0.00032962635
UncalAccel,1676592458672,29515494291850,-0.8913264,2.3682961,9.82493,0.037048545,-0.031444572,0.0098014325
UncalMag,1676592458676,29515498532274,-151.0604,744.7856,399.672,-174.57417,771.0116,430.86337
UncalGyro,1676592458680,29515502757870,-0.23915374,-0.057726767,-0.1337795,0.0013464554,-0.0016874648,-0.00032962635
UncalAccel,1676592458680,29515502757870,-0.82013994,2.3258235,9.892527,0.037048545,-0.031444572,0.0098014325
UncalMag,1676592458686,29515508522671,-151.1458,745.115,399.1474,-174.57417,771.0116,430.86337
UncalGyro,1676592458689,29515511248623,-0.0983493,0.008246681,-0.116217114,0.0013464554,-0.0016874648,-0.00032962635
UncalAccel,1676592458689,29515511248623,-0.79501534,2.312065,9.74477,0.037048545,-0.031444572,0.0098014325
UncalMag,1676592458696,29515518512540,-151.5606,745.3346,400.6602,-174.57417,771.0116,430.86337
UncalGyro,1676592458697,29515519732215,0.023365596,0.060170226,-0.10323623,0.0013464554,-0.0016874648,-0.00032962635
UncalAccel,1676592458698,29515519732215,-0.83748794,2.2875385,9.692128,0.037048545,-0.031444572,0.0098014325
UncalGyro,1676592458706,29515528204954,0.10934488,0.11346822,-0.10064005,0.0013464554,-0.0016874648,-0.00032962635
UncalAccel,1676592458706,29515528204954,-0.8955139,2.3204398,9.744172,0.037048545,-0.031444572,0.0098014325
UncalMag,1676592458706,29515528512092,-150.6944,745.6762,400.0014,-174.57417,771.0116,430.86337
UncalGyro,1676592458714,29515536682768,0.16050485,0.15454891,-0.113162786,0.0013464554,-0.0016874648,-0.00032962635
UncalAccel,1676592458714,29515536682768,-0.94337034,2.4017956,9.724431,0.037048545,-0.031444572,0.0098014325
UncalMag,1676592458716,29515538527514,-150.4626,744.4562,399.9404,-174.57417,771.0116,430.86337
OrientationDeg,1676592458714,29515536682768,229.0,5.0,-13.0
UncalGyro,1676592458723,29515545170530,0.16920967,0.17363845,-0.13240504,0.0013464554,-0.0016874648,-0.00032962635
UncalAccel,1676592458723,29515545170530,-0.991825,2.4448664,9.73819,0.037048545,-0.031444572,0.0098014325
OrientationDeg,1676592458723,29515545170530,229.0,5.0,-13.0
UncalMag,1676592458727,29515548512174,-150.7432,744.8954,400.2942,-174.57417,771.0116,430.86337
UncalGyro,1676592458731,29515553642770,0.13820826,0.16615535,-0.1516473,0.0013464554,-0.0016874648,-0.00032962635
UncalAccel,1676592458731,29515553642770,-1.0881361,2.4681966,9.813564,0.037048545,-0.031444572,0.0098014325
OrientationDeg,1676592458731,29515553642770,229.0,5.0,-13.0
UncalMag,1676592458736,29515558507943,-151.45079,745.3102,399.9282,-174.57417,771.0116,430.86337
UncalGyro,1676592458740,29515562134611,0.0954477,0.12186762,-0.16814066,0.0013464554,-0.0016874648,-0.00032962635
UncalAccel,1676592458740,29515562134611,-1.1928221,2.5106692,9.760324,0.037048545,-0.031444572,0.0098014325
OrientationDeg,1676592458740,29515562134611,229.0,5.0,-13.0
UncalMag,1676592458746,29515568512175,-150.18199,745.5176,400.3186,-174.57417,771.0116,430.86337
UncalGyro,1676592458748,29515570602832,0.049480084,0.041233405,-0.18035796,0.0013464554,-0.0016874648,-0.00032962635
UncalAccel,1676592458748,29515570602832,-1.3555341,2.5142584,9.711869,0.037048545,-0.031444572,0.0098014325
OrientationDeg,1676592458748,29515570602832,229.0,5.0,-14.0
UncalMag,1676592458756,29515578512582,-150.7188,745.237,399.8916,-174.57417,771.0116,430.86337
UncalGyro,1676592458757,29515579084105,0.00045814895,-0.055588737,-0.1872302,0.0013464554,-0.0016874648,-0.00032962635
UncalAccel,1676592458757,29515579084105,-1.5086746,2.4747767,9.772886,0.037048545,-0.031444572,0.0098014325
OrientationDeg,1676592458757,29515579084105,229.0,5.0,-13.0
UncalGyro,1676592458765,29515587565256,-0.035277467,-0.13790283,-0.18891008,0.0013464554,-0.0016874648,-0.00032962635
UncalAccel,1676592458765,29515587565256,-1.5667006,2.416751,9.887741,0.037048545,-0.031444572,0.0098014325
UncalMag,1676592458766,29515588512338,-150.7188,745.42,400.06238,-174.57417,771.0116,430.86337
OrientationDeg,1676592458765,29515587565256,230.0,5.0,-13.0
UncalGyro,1676592458774,29515596045918,-0.044898596,-0.18829921,-0.18310685,0.0013464554,-0.0016874648,-0.00032962635
UncalAccel,1676592458774,29515596045918,-1.5134603,2.3162522,9.926624,0.037048545,-0.031444572,0.0098014325
OrientationDeg,1676592458774,29515596045918,230.0,5.0,-13.0
UncalMag,1676592458776,29515598512175,-150.5846,745.7616,399.8916,-174.57417,771.0116,430.86337
UncalGyro,1676592458782,29515604528340,-0.026267206,-0.20250183,-0.16646078,0.0013464554,-0.0016874648,-0.00032962635
UncalAccel,1676592458782,29515604528340,-1.3854443,2.2354946,10.085149,0.037048545,-0.031444572,0.0098014325
OrientationDeg,1676592458782,29515604528340,230.0,5.0,-13.0
UncalMag,1676592458786,29515608522836,-151.707,746.23737,399.0742,-174.57417,771.0116,430.86337
UncalGyro,1676592458791,29515613024179,0.017562376,-0.19730948,-0.13729197,0.0013464554,-0.0016874648,-0.00032962635
UncalAccel,1676592458791,29515613024179,-1.3232309,2.1595225,10.1288185,0.037048545,-0.031444572,0.0098014325
OrientationDeg,1676592458791,29515613024179,230.0,5.0,-13.0
UncalMag,1676592458796,29515618522715,-151.90219,746.54236,400.4772,-174.57417,771.0116,430.86337
UncalGyro,1676592458799,29515621496744,0.082161374,-0.19501872,-0.0954477,0.0013464554,-0.0016874648,-0.00032962635
UncalAccel,1676592458800,29515621496744,-1.1551352,2.0691934,10.140184,0.037048545,-0.031444572,0.0098014325
OrientationDeg,1676592458799,29515621496744,230.0,5.0,-13.0
UncalMag,1676592458806,29515628522633,-151.707,746.23737,399.0742,-174.57417,771.0116,430.86337
UncalGyro,1676592458807,29515629977640,0.14828753,-0.18203785,-0.037873644,0.0013464554,-0.0016874648,-0.00032962635
UncalAccel,1676592458807,29515629977640,-0.96430755,1.96032,10.289736,0.037048545,-0.031444572,0.0098014325
OrientationDeg,1676592458807,29515629977640,230.0,5.0,-14.0
UncalGyro,1676592458816,29515638458505,0.20738874,-0.17302758,0.032070424,0.0013464554,-0.0016874648,-0.00032962635
UncalAccel,1676592458816,29515638458505,-0.80159557,1.9274186,10.305289,0.037048545,-0.031444572,0.0098014325
UncalMag,1676592458816,29515638512217,-152.3414,746.152,399.42798,-174.57417,771.0116,430.86337
OrientationDeg,1676592458816,29515638458505,230.0,5.0,-14.0
UncalGyro,1676592458824,29515646932781,0.25457808,-0.17623462,0.09789115,0.0013464554,-0.0016874648,-0.00032962635
UncalAccel,1676592458825,29515646932781,-0.7256235,1.9040886,10.3441725,0.037048545,-0.031444572,0.0098014325
UncalMag,1676592458826,29515648512258,-152.3414,746.152,399.42798,-174.57417,771.0116,430.86337
OrientationDeg,1676592458824,29515646932781,230.0,5.0,-14.0
UncalGyro,1676592458833,29515655408458,0.28787026,-0.18371773,0.14950927,0.0013464554,-0.0016874648,-0.00032962635
UncalAccel,1676592458833,29515655408458,-0.74536425,1.8939191,10.429716,0.037048545,-0.031444572,0.0098014325
OrientationDeg,1676592458833,29515655408458,230.0,5.0,-14.0
UncalMag,1676592458836,29515658508067,-151.5118,745.9934,399.48898,-174.57417,771.0116,430.86337
UncalGyro,1676592458841,29515663899719,0.31306845,-0.19318613,0.18952094,0.0013464554,-0.0016874648,-0.00032962635
UncalAccel,1676592458841,29515663899719,-0.83688974,1.8981066,10.524831,0.037048545,-0.031444572,0.0098014325
OrientationDeg,1676592458841,29515663899719,230.0,4.0,-14.0
UncalMag,1676592458846,29515668515717,-151.9144,746.2618,399.9282,-174.57417,771.0116,430.86337
UncalGyro,1676592458850,29515672380321,0.34422258,-0.23411411,0.21471913,0.0013464554,-0.0016874648,-0.00032962635
UncalAccel,1676592458850,29515672380321,-0.93679005,1.9986051,10.371092,0.037048545,-0.031444572,0.0098014325
OrientationDeg,1676592458850,29515672380321,230.0,4.0,-14.0
Fix,NLP,37.4311491000,-122.1536906000,-16.100000381469727,,68.4,,1676592439714,,,29496536000000,10.400625
UncalMag,1676592458856,29515678522797,-151.7802,745.0296,399.5134,-174.57417,771.0116,430.86337
UncalGyro,1676592458858,29515680862316,0.4016439,-0.29825497,0.21899518,0.0013464554,-0.0016874648,-0.00032962635
UncalAccel,1676592458858,29515680862316,-1.0217353,2.0793629,10.217353,0.037048545,-0.031444572,0.0098014325
OrientationDeg,1676592458858,29515680862316,229.0,4.0,-14.0
UncalMag,1676592458866,29515688522676,-152.1706,745.4688,399.9892,-174.57417,771.0116,430.86337
UncalGyro,1676592458867,29515689341452,0.4700608,-0.3454443,0.22235495,0.0013464554,-0.0016874648,-0.00032962635
UncalAccel,1676592458867,29515689341452,-1.049851,1.9405792,10.222138,0.037048545,-0.031444572,0.0098014325
OrientationDeg,1676592458867,29515689341452,229.0,4.0,-15.0
UncalGyro,1676592458875,29515697823356,0.53130007,-0.38026363,0.226631,0.0013464554,-0.0016874648,-0.00032962635
UncalAccel,1676592458875,29515697823356,-1.0630114,1.8735801,10.079765,0.037048545,-0.031444572,0.0098014325
UncalMag,1676592458876,29515698526216,-152.19499,745.0418,400.3674,-174.57417,771.0116,430.86337
OrientationDeg,1676592458875,29515697823356,229.0,4.0,-15.0
UncalGyro,1676592458884,29515706289858,0.57848936,-0.4109596,0.22602014,0.0013464554,-0.0016874648,-0.00032962635
UncalAccel,1676592458884,29515706289858,-0.9421739,1.8221345,9.980463,0.037048545,-0.031444572,0.0098014325
OrientationDeg,1676592458884,29515706289858,229.0,4.0,-15.0
UncalMag,1676592458886,29515708512219,-152.03639,744.261,400.4284,-174.57417,771.0116,430.86337
UncalGyro,1676592458892,29515714775454,0.6079636,-0.46120325,0.22983804,0.0013464554,-0.0016874648,-0.00032962635
UncalAccel,1676592458892,29515714775454,-0.79800636,1.8705891,9.866206,0.037048545,-0.031444572,0.0098014325
OrientationDeg,1676592458892,29515714775454,229.0,3.0,-16.0
UncalMag,1676592458896,29515718512382,-151.60939,744.43176,399.96478,-174.57417,771.0116,430.86337
UncalGyro,1676592458901,29515723252952,0.6241516,-0.5320636,0.24129178,0.0013464554,-0.0016874648,-0.00032962635
UncalAccel,1676592458901,29515723252952,-0.61076796,1.7425731,9.8632145,0.037048545,-0.031444572,0.0098014325
OrientationDeg,1676592458901,29515723252952,229.0,3.0,-16.0
UncalMag,1676592458906,29515728510836,-152.1828,743.6266,399.672,-174.57417,771.0116,430.86337
UncalGyro,1676592458909,29515731737785,0.6432411,-0.58291817,0.2669481,0.0013464554,-0.0016874648,-0.00032962635
UncalAccel,1676592458909,29515731737785,-0.37746778,1.7437695,10.012766,0.037048545,-0.031444572,0.0098014325
OrientationDeg,1676592458909,29515731737785,229.0,3.0,-16.0
UncalMag,1676592458916,29515738522840,-152.8904,743.90717,400.7212,-174.57417,771.0116,430.86337
UncalGyro,1676592458918,29515740215965,0.68752885,-0.56230146,0.2826779,0.0013464554,-0.0016874648,-0.00032962635
UncalAccel,1676592458918,29515740215965,-0.34516466,1.7150556,10.189836,0.037048545,-0.031444572,0.0098014325
OrientationDeg,1676592458918,29515740215965,229.0,2.0,-17.0
UncalMag,1676592458926,29515748522921,-152.9148,743.5168,399.4158,-174.57417,771.0116,430.86337
UncalGyro,1676592458926,29515748704043,0.8060367,-0.55970526,0.21594086,0.0013464554,-0.0016874648,-0.00032962635
UncalAccel,1676592458926,29515748704043,-0.53359944,1.7383857,9.783055,0.037048545,-0.031444572,0.0098014325
OrientationDeg,1676592458926,29515748704043,229.0,2.0,-17.0
UncalGyro,1676592458935,29515757188592,1.0262536,-0.625526,0.05131268,0.0013464554,-0.0016874648,-0.00032962635
UncalAccel,1676592458935,29515757188592,-0.7704889,1.6845472,9.495318,0.037048545,-0.031444572,0.0098014325
UncalMag,1676592458936,29515758512139,-152.4146,743.1264,400.526,-174.57417,771.0116,430.86337
OrientationDeg,1676592458935,29515757188592,229.0,2.0,-17.0
UncalGyro,1676592458943,29515765657444,1.3176364,-0.7298313,-0.16554448,0.0013464554,-0.0016874648,-0.00032962635
UncalAccel,1676592458943,29515765657444,-0.7465607,1.4500505,9.696914,0.037048545,-0.031444572,0.0098014325
OrientationDeg,1676592458943,29515765657444,229.0,1.0,-18.0
UncalMag,1676592458946,29515768512057,-153.78099,742.9922,399.794,-174.57417,771.0116,430.86337
UncalGyro,1676592458952,29515774130171,1.6372715,-0.84696466,-0.4260785,0.0013464554,-0.0016874648,-0.00032962635
UncalAccel,1676592458952,29515774130171,-1.1455638,1.3896317,9.995419,0.037048545,-0.031444572,0.0098014325
UncalMag,1676592458956,29515778521579,-154.1348,742.5042,401.02618,-174.57417,771.0116,430.86337
OrientationDeg,1676592458952,29515774130171,229.0,1.0,-19.0
UncalGyro,1676592458960,29515782627913,1.9297233,-1.0042624,-0.81046546,0.0013464554,-0.0016874648,-0.00032962635
UncalAccel,1676592458960,29515782627913,-1.6654046,1.5391831,10.339985,0.037048545,-0.031444572,0.0098014325
OrientationDeg,1676592458960,29515782627913,229.0,1.0,-20.0
UncalMag,1676592458966,29515788522719,-153.964,741.78436,400.3674,-174.57417,771.0116,430.86337
UncalGyro,1676592458969,29515791107903,2.13925,-1.190729,-1.1586586,0.0013464554,-0.0016874648,-0.00032962635
UncalAccel,1676592458969,29515791107903,-0.5557331,0.6729814,10.90529,0.037048545,-0.031444572,0.0098014325
OrientationDeg,1676592458970,29515791107903,230.0,0.0,-21.0
UncalMag,1676592458976,29515798522719,-154.3788,741.7966,400.9774,-174.57417,771.0116,430.86337
UncalGyro,1676592458977,29515799589074,2.2666154,-1.3414601,-1.2942708,0.0013464554,-0.0016874648,-0.00032962635
UncalAccel,1676592458977,29515799589074,0.47377887,0.09451649,11.176874,0.037048545,-0.031444572,0.0098014325
OrientationDeg,1676592458977,29515799589074,231.0,0.0,-22.0
UncalGyro,1676592458986,29515808059595,2.3130412,-1.539075,-1.2826643,0.0013464554,-0.0016874648,-0.00032962635
UncalAccel,1676592458986,29515808059595,0.6155536,0.14895321,10.73839,0.037048545,-0.031444572,0.0098014325
OrientationDeg,1676592458986,29515808059595,231.0,0.0,-23.0
UncalMag,1676592458986,29515808522841,-154.3178,741.1866,401.07498,-174.57417,771.0116,430.86337
UncalGyro,1676592458994,29515816550115,2.293188,-1.7599027,-1.2162327,0.0013464554,-0.0016874648,-0.00032962635
UncalAccel,1676592458994,29515816550115,0.36550367,0.3493521,10.096515,0.037048545,-0.031444572,0.0098014325
OrientationDeg,1676592458994,29515816550115,232.0,0.0,-24.0
UncalMag,1676592458996,29515818512303,-154.0128,741.1256,401.5386,-174.57417,771.0116,430.86337
UncalGyro,1676592459003,29515825025925,2.2403483,-1.9883664,-1.1592696,0.0013464554,-0.0016874648,-0.00032962635
UncalAccel,1676592459003,29515825025925,0.503091,0.5288138,9.49472,0.037048545,-0.031444572,0.0098014325
OrientationDeg,1676592459003,29515825025925,233.0,-1.0,-25.0
UncalMag,1676592459006,29515828518488,-154.57399,740.51556,402.13638,-174.57417,771.0116,430.86337
UncalGyro,1676592459011,29515833499873,2.1626158,-2.228589,-1.1339186,0.0013464554,-0.0016874648,-0.00032962635
UncalAccel,1676592459011,29515833499873,0.88295156,0.6801598,9.129216,0.037048545,-0.031444572,0.0098014325
OrientationDeg,1676592459011,29515833499873,233.0,-2.0,-26.0
UncalMag,1676592459016,29515838512344,-155.2328,739.97876,401.8924,-174.57417,771.0116,430.86337
UncalGyro,1676592459019,29515841989436,2.079538,-2.3860397,-1.1672108,0.0013464554,-0.0016874648,-0.00032962635
UncalAccel,1676592459019,29515841989436,1.2472588,1.0606186,9.372686,0.037048545,-0.031444572,0.0098014325
OrientationDeg,1676592459019,29515841989436,234.0,-3.0,-27.0
UncalMag,1676592459026,29515848522924,-155.6476,739.9544,401.5386,-174.57417,771.0116,430.86337
UncalGyro,1676592459028,29515850462692,1.9929478,-2.3661866,-1.2928963,0.0013464554,-0.0016874648,-0.00032962635
UncalAccel,1676592459028,29515850462692,1.5684953,1.8424734,9.957731,0.037048545,-0.031444572,0.0098014325
OrientationDeg,1676592459028,29515850462692,235.0,-3.0,-28.0
UncalMag,1676592459036,29515858512141,-156.0258,739.015,402.417,-174.57417,771.0116,430.86337
UncalGyro,1676592459036,29515858948105,1.8756617,-2.225535,-1.5118915,0.0013464554,-0.0016874648,-0.00032962635
UncalAccel,1676592459036,29515858948105,1.8406788,2.452045,10.281361,0.037048545,-0.031444572,0.0098014325
OrientationDeg,1676592459036,29515858948105,235.0,-4.0,-29.0
UncalGyro,1676592459045,29515867433559,1.6789632,-2.0544925,-1.723709,0.0013464554,-0.0016874648,-0.00032962635
UncalAccel,1676592459045,29515867433559,2.1631117,2.3670998,10.70848,0.037048545,-0.031444572,0.0098014325
UncalMag,1676592459046,29515868512345,-155.5134,738.6856,402.6854,-174.57417,771.0116,430.86337
OrientationDeg,1676592459045,29515867433559,236.0,-5.0,-30.0
UncalGyro,1676592459053,29515875917049,1.3405437,-1.841606,-1.8315268,0.0013464554,-0.0016874648,-0.00032962635
UncalAccel,1676592459053,29515875917049,2.1212373,2.3132613,11.190634,0.037048545,-0.031444572,0.0098014325
OrientationDeg,1676592459053,29515875917049,237.0,-5.0,-31.0
UncalMag,1676592459056,29515878522884,-156.2576,738.5758,402.3194,-174.57417,771.0116,430.86337
UncalGyro,1676592459062,29515884384039,0.9230174,-1.6969837,-1.8643607,0.0013464554,-0.0016874648,-0.00032962635
UncalAccel,1676592459062,29515884384039,1.39023,2.4340987,10.421341,0.037048545,-0.031444572,0.0098014325
OrientationDeg,1676592459062,29515884384039,238.0,-5.0,-31.0
UncalMag,1676592459066,29515888522925,-155.7086,739.02716,402.4048,-174.57417,771.0116,430.86337
UncalGyro,1676592459070,29515892874905,0.4886922,-1.7965547,-1.8785634,0.0013464554,-0.0016874648,-0.00032962635
UncalAccel,1676592459070,29515892874905,0.9762716,2.6398816,9.281759,0.037048545,-0.031444572,0.0098014325
OrientationDeg,1676592459070,29515892874905,239.0,-6.0,-32.0
UncalMag,1676592459076,29515898522722,-155.95259,740.174,402.92938,-174.57417,771.0116,430.86337
UncalGyro,1676592459079,29515901354824,0.032986723,-2.1777346,-1.93797,0.0013464554,-0.0016874648,-0.00032962635
UncalAccel,1676592459079,29515901354824,1.0277174,2.9910283,8.617152,0.037048545,-0.031444572,0.0098014325
OrientationDeg,1676592459079,29515901354824,240.0,-6.0,-32.0
UncalMag,1676592459086,29515908522803,-156.0624,739.97876,402.5268,-174.57417,771.0116,430.86337
UncalGyro,1676592459087,29515909836768,-0.46777007,-2.8134925,-2.1138992,0.0013464554,-0.0016874648,-0.00032962635
UncalAccel,1676592459087,29515909836768,1.055833,3.2787652,8.439486,0.037048545,-0.031444572,0.0098014325
OrientationDeg,1676592459087,29515909836768,242.0,-7.0,-32.0
UncalGyro,1676592459096,29515918307320,-1.0027353,-3.5431712,-2.475226,0.0013464554,-0.0016874648,-0.00032962635
UncalAccel,1676592459096,29515918307320,0.7148558,3.6634114,9.050852,0.037048545,-0.031444572,0.0098014325
OrientationDeg,1676592459096,29515918307320,243.0,-8.0,-31.0
UncalMag,1676592459096,29515918522559,-156.26979,740.113,401.3556,-174.57417,771.0116,430.86337
UncalGyro,1676592459104,29515926797055,-1.5209018,-4.1405973,-3.0483704,0.0013464554,-0.0016874648,-0.00032962635
UncalAccel,1676592459104,29515926797055,0.02871387,4.2131624,10.217951,0.037048545,-0.031444572,0.0098014325
UncalMag,1676592459107,29515928522763,-156.709,741.2964,400.44058,-174.57417,771.0116,430.86337
OrientationDeg,1676592459104,29515926797055,245.0,-9.0,-31.0
UncalGyro,1676592459113,29515935275582,-1.9495764,-4.4959683,-3.717726,0.0013464554,-0.0016874648,-0.00032962635
UncalAccel,1676592459113,29515935275582,-0.3290131,4.5732822,11.063215,0.037048545,-0.031444572,0.0098014325
OrientationDeg,1676592459113,29515935275582,247.0,-10.0,-30.0
UncalMag,1676592459116,29515938516090,-157.17259,742.187,398.5984,-174.57417,771.0116,430.86337
UncalGyro,1676592459121,29515943748481,-2.2128594,-4.7100763,-4.300644,0.0013464554,-0.0016874648,-0.00032962635
UncalAccel,1676592459121,29515943748481,-0.13160525,4.5266223,10.974083,0.037048545,-0.031444572,0.0098014325
OrientationDeg,1676592459121,29515943748481,250.0,-11.0,-30.0
UncalMag,1676592459126,29515948524188,-157.37999,743.8828,396.9514,-174.57417,771.0116,430.86337
UncalGyro,1676592459130,29515952241930,-2.312125,-4.9162436,-4.588667,0.0013464554,-0.0016874648,-0.00032962635
UncalAccel,1676592459130,29515952241930,1.1132607,3.6634114,10.77189,0.037048545,-0.031444572,0.0098014325
OrientationDeg,1676592459130,29515952241930,253.0,-12.0,-29.0
UncalMag,1676592459136,29515958517515,-158.0022,745.6762,396.195,-174.57417,771.0116,430.86337
UncalGyro,1676592459138,29515960710599,-2.3183863,-5.0094004,-4.4881797,0.0013464554,-0.0016874648,-0.00032962635
UncalAccel,1676592459138,29515960710599,2.3347967,2.6638098,11.180464,0.037048545,-0.031444572,0.0098014325
OrientationDeg,1676592459138,29515960710599,255.0,-13.0,-28.0
UncalMag,1676592459146,29515968522601,-159.2222,747.86,394.3162,-174.57417,771.0116,430.86337
UncalGyro,1676592459147,29515969197904,-2.2240076,-4.9267807,-4.1395283,0.0013464554,-0.0016874648,-0.00032962635
UncalAccel,1676592459147,29515969197904,2.3754747,2.5208387,10.93819,0.037048545,-0.031444572,0.0098014325
OrientationDeg,1676592459147,29515969197904,258.0,-14.0,-28.0
UncalGyro,1676592459155,29515977682331,-2.0037906,-4.789489,-3.701996,0.0013464554,-0.0016874648,-0.00032962635
UncalAccel,1676592459155,29515977682331,2.2576282,2.838486,9.8524475,0.037048545,-0.031444572,0.0098014325
OrientationDeg,1676592459155,29515977682331,260.0,-15.0,-27.0
UncalMag,1676592459157,29515978511493,-159.8078,748.6042,393.3036,-174.57417,771.0116,430.86337
UncalGyro,1676592459164,29515986164255,-1.6878207,-4.6239443,-3.199254,0.0013464554,-0.0016874648,-0.00032962635
UncalAccel,1676592459164,29515986164255,2.6039891,2.7649066,9.053245,0.037048545,-0.031444572,0.0098014325
OrientationDeg,1676592459164,29515986164255,262.0,-17.0,-27.0
UncalMag,1676592459166,29515988514342,-161.06439,750.2024,392.2666,-174.57417,771.0116,430.86337
UncalGyro,1676592459172,29515994657439,-1.3170254,-4.3114867,-2.5879307,0.0013464554,-0.0016874648,-0.00032962635
UncalAccel,1676592459172,29515994657439,3.0693932,2.5094728,9.028718,0.037048545,-0.031444572,0.0098014325
OrientationDeg,1676592459172,29515994657439,264.0,-18.0,-27.0
UncalMag,1676592459176,29515998522927,-162.4796,750.9222,391.1442,-174.57417,771.0116,430.86337
UncalGyro,1676592459181,29516003115305,-0.8950703,-3.7911825,-1.8558086,0.0013464554,-0.0016874648,-0.00032962635
UncalAccel,1676592459181,29516003115305,3.2775688,2.5387847,9.282955,0.037048545,-0.031444572,0.0098014325
OrientationDeg,1676592459181,29516003115305,265.0,-19.0,-27.0
UncalMag,1676592459186,29516008512186,-163.8826,751.8616,391.1564,-174.57417,771.0116,430.86337
UncalGyro,1676592459189,29516011603881,-0.48487428,-2.9907963,-1.127199,0.0013464554,-0.0016874648,-0.00032962635
UncalAccel,1676592459189,29516011603881,2.5112674,3.385844,10.137193,0.037048545,-0.031444572,0.0098014325
OrientationDeg,1676592459189,29516011603881,265.0,-21.0,-27.0
UncalMag,1676592459196,29516018522643,-165.0294,751.886,390.10718,-174.57417,771.0116,430.86337
UncalGyro,1676592459198,29516020080606,-0.14492778,-2.0289888,-0.600786,0.0013464554,-0.0016874648,-0.00032962635
UncalAccel,1676592459198,29516020080606,1.5260227,4.404588,10.040284,0.037048545,-0.031444572,0.0098014325
OrientationDeg,1676592459198,29516020080606,266.0,-21.0,-27.0
UncalMag,1676592459206,29516028523050,-165.6394,752.2154,389.8388,-174.57417,771.0116,430.86337
UncalGyro,1676592459206,29516028550740,0.079870634,-1.091158,-0.31627548,0.0013464554,-0.0016874648,-0.00032962635
UncalAccel,1676592459206,29516028550740,0.8033902,4.60738,9.290133,0.037048545,-0.031444572,0.0098014325
OrientationDeg,1676592459206,29516028550740,266.0,-22.0,-27.0
UncalGyro,1676592459215,29516037041636,0.14920384,-0.31490102,-0.20097467,0.0013464554,-0.0016874648,-0.00032962635
UncalAccel,1676592459215,29516037041636,0.25244278,4.2508492,8.4197445,0.037048545,-0.031444572,0.0098014325
UncalMag,1676592459216,29516038512227,-165.737,752.4106,390.3634,-174.57417,771.0116,430.86337
OrientationDeg,1676592459215,29516037041636,266.0,-22.0,-27.0
UncalGyro,1676592459223,29516045528850,0.042913284,0.26190847,-0.1965459,0.0013464554,-0.0016874648,-0.00032962635
UncalAccel,1676592459223,29516045528850,-0.2015953,3.9948175,7.893324,0.037048545,-0.031444572,0.0098014325
OrientationDeg,1676592459223,29516045528850,266.0,-22.0,-27.0
UncalMag,1676592459226,29516048522969,-165.8346,752.4106,390.37558,-174.57417,771.0116,430.86337
UncalGyro,1676592459232,29516054006164,-0.20830505,0.6385069,-0.24862215,0.0013464554,-0.0016874648,-0.00032962635
UncalAccel,1676592459232,29516054006164,-0.7429714,3.8584266,7.499106,0.037048545,-0.031444572,0.0098014325
OrientationDeg,1676592459232,29516054006164,266.0,-21.0,-27.0
UncalMag,1676592459236,29516058513570,-165.3466,751.7762,389.607,-174.57417,771.0116,430.86337
UncalGyro,1676592459240,29516062475912,-0.6290385,0.5821546,-0.36086863,0.0013464554,-0.0016874648,-0.00032962635
UncalAccel,1676592459240,29516062475912,-1.6402799,4.290331,6.3074803,0.037048545,-0.031444572,0.0098014325
OrientationDeg,1676592459240,29516062475912,266.0,-21.0,-27.0
UncalMag,1676592459246,29516068522604,-165.0172,752.069,390.1438,-174.57417,771.0116,430.86337
UncalGyro,1676592459248,29516070967632,-1.0201449,0.46685377,-0.47647488,0.0013464554,-0.0016874648,-0.00032962635
UncalAccel,1676592459248,29516070967632,-1.4650056,3.8069808,6.8404818,0.037048545,-0.031444572,0.0098014325
OrientationDeg,1676592459248,29516070967632,267.0,-20.0,-26.0
UncalMag,1676592459256,29516078522645,-164.3218,753.0938,389.1678,-174.57417,771.0116,430.86337
UncalGyro,1676592459257,29516079446727,-1.3238977,0.47448957,-0.5131268,0.0013464554,-0.0016874648,-0.00032962635
UncalAccel,1676592459257,29516079446727,-1.4129617,4.0552363,7.3788667,0.037048545,-0.031444572,0.0098014325
OrientationDeg,1676592459257,29516079446727,267.0,-20.0,-26.0
UncalGyro,1676592459265,29516087917726,-1.599856,0.5852089,-0.51159966,0.0013464554,-0.0016874648,-0.00032962635
UncalAccel,1676592459265,29516087917726,-1.599602,4.1778684,7.978867,0.037048545,-0.031444572,0.0098014325
UncalMag,1676592459266,29516088518617,-164.9074,753.86237,389.119,-174.57417,771.0116,430.86337
OrientationDeg,1676592459265,29516087917726,268.0,-19.0,-25.0
UncalGyro,1676592459274,29516096399873,-1.8466456,0.72127914,-0.4428773,0.0013464554,-0.0016874648,-0.00032962635
UncalAccel,1676592459274,29516096399873,-1.6133606,4.1383867,8.518449,0.037048545,-0.031444572,0.0098014325
OrientationDeg,1676592459274,29516096399873,269.0,-19.0,-24.0
UncalMag,1676592459276,29516098522889,-164.5658,754.326,389.8266,-174.57417,771.0116,430.86337
UncalGyro,1676592459282,29516104889783,-2.0546453,0.8232936,-0.2742785,0.0013464554,-0.0016874648,-0.00032962635
UncalAccel,1676592459282,29516104889783,-1.719243,3.792624,8.839087,0.037048545,-0.031444572,0.0098014325
OrientationDeg,1676592459282,29516104889783,269.0,-18.0,-23.0
UncalMag,1676592459286,29516108522971,-164.09,755.363,388.9726,-174.57417,771.0116,430.86337
UncalGyro,1676592459291,29516113368034,-2.2226331,0.8709411,-0.04352415,0.0013464554,-0.0016874648,-0.00032962635
UncalAccel,1676592459291,29516113368034,-1.9627128,3.4313076,9.077771,0.037048545,-0.031444572,0.0098014325
OrientationDeg,1676592459291,29516113368034,269.0,-18.0,-22.0
UncalMag,1676592459296,29516118519879,-163.6264,756.07056,389.0092,-174.57417,771.0116,430.86337
UncalGyro,1676592459299,29516121848238,-2.3703098,0.86574876,0.21533,0.0013464554,-0.0016874648,-0.00032962635
UncalAccel,1676592459299,29516121848238,-2.1870399,3.0705895,9.230911,0.037048545,-0.031444572,0.0098014325
OrientationDeg,1676592459299,29516121848238,270.0,-17.0,-21.0
UncalMag,1676592459306,29516128522971,-163.26039,756.9124,387.7526,-174.57417,771.0116,430.86337
UncalGyro,1676592459308,29516130324760,-2.3330472,1.1505647,0.5308419,0.0013464554,-0.0016874648,-0.00032962635
UncalAccel,1676592459308,29516130324760,-2.6739793,1.5864414,15.268601,0.037048545,-0.031444572,0.0098014325
OrientationDeg,1676592459308,29516130324760,270.0,-16.0,-20.0
UncalMag,1676592459316,29516138522850,-162.7602,758.2544,388.5456,-174.57417,771.0116,430.86337
UncalGyro,1676592459316,29516138812227,-0.8749117,2.732553,1.263422,0.0013464554,-0.0016874648,-0.00032962635
UncalAccel,1676592459316,29516138812227,-4.258626,-2.6350958,19.074387,0.037048545,-0.031444572,0.0098014325
OrientationDeg,1676592459316,29516138812227,269.0,-15.0,-19.0
UncalGyro,1676592459325,29516147292870,1.2092078,1.681712,2.2514966,0.0013464554,-0.0016874648,-0.00032962635
UncalAccel,1676592459325,29516147292870,-8.446664,2.71047,9.384052,0.037048545,-0.031444572,0.0098014325
UncalMag,1676592459326,29516148512270,-161.9306,758.1568,387.899,-174.57417,771.0116,430.86337
OrientationDeg,1676592459325,29516147292870,268.0,-15.0,-20.0
UncalGyro,1676592459333,29516155771823,0.9680687,1.943315,2.2015584,0.0013464554,-0.0016874648,-0.00032962635
UncalAccel,1676592459333,29516155771823,-3.1136606,6.332007,17.637495,0.037048545,-0.031444572,0.0098014325
OrientationDeg,1676592459333,29516155771823,267.0,-14.0,-20.0
UncalMag,1676592459336,29516158503889,-161.56459,757.315,388.5334,-174.57417,771.0116,430.86337
UncalGyro,1676592459342,29516164253431,0.3622431,1.5609134,2.098933,0.0013464554,-0.0016874648,-0.00032962635
UncalAccel,1676592459342,29516164253431,1.3591232,3.0993035,5.1200423,0.037048545,-0.031444572,0.0098014325
OrientationDeg,1676592459342,29516164253431,266.0,-14.0,-20.0
UncalMag,1676592459347,29516168525007,-160.47879,756.2414,389.7046,-174.57417,771.0116,430.86337
UncalGyro,1676592459350,29516172733005,-0.20143281,0.5934556,2.0690005,0.0013464554,-0.0016874648,-0.00032962635
UncalAccel,1676592459350,29516172733005,3.0005996,3.158526,4.328616,0.037048545,-0.031444572,0.0098014325
OrientationDeg,1676592459350,29516172733005,265.0,-14.0,-19.0
UncalMag,1676592459356,29516178522851,-160.47879,756.2414,389.7046,-174.57417,771.0116,430.86337
UncalGyro,1676592459359,29516181215589,-0.89980453,0.05787948,1.9601139,0.0013464554,-0.0016874648,-0.00032962635
UncalAccel,1676592459359,29516181215589,3.2434711,2.6482565,6.7429743,0.037048545,-0.031444572,0.0098014325
OrientationDeg,1676592459359,29516181215589,264.0,-14.0,-19.0
UncalMag,1676592459366,29516188522607,-160.7838,756.3146,389.729,-174.57417,771.0116,430.86337
UncalGyro,1676592459367,29516189695469,-1.5596917,-0.14065172,1.8819231,0.0013464554,-0.0016874648,-0.00032962635
UncalAccel,1676592459367,29516189695469,3.1980073,1.4644074,7.225726,0.037048545,-0.031444572,0.0098014325
OrientationDeg,1676592459367,29516189695469,263.0,-15.0,-18.0
UncalGyro,1676592459376,29516198166020,-1.9339994,0.08597928,1.8365663,0.0013464554,-0.0016874648,-0.00032962635
UncalAccel,1676592459376,29516198166020,4.490132,0.8470592,11.389835,0.037048545,-0.031444572,0.0098014325
UncalMag,1676592459376,29516198512068,-161.6744,757.24176,389.241,-174.57417,771.0116,430.86337
OrientationDeg,1676592459376,29516198166020,262.0,-15.0,-17.0
UncalGyro,1676592459384,29516206644861,-1.9216293,0.061391957,1.7910569,0.0013464554,-0.0016874648,-0.00032962635
UncalAccel,1676592459384,29516206644861,2.455036,1.6797615,7.320243,0.037048545,-0.031444572,0.0098014325
OrientationDeg,1676592459384,29516206644861,262.0,-15.0,-15.0
UncalMag,1676592459386,29516208512475,-161.54019,757.5956,389.0824,-174.57417,771.0116,430.86337
UncalGyro,1676592459393,29516215137455,-1.7527251,-0.07727446,1.8099937,0.0013464554,-0.0016874648,-0.00032962635
UncalAccel,1676592459393,29516215137455,1.8275183,1.3459628,9.604192,0.037048545,-0.031444572,0.0098014325
OrientationDeg,1676592459393,29516215137455,261.0,-15.0,-14.0
UncalMag,1676592459396,29516218522770,-162.5284,758.52277,388.9726,-174.57417,771.0116,430.86337
UncalGyro,1676592459401,29516223613683,-1.6125315,-0.20754147,1.7794504,0.0013464554,-0.0016874648,-0.00032962635
UncalAccel,1676592459401,29516223613683,1.7682959,1.0145568,10.039685,0.037048545,-0.031444572,0.0098014325
OrientationDeg,1676592459401,29516223613683,260.0,-15.0,-13.0
UncalMag,1676592459406,29516228520858,-161.8696,759.0596,388.7164,-174.57417,771.0116,430.86337
UncalGyro,1676592459410,29516232095727,-1.6003143,-0.17119499,1.6027577,0.0013464554,-0.0016874648,-0.00032962635
UncalAccel,1676592459410,29516232095727,0.8775677,-0.7369894,11.441879,0.037048545,-0.031444572,0.0098014325
OrientationDeg,1676592459410,29516232095727,260.0,-16.0,-12.0
UncalMag,1676592459416,29516238522649,-162.382,759.206,388.0332,-174.57417,771.0116,430.86337
UncalGyro,1676592459418,29516240579777,-1.536937,0.10216721,1.225243,0.0013464554,-0.0016874648,-0.00032962635
UncalAccel,1676592459418,29516240579777,1.012164,-0.08015956,11.515459,0.037048545,-0.031444572,0.0098014325
OrientationDeg,1676592459418,29516240579777,260.0,-16.0,-12.0
UncalMag,1676592459426,29516248522608,-162.138,759.90137,387.83798,-174.57417,771.0116,430.86337
UncalGyro,1676592459427,29516249060063,-1.1633929,0.5309946,0.8063421,0.0013464554,-0.0016874648,-0.00032962635
UncalAccel,1676592459427,29516249060063,1.797608,1.899303,11.252847,0.037048545,-0.031444572,0.0098014325
OrientationDeg,1676592459427,29516249060063,259.0,-15.0,-11.0
UncalGyro,1676592459435,29516257535548,-0.7779369,1.1200215,0.4370741,0.0013464554,-0.0016874648,-0.00032962635
UncalAccel,1676592459435,29516257535548,0.30089745,2.9856443,11.762518,0.037048545,-0.031444572,0.0098014325
UncalMag,1676592459436,29516258512355,-161.894,760.4382,388.31378,-174.57417,771.0116,430.86337
OrientationDeg,1676592459435,29516257535548,259.0,-15.0,-11.0
UncalGyro,1676592459444,29516266022690,-0.6560693,1.496009,0.093767814,0.0013464554,-0.0016874648,-0.00032962635
UncalAccel,1676592459444,29516266022690,-0.15493527,2.8205397,11.416755,0.037048545,-0.031444572,0.0098014325
OrientationDeg,1676592459444,29516266022690,259.0,-14.0,-10.0
UncalMag,1676592459446,29516268522609,-161.4548,760.6944,388.0088,-174.57417,771.0116,430.86337
UncalGyro,1676592459452,29516274505580,-0.8544478,1.4828753,-0.257327,0.0013464554,-0.0016874648,-0.00032962635
UncalAccel,1676592459452,29516274505580,0.44745782,2.2319052,10.573883,0.037048545,-0.031444572,0.0098014325
OrientationDeg,1676592459453,29516274505580,260.0,-13.0,-10.0
UncalMag,1676592459456,29516278522975,-160.61299,760.8164,388.2528,-174.57417,771.0116,430.86337
UncalGyro,1676592459460,29516282979670,-1.1928672,1.3660474,-0.58123827,0.0013464554,-0.0016874648,-0.00032962635
UncalAccel,1676592459460,29516282979670,1.0348958,1.5613167,9.879965,0.037048545,-0.031444572,0.0098014325
OrientationDeg,1676592459460,29516282979670,260.0,-13.0,-9.0
UncalMag,1676592459466,29516288522691,-159.637,761.3288,387.63058,-174.57417,771.0116,430.86337
UncalGyro,1676592459469,29516291462113,-1.4488196,1.4391985,-0.8772025,0.0013464554,-0.0016874648,-0.00032962635
UncalAccel,1676592459469,29516291462113,1.466202,1.052842,8.906684,0.037048545,-0.031444572,0.0098014325
OrientationDeg,1676592459469,29516291462113,261.0,-12.0,-9.0
UncalMag,1676592459476,29516298522691,-158.8684,761.9754,388.0088,-174.57417,771.0116,430.86337
UncalGyro,1676592459477,29516299940762,-1.5004377,1.5143349,-1.1000156,0.0013464554,-0.0016874648,-0.00032962635
UncalAccel,1676592459477,29516299940762,3.7393837,1.2628121,6.628717,0.037048545,-0.031444572,0.0098014325
OrientationDeg,1676592459477,29516299940762,261.0,-11.0,-8.0
UncalGyro,1676592459486,29516308423357,-1.259146,1.3952162,-0.8229882,0.0013464554,-0.0016874648,-0.00032962635
UncalAccel,1676592459486,29516308423357,8.635098,2.5680969,3.417549,0.037048545,-0.031444572,0.0098014325
UncalMag,1676592459486,29516308514757,-158.5146,762.75616,387.7038,-174.57417,771.0116,430.86337
OrientationDeg,1676592459486,29516308423357,262.0,-10.0,-8.0
UncalGyro,1676592459494,29516316904324,-0.7834347,1.161713,-0.111941054,0.0013464554,-0.0016874648,-0.00032962635
UncalAccel,1676592459494,29516316904324,9.84826,2.1649063,2.658426,0.037048545,-0.031444572,0.0098014325
UncalMag,1676592459496,29516318512519,-157.53859,763.2442,388.99698,-174.57417,771.0116,430.86337
OrientationDeg,1676592459494,29516316904324,262.0,-10.0,-7.0
UncalGyro,1676592459503,29516325384823,-0.36667186,1.1447614,0.53985214,0.0013464554,-0.0016874648,-0.00032962635
UncalAccel,1676592459503,29516325384823,9.900902,0.9284152,6.0777693,0.037048545,-0.031444572,0.0098014325
OrientationDeg,1676592459503,29516325384823,262.0,-9.0,-7.0
UncalMag,1676592459506,29516328515001,-157.4166,763.6834,388.8628,-174.57417,771.0116,430.86337
UncalGyro,1676592459511,29516333864601,-0.12156218,1.0870347,0.96883225,0.0013464554,-0.0016874648,-0.00032962635
UncalAccel,1676592459511,29516333864601,8.478967,0.5665008,5.235496,0.037048545,-0.031444572,0.0098014325
OrientationDeg,1676592459511,29516333864601,261.0,-9.0,-7.0
UncalMag,1676592459516,29516338511990,-157.33119,763.2198,388.143,-174.57417,771.0116,430.86337
UncalGyro,1676592459520,29516342335395,0.096516706,0.7492262,1.1785117,0.0013464554,-0.0016874648,-0.00032962635
UncalAccel,1676592459520,29516342335395,6.5838513,1.8855443,5.7559347,0.037048545,-0.031444572,0.0098014325
OrientationDeg,1676592459520,29516342335395,261.0,-8.0,-7.0
UncalMag,1676592459526,29516348522692,-157.1238,763.232,388.387,-174.57417,771.0116,430.86337
UncalGyro,1676592459528,29516350835579,0.34666604,0.4036292,1.1867584,0.0013464554,-0.0016874648,-0.00032962635
UncalAccel,1676592459528,29516350835579,5.011767,3.5216367,6.9355965,0.037048545,-0.031444572,0.0098014325
OrientationDeg,1676592459528,29516350835579,260.0,-8.0,-7.0
UncalMag,1676592459536,29516358522896,-157.2702,762.53656,388.3382,-174.57417,771.0116,430.86337
UncalGyro,1676592459538,29516359303830,0.65011334,0.25992316,1.0094548,0.0013464554,-0.0016874648,-0.00032962635
UncalAccel,1676592459537,29516359303830,3.577868,5.1619167,8.8701935,0.037048545,-0.031444572,0.0098014325
OrientationDeg,1676592459537,29516359303830,259.0,-8.0,-7.0
UncalGyro,1676592459545,29516367785439,0.93935806,0.2874121,0.6713409,0.0013464554,-0.0016874648,-0.00032962635
UncalAccel,1676592459545,29516367785439,2.6470602,5.7924256,9.452846,0.037048545,-0.031444572,0.0098014325
UncalMag,1676592459546,29516368509306,-156.6602,762.4024,389.26538,-174.57417,771.0116,430.86337
OrientationDeg,1676592459545,29516367785439,259.0,-8.0,-8.0
UncalGyro,1676592459554,29516376271289,1.1163563,0.37400225,0.2649628,0.0013464554,-0.0016874648,-0.00032962635
UncalAccel,1676592459554,29516376271289,2.565704,6.1357956,9.81835,0.037048545,-0.031444572,0.0098014325
UncalMag,1676592459556,29516378522937,-157.19699,762.12177,388.8506,-174.57417,771.0116,430.86337
OrientationDeg,1676592459554,29516376271289,259.0,-8.0,-8.0
UncalGyro,1676592459562,29516384751738,1.1566733,0.5505423,-0.12996158,0.0013464554,-0.0016874648,-0.00032962635
UncalAccel,1676592459562,29516384751738,2.8103702,6.155536,10.402198,0.037048545,-0.031444572,0.0098014325
OrientationDeg,1676592459562,29516384751738,259.0,-8.0,-9.0
UncalMag,1676592459566,29516388522734,-156.6358,761.0116,389.53378,-174.57417,771.0116,430.86337
UncalGyro,1676592459571,29516393218728,1.065349,0.7425067,-0.44608435,0.0013464554,-0.0016874648,-0.00032962635
UncalAccel,1676592459571,29516393218728,3.1962128,5.468198,10.40818,0.037048545,-0.031444572,0.0098014325
OrientationDeg,1676592459571,29516393218728,259.0,-7.0,-9.0
UncalMag,1676592459576,29516398535145,-156.5382,760.9384,389.63138,-174.57417,771.0116,430.86337
UncalGyro,1676592459579,29516401710519,0.84956086,0.8622363,-0.6391178,0.0013464554,-0.0016874648,-0.00032962635
UncalAccel,1676592459579,29516401710519,3.4719856,4.536792,10.0372925,0.037048545,-0.031444572,0.0098014325
OrientationDeg,1676592459579,29516401710519,259.0,-7.0,-10.0
UncalMag,1676592459586,29516408522694,-155.7086,760.8896,390.4488,-174.57417,771.0116,430.86337
UncalGyro,1676592459588,29516410189279,0.56230146,0.9062186,-0.6986771,0.0013464554,-0.0016874648,-0.00032962635
UncalAccel,1676592459588,29516410189279,3.4743786,3.612564,9.755538,0.037048545,-0.031444572,0.0098014325
OrientationDeg,1676592459588,29516410189279,260.0,-6.0,-10.0
UncalMag,1676592459596,29516418523955,-154.9888,760.63336,390.37558,-174.57417,771.0116,430.86337
UncalGyro,1676592459596,29516418669788,0.2554944,0.88697636,-0.6462954,0.0013464554,-0.0016874648,-0.00032962635
UncalAccel,1676592459596,29516418669788,3.2362926,2.8929226,9.419347,0.037048545,-0.031444572,0.0098014325
OrientationDeg,1676592459596,29516418669788,260.0,-6.0,-10.0
UncalGyro,1676592459605,29516427152242,-0.022143865,0.8405506,-0.5161811,0.0013464554,-0.0016874648,-0.00032962635
UncalAccel,1676592459605,29516427152242,2.78046,2.4065814,9.332606,0.037048545,-0.031444572,0.0098014325
UncalMag,1676592459606,29516428508453,-154.3788,760.2918,390.27798,-174.57417,771.0116,430.86337
OrientationDeg,1676592459605,29516427152242,260.0,-6.0,-10.0
UncalGyro,1676592459613,29516435629639,-0.23335053,0.81336707,-0.3567453,0.0013464554,-0.0016874648,-0.00032962635
UncalAccel,1676592459613,29516435629639,2.2695923,2.0823538,9.431311,0.037048545,-0.031444572,0.0098014325
OrientationDeg,1676592459613,29516435629639,260.0,-5.0,-10.0
UncalMag,1676592459616,29516438522816,-154.3666,760.4504,389.7046,-174.57417,771.0116,430.86337
UncalGyro,1676592459622,29516444112477,-0.35934147,0.81321436,-0.19639318,0.0013464554,-0.0016874648,-0.00032962635
UncalAccel,1676592459622,29516444112477,1.797608,1.7868403,9.472587,0.037048545,-0.031444572,0.0098014325
OrientationDeg,1676592459622,29516444112477,260.0,-5.0,-10.0
UncalMag,1676592459626,29516448512115,-153.7322,760.6944,391.32718,-174.57417,771.0116,430.86337
UncalGyro,1676592459630,29516452596395,-0.3831652,0.816116,-0.04550946,0.0013464554,-0.0016874648,-0.00032962635
UncalAccel,1676592459630,29516452596395,1.4249259,1.6073786,9.524033,0.037048545,-0.031444572,0.0098014325
OrientationDeg,1676592459630,29516452596395,260.0,-4.0,-10.0
UncalMag,1676592459636,29516458529409,-153.232,760.243,390.59518,-174.57417,771.0116,430.86337
UncalGyro,1676592459639,29516461077382,-0.32268956,0.8349001,0.07315111,0.0013464554,-0.0016874648,-0.00032962635
UncalAccel,1676592459639,29516461077382,1.1090733,1.5481563,9.57488,0.037048545,-0.031444572,0.0098014325
OrientationDeg,1676592459639,29516461077382,260.0,-4.0,-10.0
UncalMag,1676592459646,29516468528392,-152.7196,760.30396,392.291,-174.57417,771.0116,430.86337
UncalGyro,1676592459647,29516469553212,-0.2049453,0.86269444,0.15790866,0.0013464554,-0.0016874648,-0.00032962635
UncalAccel,1676592459647,29516469553212,0.8219346,1.6995022,9.519845,0.037048545,-0.031444572,0.0098014325
OrientationDeg,1676592459647,29516469553212,260.0,-4.0,-10.0
UncalGyro,1676592459656,29516478037701,-0.05665775,0.8912524,0.20234911,0.0013464554,-0.0016874648,-0.00032962635
UncalAccel,1676592459656,29516478037701,0.4953143,2.0470598,9.491729,0.037048545,-0.031444572,0.0098014325
UncalMag,1676592459656,29516478521393,-152.37799,760.73096,391.6566,-174.57417,771.0116,430.86337
OrientationDeg,1676592459656,29516478037701,260.0,-3.0,-9.0
UncalGyro,1676592459664,29516486516460,0.096516706,0.8940013,0.1956296,0.0013464554,-0.0016874648,-0.00032962635
UncalAccel,1676592459664,29516486516460,0.08733802,2.4903302,9.348758,0.037048545,-0.031444572,0.0098014325
UncalMag,1676592459666,29516488522980,-152.1706,760.6822,392.7302,-174.57417,771.0116,430.86337
OrientationDeg,1676592459664,29516486516460,260.0,-3.0,-10.0
UncalGyro,1676592459672,29516494998954,0.23167065,0.84329945,0.1337795,0.0013464554,-0.0016874648,-0.00032962635
UncalAccel,1676592459672,29516494998954,-0.38285163,2.966502,9.223733,0.037048545,-0.031444572,0.0098014325
OrientationDeg,1676592459672,29516494998954,260.0,-2.0,-10.0
UncalMag,1676592459676,29516498512320,-152.2682,760.6212,390.9002,-174.57417,771.0116,430.86337
UncalGyro,1676592459681,29516503476462,0.33444872,0.73471814,0.014202617,0.0013464554,-0.0016874648,-0.00032962635
UncalAccel,1676592459681,29516503476462,-0.8769695,3.3565319,9.108877,0.037048545,-0.031444572,0.0098014325
OrientationDeg,1676592459681,29516503476462,260.0,-2.0,-10.0
UncalMag,1676592459686,29516508512442,-151.4142,761.0116,391.5834,-174.57417,771.0116,430.86337
UncalGyro,1676592459689,29516511954490,0.42332962,0.5537493,-0.1459968,0.0013464554,-0.0016874648,-0.00032962635
UncalAccel,1676592459689,29516511954490,-1.3782659,3.377469,9.014959,0.037048545,-0.031444572,0.0098014325
OrientationDeg,1676592459689,29516511954490,260.0,-2.0,-10.0
UncalMag,1676592459696,29516518522818,-152.1584,760.8164,391.681,-174.57417,771.0116,430.86337
UncalGyro,1676592459698,29516520438355,0.51175237,0.30772337,-0.313832,0.0013464554,-0.0016874648,-0.00032962635
UncalAccel,1676592459698,29516520438355,-1.8317057,3.0107691,9.0951185,0.037048545,-0.031444572,0.0098014325
OrientationDeg,1676592459698,29516520438355,260.0,-1.0,-10.0
UncalMag,1676592459706,29516528522778,-151.9632,760.5724,391.8518,-174.57417,771.0116,430.86337
UncalGyro,1676592459706,29516528915193,0.63713247,0.031612277,-0.46609017,0.0013464554,-0.0016874648,-0.00032962635
UncalAccel,1676592459706,29516528915193,-2.0177476,2.3670998,9.512667,0.037048545,-0.031444572,0.0098014325
OrientationDeg,1676592459706,29516528915193,260.0,-1.0,-11.0
UncalGyro,1676592459715,29516537398602,0.83291477,-0.20372356,-0.5742133,0.0013464554,-0.0016874648,-0.00032962635
UncalAccel,1676592459715,29516537398602,-1.8418752,1.643271,10.180862,0.037048545,-0.031444572,0.0098014325
UncalMag,1676592459716,29516538512443,-151.4386,760.64557,391.254,-174.57417,771.0116,430.86337
OrientationDeg,1676592459715,29516537398602,261.0,-1.0,-11.0
UncalGyro,1676592459723,29516545878045,1.0957395,-0.32910365,-0.61346143,0.0013464554,-0.0016874648,-0.00032962635
UncalAccel,1676592459723,29516545878045,-1.2370893,1.0037891,10.960922,0.037048545,-0.031444572,0.0098014325
UncalMag,1676592459726,29516548512484,-151.4752,759.9502,391.32718,-174.57417,771.0116,430.86337
OrientationDeg,1676592459723,29516545878045,261.0,-2.0,-12.0
UncalGyro,1676592459732,29516554351352,1.4081972,-0.34238997,-0.5717699,0.0013464554,-0.0016874648,-0.00032962635
UncalAccel,1676592459732,29516554351352,-0.317049,0.60598236,11.665608,0.037048545,-0.031444572,0.0098014325
OrientationDeg,1676592459732,29516554351352,261.0,-2.0,-12.0
UncalMag,1676592459736,29516558512077,-151.6948,759.877,391.80298,-174.57417,771.0116,430.86337
UncalGyro,1676592459740,29516562831393,1.736079,-0.25060746,-0.45066583,0.0013464554,-0.0016874648,-0.00032962635
UncalAccel,1676592459740,29516562831393,0.71306115,0.43908295,12.18844,0.037048545,-0.031444572,0.0098014325
OrientationDeg,1676592459740,29516562831393,261.0,-2.0,-13.0
UncalMag,1676592459746,29516568510653,-151.6216,759.35236,391.7908,-174.57417,771.0116,430.86337
UncalGyro,1676592459749,29516571324364,2.053118,-0.042913284,-0.2611449,0.0013464554,-0.0016874648,-0.00032962635
UncalAccel,1676592459749,29516571324364,1.5690935,0.52522457,12.742379,0.037048545,-0.031444572,0.0098014325
OrientationDeg,1676592459749,29516571324364,262.0,-2.0,-14.0
UncalMag,1676592459756,29516578512200,-152.1462,759.2792,392.5228,-174.57417,771.0116,430.86337
UncalGyro,1676592459757,29516579800428,2.3215933,0.2669481,-0.022449298,0.0013464554,-0.0016874648,-0.00032962635
UncalAccel,1676592459757,29516579800428,2.1619153,0.7196414,13.246666,0.037048545,-0.031444572,0.0098014325
OrientationDeg,1676592459757,29516579800428,262.0,-2.0,-15.0
UncalGyro,1676592459766,29516588283014,2.5120306,0.61254513,0.2454151,0.0013464554,-0.0016874648,-0.00032962635
UncalAccel,1676592459766,29516588283014,2.3168504,1.0319048,13.408182,0.037048545,-0.031444572,0.0098014325
UncalMag,1676592459766,29516588506585,-151.4142,757.742,392.97418,-174.57417,771.0116,430.86337
OrientationDeg,1676592459766,29516588283014,261.0,-1.0,-17.0
UncalGyro,1676592459774,29516596765090,2.6018279,0.8932377,0.5123632,0.0013464554,-0.0016874648,-0.00032962635
UncalAccel,1676592459774,29516596765090,1.9573289,1.4033905,13.2610235,0.037048545,-0.031444572,0.0098014325
UncalMag,1676592459776,29516598512607,-152.40239,756.93677,392.92538,-174.57417,771.0116,430.86337
OrientationDeg,1676592459774,29516596765090,261.0,-1.0,-18.0
UncalGyro,1676592459783,29516605232893,2.5442538,0.97692627,0.71685034,0.0013464554,-0.0016874648,-0.00032962635
UncalAccel,1676592459783,29516605232893,0.99900347,1.9531415,13.146766,0.037048545,-0.031444572,0.0098014325
OrientationDeg,1676592459783,29516605232893,261.0,-1.0,-19.0
UncalMag,1676592459786,29516608522821,-151.42639,755.8388,393.7306,-174.57417,771.0116,430.86337
UncalGyro,1676592459791,29516613721480,2.3333526,0.89659745,0.798859,0.0013464554,-0.0016874648,-0.00032962635
UncalAccel,1676592459792,29516613721480,-0.48873404,2.9018958,13.17548,0.037048545,-0.031444572,0.0098014325
OrientationDeg,1676592459791,29516613721480,260.0,0.0,-20.0
UncalMag,1676592459796,29516618512933,-151.0848,754.4602,394.121,-174.57417,771.0116,430.86337
UncalGyro,1676592459800,29516622197819,2.0352502,0.79611015,0.7469355,0.0013464554,-0.0016874648,-0.00032962635
UncalAccel,1676592459800,29516622197819,-1.7006987,4.0007997,13.243675,0.037048545,-0.031444572,0.0098014325
OrientationDeg,1676592459800,29516622197819,260.0,0.0,-21.0
UncalMag,1676592459806,29516628522740,-150.9384,753.472,395.57278,-174.57417,771.0116,430.86337
UncalGyro,1676592459808,29516630687728,1.7783815,0.817185,0.6386596,0.0013464554,-0.0016874648,-0.00032962635
UncalAccel,1676592459808,29516630687728,-1.7186449,4.523631,12.734602,0.037048545,-0.031444572,0.0098014325
OrientationDeg,1676592459808,29516630687728,259.0,0.0,-22.0
UncalMag,1676592459816,29516638522943,-150.7676,752.9596,395.93878,-174.57417,771.0116,430.86337
UncalGyro,1676592459817,29516639152389,1.6493362,0.9419542,0.5459608,0.0013464554,-0.0016874648,-0.00032962635
UncalAccel,1676592459817,29516639152389,-0.82971126,4.549354,12.201003,0.037048545,-0.031444572,0.0098014325
OrientationDeg,1676592459817,29516639152389,259.0,0.0,-23.0
UncalGyro,1676592459825,29516647646103,1.6181821,1.1004738,0.52748215,0.0013464554,-0.0016874648,-0.00032962635
UncalAccel,1676592459825,29516647646103,0.08853444,4.1437707,11.83191,0.037048545,-0.031444572,0.0098014325
OrientationDeg,1676592459825,29516647646103,259.0,0.0,-23.0
UncalMag,1676592459826,29516648512649,-150.731,751.83716,396.2682,-174.57417,771.0116,430.86337
UncalGyro,1676592459834,29516656129623,1.5975653,1.2334896,0.589485,0.0013464554,-0.0016874648,-0.00032962635
UncalAccel,1676592459834,29516656129623,0.53240305,3.8500516,11.568699,0.037048545,-0.031444572,0.0098014325
UncalMag,1676592459836,29516658512283,-150.731,751.83716,396.2682,-174.57417,771.0116,430.86337
OrientationDeg,1676592459834,29516656129623,259.0,0.0,-24.0
UncalGyro,1676592459842,29516664607406,1.5476271,1.3283265,0.6724099,0.0013464554,-0.0016874648,-0.00032962635
UncalAccel,1676592459842,29516664607406,0.41874397,3.9164524,11.29532,0.037048545,-0.031444572,0.0098014325
OrientationDeg,1676592459842,29516664607406,258.0,1.0,-25.0
UncalMag,1676592459846,29516668512202,-149.694,750.0804,398.00058,-174.57417,771.0116,430.86337
UncalGyro,1676592459851,29516673076736,1.4874569,1.3784174,0.7440339,0.0013464554,-0.0016874648,-0.00032962635
UncalAccel,1676592459851,29516673076736,0.13339986,4.21735,10.901102,0.037048545,-0.031444572,0.0098014325
OrientationDeg,1676592459851,29516673076736,258.0,1.0,-26.0
UncalMag,1676592459856,29516678522741,-149.633,749.2752,397.4516,-174.57417,771.0116,430.86337
UncalGyro,1676592459859,29516681559525,1.4488196,1.403921,0.7851145,0.0013464554,-0.0016874648,-0.00032962635
UncalAccel,1676592459859,29516681559525,-0.043070808,4.5858445,10.606785,0.037048545,-0.031444572,0.0098014325
OrientationDeg,1676592459859,29516681559525,257.0,2.0,-26.0
UncalMag,1676592459866,29516688522823,-149.3402,748.98236,399.06198,-174.57417,771.0116,430.86337
UncalGyro,1676592459868,29516690050279,1.4411838,1.4321736,0.80741113,0.0013464554,-0.0016874648,-0.00032962635
UncalAccel,1676592459868,29516690050279,0.009571291,4.706084,10.482358,0.037048545,-0.031444572,0.0098014325
OrientationDeg,1676592459868,29516690050279,257.0,2.0,-27.0
UncalGyro,1676592459876,29516698527054,1.4558446,1.4567609,0.8437576,0.0013464554,-0.0016874648,-0.00032962635
UncalAccel,1676592459876,29516698527054,0.26081768,4.49731,10.279566,0.037048545,-0.031444572,0.0098014325
UncalMag,1676592459876,29516698532100,-148.2544,748.0674,399.53778,-174.57417,771.0116,430.86337
OrientationDeg,1676592459876,29516698527054,257.0,3.0,-28.0
UncalGyro,1676592459885,29516707010220,1.5053247,1.4575244,0.9088148,0.0013464554,-0.0016874648,-0.00032962635
UncalAccel,1676592459885,29516707010220,0.49471608,4.2885365,9.890733,0.037048545,-0.031444572,0.0098014325
UncalMag,1676592459886,29516708512122,-148.7424,746.85956,400.4772,-174.57417,771.0116,430.86337
OrientationDeg,1676592459885,29516707010220,256.0,3.0,-29.0
UncalGyro,1676592459893,29516715493700,1.6146696,1.4256067,0.98761636,0.0013464554,-0.0016874648,-0.00032962635
UncalAccel,1676592459893,29516715493700,0.6119644,4.299304,9.576674,0.037048545,-0.031444572,0.0098014325
OrientationDeg,1676592459893,29516715493700,256.0,4.0,-29.0
UncalMag,1676592459896,29516718512814,-148.48619,745.92017,400.85538,-174.57417,771.0116,430.86337
UncalGyro,1676592459901,29516723957760,1.7884607,1.4031575,1.0595458,0.0013464554,-0.0016874648,-0.00032962635
UncalAccel,1676592459901,29516723957760,0.5599205,4.3998027,9.390035,0.037048545,-0.031444572,0.0098014325
OrientationDeg,1676592459901,29516723957760,255.0,4.0,-30.0
UncalMag,1676592459906,29516728506710,-147.7908,745.4444,402.051,-174.57417,771.0116,430.86337
UncalGyro,1676592459910,29516732451433,1.9949331,1.4173601,1.1210904,0.0013464554,-0.0016874648,-0.00032962635
UncalAccel,1676592459910,29516732451433,0.33559337,4.566104,9.211171,0.037048545,-0.031444572,0.0098014325
OrientationDeg,1676592459910,29516732451433,255.0,5.0,-31.0
UncalMag,1676592459916,29516738512285,-147.9616,744.43176,403.393,-174.57417,771.0116,430.86337
UncalGyro,1676592459918,29516740925310,2.1922426,1.4434745,1.1681271,0.0013464554,-0.0016874648,-0.00032962635
UncalAccel,1676592459919,29516740925310,-0.022731815,4.8568316,8.973084,0.037048545,-0.031444572,0.0098014325
OrientationDeg,1676592459918,29516740925310,254.0,5.0,-33.0
UncalMag,1676592459926,29516748522906,-147.9128,743.407,403.8688,-174.57417,771.0116,430.86337
UncalGyro,1676592459927,29516749396726,2.324953,1.4570663,1.1888965,0.0013464554,-0.0016874648,-0.00032962635
UncalAccel,1676592459927,29516749396726,-0.5485546,5.222934,8.648259,0.037048545,-0.031444572,0.0098014325
OrientationDeg,1676592459927,29516749396726,253.0,5.0,-34.0
UncalGyro,1676592459935,29516757897459,2.3518312,1.4459181,1.1882856,0.0013464554,-0.0016874648,-0.00032962635
UncalAccel,1676592459935,29516757897459,-1.0067801,5.5507503,8.304889,0.037048545,-0.031444572,0.0098014325
UncalMag,1676592459936,29516758512367,-147.53459,742.83356,404.8082,-174.57417,771.0116,430.86337
OrientationDeg,1676592459935,29516757897459,253.0,6.0,-35.0
UncalGyro,1676592459944,29516766370329,2.2710443,1.3886495,1.1850786,0.0013464554,-0.0016874648,-0.00032962635
UncalAccel,1676592459944,29516766370329,-1.2903296,5.6793647,7.791629,0.037048545,-0.031444572,0.0098014325
OrientationDeg,1676592459944,29516766370329,252.0,6.0,-36.0
UncalMag,1676592459946,29516768512530,-147.8396,741.36957,405.67438,-174.57417,771.0116,430.86337
UncalGyro,1676592459952,29516774845274,2.1250474,1.2735013,1.1765264,0.0013464554,-0.0016874648,-0.00032962635
UncalAccel,1676592459952,29516774845274,-1.527219,5.8797636,7.2783685,0.037048545,-0.031444572,0.0098014325
OrientationDeg,1676592459952,29516774845274,252.0,7.0,-37.0
UncalMag,1676592459956,29516778522621,-147.4736,740.62537,406.8212,-174.57417,771.0116,430.86337
UncalGyro,1676592459961,29516783325284,1.9758437,1.1355985,1.1452196,0.0013464554,-0.0016874648,-0.00032962635
UncalAccel,1676592459961,29516783325284,-1.6115661,6.148358,6.928418,0.037048545,-0.031444572,0.0098014325
OrientationDeg,1676592459961,29516783325284,251.0,7.0,-38.0
UncalMag,1676592459966,29516788512042,-148.0714,739.44196,408.2486,-174.57417,771.0116,430.86337
UncalGyro,1676592459969,29516791815773,1.8996382,1.0270172,1.0877982,0.0013464554,-0.0016874648,-0.00032962635
UncalAccel,1676592459969,29516791815773,-1.5762719,6.2691956,6.5886374,0.037048545,-0.031444572,0.0098014325
OrientationDeg,1676592459969,29516791815773,251.0,7.0,-39.0
UncalMag,1676592459976,29516798522785,-148.19339,739.1004,408.7732,-174.57417,771.0116,430.86337
UncalGyro,1676592459978,29516800296344,1.9110919,0.9602802,1.0085385,0.0013464554,-0.0016874648,-0.00032962635
UncalAccel,1676592459979,29516800296344,-1.4261223,6.337391,6.2841506,0.037048545,-0.031444572,0.0098014325
OrientationDeg,1676592459978,29516800296344,250.0,7.0,-40.0
UncalMag,1676592459986,29516808523070,-147.742,737.9414,410.5422,-174.57417,771.0116,430.86337
UncalGyro,1676592459986,29516808768603,2.0276144,0.9306532,0.9228647,0.0013464554,-0.0016874648,-0.00032962635
UncalAccel,1676592459986,29516808768603,-1.1270195,6.2488565,5.98086,0.037048545,-0.031444572,0.0098014325
OrientationDeg,1676592459986,29516808768603,250.0,7.0,-41.0
UncalGyro,1676592459995,29516817257720,2.2379048,0.9763154,0.853226,0.0013464554,-0.0016874648,-0.00032962635
UncalAccel,1676592459995,29516817257720,-0.8362915,6.145965,5.601598,0.037048545,-0.031444572,0.0098014325
UncalMag,1676592459996,29516818512328,-147.6078,736.8312,411.12778,-174.57417,771.0116,430.86337
OrientationDeg,1676592459995,29516817257720,250.0,7.0,-42.0
UncalGyro,1676592460003,29516825737162,2.418721,1.0216721,0.77320266,0.0013464554,-0.0016874648,-0.00032962635
UncalAccel,1676592460003,29516825737162,-0.63529444,6.2584276,4.8047876,0.037048545,-0.031444572,0.0098014325
OrientationDeg,1676592460003,29516825737162,249.0,8.0,-44.0
