# 
# Header Description:
# 
# Version: v3.0.5.6 Platform: 13 Manufacturer: Google Model: Pixel 7
# 
# Raw,utcTimeMillis,TimeNanos,LeapSecond,TimeUncertaintyNanos,FullBiasNanos,BiasNanos,BiasUncertaintyNanos,DriftNanosPerSecond,DriftUncertaintyNanosPerSecond,HardwareClockDiscontinuityCount,Svid,TimeOffsetNanos,State,ReceivedSvTimeNanos,ReceivedSvTimeUncertaintyNanos,Cn0DbHz,PseudorangeRateMetersPerSecond,PseudorangeRateUncertaintyMetersPerSecond,AccumulatedDeltaRangeState,AccumulatedDeltaRangeMeters,AccumulatedDeltaRangeUncertaintyMeters,CarrierFrequencyHz,CarrierCycles,CarrierPhase,CarrierPhaseUncertainty,MultipathIndicator,SnrInDb,ConstellationType,AgcDb,BasebandCn0DbHz,FullInterSignalBiasNanos,FullInterSignalBiasUncertaintyNanos,SatelliteInterSignalBiasNanos,SatelliteInterSignalBiasUncertaintyNanos,CodeType,ChipsetElapsedRealtimeNanos
# 
# UncalAccel,utcTimeMillis,elapsedRealtimeNanos,UncalAccelXMps2,UncalAccelYMps2,UncalAccelZMps2,BiasXMps2,BiasYMps2,BiasZMps2
# 
# Accel,utcTimeMillis,elapsedRealtimeNanos,AccelXMps2,AccelYMps2,AccelZMps2
# 
# UncalGyro,utcTimeMillis,elapsedRealtimeNanos,UncalGyroXRadPerSec,UncalGyroYRadPerSec,UncalGyroZRadPerSec,DriftXRadPerSec,DriftYRadPerSec,DriftZRadPerSec
# 
# Gyro,utcTimeMillis,elapsedRealtimeNanos,GyroXRadPerSec,GyroYRadPerSec,GyroZRadPerSec
# 
# UncalMag,utcTimeMillis,elapsedRealtimeNanos,UncalMagXMicroT,UncalMagYMicroT,UncalMagZMicroT,BiasXMicroT,BiasYMicroT,BiasZMicroT
# 
# Mag,utcTimeMillis,elapsedRealtimeNanos,MagXMicroT,MagYMicroT,MagZMicroT
# 
# OrientationDeg,utcTimeMillis,elapsedRealtimeNanos,yawDeg,rollDeg,pitchDeg
# 
# Fix,Provider,LatitudeDegrees,LongitudeDegrees,AltitudeMeters,SpeedMps,AccuracyMeters,BearingDegrees,UnixTimeMillis,SpeedAccuracyMps,BearingAccuracyDegrees,elapsedRealtimeNanos,VerticalAccuracyMeters
# 
# Nav,Svid,Type,Status,MessageId,Sub-messageId,Data(Bytes)
# 
# Status,UnixTimeMillis,SignalCount,SignalIndex,ConstellationType,Svid,CarrierFrequencyHz,Cn0DbHz,AzimuthDegrees,ElevationDegrees,UsedInFix,HasAlmanacData,HasEphemerisData,BasebandCn0DbHz
# 
UncalAccel,1676594134402,31191224658807,-4.5266223,2.6925237,16.596619,0.037048545,-0.031444572,0.0098014325
UncalGyro,1676594134406,31191228887557,-0.77747875,-0.27962357,0.33765575,0.0007478541,-0.0013319484,-0.00032400913
UncalGyro,1676594134415,31191237369979,-0.34681875,-0.54718256,0.33444872,0.0007478541,-0.0013319484,-0.00032400913
UncalAccel,1676594134411,31191233127151,-3.8721852,2.6446671,16.071394,0.037048545,-0.031444572,0.0098014325
UncalAccel,1676594134419,31191241612115,-3.182454,2.5830522,15.340984,0.037048545,-0.031444572,0.0098014325
Fix,FLP,37.4313260000,-122.1549957000,-16.200000762939453,1.1680499,5.961,81.69016,1676594133982,,,31190804832760,2.8767726
UncalGyro,1676594134423,31191245850945,0.035277467,-0.7096727,0.27870727,0.0007478541,-0.0013319484,-0.00032400913
UncalMag,1676594134402,31191224573705,-177.4612,777.5548,385.30038,-174.57417,771.0116,430.86337
UncalMag,1676594134412,31191234573623,-177.4612,777.5548,385.30038,-174.57417,771.0116,430.86337
UncalMag,1676594134422,31191244573948,-177.6686,777.6402,385.3248,-174.57417,771.0116,430.86337
UncalAccel,1676594134428,31191250090142,-2.652444,2.367698,14.309678,0.037048545,-0.031444572,0.0098014325
OrientationDeg,1676594134428,31191250090142,46.0,12.0,-13.0
UncalGyro,1676594134432,31191254332940,0.35918877,-0.8034405,0.19120082,0.0007478541,-0.0013319484,-0.00032400913
UncalMag,1676594134432,31191254573744,-178.303,777.56696,386.2886,-174.57417,771.0116,430.86337
UncalAccel,1676594134436,31191258572013,-2.2259233,2.1571295,13.124632,0.037048545,-0.031444572,0.0098014325
OrientationDeg,1676594134436,31191258572013,46.0,12.0,-13.0
UncalGyro,1676594134440,31191262813082,0.61315596,-0.8518516,0.09117164,0.0007478541,-0.0013319484,-0.00032400913
UncalMag,1676594134442,31191264573702,-178.303,777.56696,386.2886,-174.57417,771.0116,430.86337
UncalAccel,1676594134445,31191267043631,-1.8394824,2.0075781,12.054442,0.037048545,-0.031444572,0.0098014325
OrientationDeg,1676594134445,31191267043631,47.0,12.0,-14.0
UncalGyro,1676594134449,31191271295036,0.7841983,-0.8533788,-0.004886922,0.0007478541,-0.0013319484,-0.00032400913
UncalMag,1676594134452,31191274573742,-178.82759,777.5182,384.71478,-174.57417,771.0116,430.86337
UncalAccel,1676594134453,31191275536175,-1.5690935,1.8628124,11.173883,0.037048545,-0.031444572,0.0098014325
OrientationDeg,1676594134453,31191275536175,47.0,11.0,-14.0
UncalGyro,1676594134457,31191279772777,0.86345804,-0.80878556,-0.08689558,0.0007478541,-0.0013319484,-0.00032400913
UncalAccel,1676594134462,31191284017548,-1.3944174,1.6588243,10.335797,0.037048545,-0.031444572,0.0098014325
OrientationDeg,1676594134462,31191284017548,47.0,11.0,-14.0
UncalMag,1676594134462,31191284572521,-179.62059,776.3714,384.9466,-174.57417,771.0116,430.86337
UncalGyro,1676594134466,31191288258799,0.8501717,-0.7481572,-0.15515977,0.0007478541,-0.0013319484,-0.00032400913
UncalAccel,1676594134470,31191292497670,-1.3250256,1.4931214,9.51147,0.037048545,-0.031444572,0.0098014325
OrientationDeg,1676594134470,31191292497670,47.0,11.0,-15.0
UncalMag,1676594134472,31191294574188,-179.62059,776.3714,384.9466,-174.57417,771.0116,430.86337
UncalGyro,1676594134474,31191296738250,0.76174897,-0.7058548,-0.22907446,0.0007478541,-0.0013319484,-0.00032400913
UncalAccel,1676594134478,31191300977600,-1.294517,1.3459628,8.787043,0.037048545,-0.031444572,0.0098014325
OrientationDeg,1676594134478,31191300977600,47.0,10.0,-15.0
UncalMag,1676594134482,31191304576954,-179.9866,775.6028,385.61758,-174.57417,771.0116,430.86337
UncalGyro,1676594134483,31191305224171,0.6221663,-0.6774496,-0.32055154,0.0007478541,-0.0013319484,-0.00032400913
UncalAccel,1676594134487,31191309458932,-1.2281163,1.2083755,8.248658,0.037048545,-0.031444572,0.0098014325
OrientationDeg,1676594134487,31191309458932,47.0,10.0,-15.0
UncalGyro,1676594134491,31191313701730,0.4605924,-0.64736444,-0.43890667,0.0007478541,-0.0013319484,-0.00032400913
UncalMag,1676594134492,31191314573821,-180.438,775.0904,386.3618,-174.57417,771.0116,430.86337
UncalAccel,1676594134495,31191317939878,-1.1527423,1.1282159,7.838887,0.037048545,-0.031444572,0.0098014325
OrientationDeg,1676594134495,31191317939878,48.0,10.0,-15.0
UncalGyro,1676594134500,31191322182818,0.30207285,-0.6027713,-0.58291817,0.0007478541,-0.0013319484,-0.00032400913
UncalMag,1676594134502,31191324575041,-180.6332,775.24896,385.8006,-174.57417,771.0116,430.86337
UncalAccel,1676594134504,31191326423185,-1.0689936,1.0666007,7.591828,0.037048545,-0.031444572,0.0098014325
OrientationDeg,1676594134504,31191326423185,48.0,10.0,-15.0
UncalGyro,1676594134508,31191330663113,0.16982053,-0.5279403,-0.74220127,0.0007478541,-0.0013319484,-0.00032400913
UncalMag,1676594134512,31191334576789,-181.0724,774.9806,385.98358,-174.57417,771.0116,430.86337
UncalAccel,1676594134512,31191334903114,-0.9822537,0.9810573,7.5499535,0.037048545,-0.031444572,0.0098014325
OrientationDeg,1676594134512,31191334903114,48.0,10.0,-15.0
UncalGyro,1676594134517,31191339144192,0.06856962,-0.41523564,-0.89751375,0.0007478541,-0.0013319484,-0.00032400913
UncalAccel,1676594134521,31191343386715,-1.0049855,0.8709874,7.502097,0.037048545,-0.031444572,0.0098014325
OrientationDeg,1676594134521,31191343386715,49.0,10.0,-15.0
UncalMag,1676594134522,31191344573900,-181.3652,775.2124,385.3248,-174.57417,771.0116,430.86337
UncalGyro,1676594134525,31191347629777,0.0061086523,-0.31322116,-1.031446,0.0007478541,-0.0013319484,-0.00032400913
UncalAccel,1676594134529,31191351869562,-1.2179468,0.78843504,7.2293153,0.037048545,-0.031444572,0.0098014325
OrientationDeg,1676594134529,31191351869562,49.0,10.0,-15.0
UncalMag,1676594134532,31191354580125,-181.2798,775.04156,385.276,-174.57417,771.0116,430.86337
UncalGyro,1676594134534,31191356110703,-0.007483099,-0.27076602,-1.1446087,0.0007478541,-0.0013319484,-0.00032400913
UncalAccel,1676594134538,31191360347051,-1.4159528,0.66341007,6.9469624,0.037048545,-0.031444572,0.0098014325
OrientationDeg,1676594134538,31191360347051,50.0,10.0,-15.0
UncalMag,1676594134542,31191364573939,-181.60919,774.7854,385.8372,-174.57417,771.0116,430.86337
UncalGyro,1676594134542,31191364595097,0.010537425,-0.28130344,-1.2293663,0.0007478541,-0.0013319484,-0.00032400913
UncalAccel,1676594134546,31191368844527,-1.544567,0.58624154,6.9373913,0.037048545,-0.031444572,0.0098014325
OrientationDeg,1676594134546,31191368844527,51.0,10.0,-15.0
UncalGyro,1676594134551,31191373075270,0.030848695,-0.30848694,-1.2867876,0.0007478541,-0.0013319484,-0.00032400913
UncalMag,1676594134552,31191374573613,-181.5116,774.5292,385.764,-174.57417,771.0116,430.86337
UncalAccel,1676594134555,31191377321475,-1.6749759,0.64247286,7.055238,0.037048545,-0.031444572,0.0098014325
OrientationDeg,1676594134555,31191377321475,51.0,10.0,-15.0
UncalGyro,1676594134559,31191381560439,0.044135015,-0.32375857,-1.3260357,0.0007478541,-0.0013319484,-0.00032400913
UncalMag,1676594134562,31191384584313,-181.6946,774.944,385.3858,-174.57417,771.0116,430.86337
UncalAccel,1676594134563,31191385798953,-1.7485552,0.7375876,7.2119675,0.037048545,-0.031444572,0.0098014325
OrientationDeg,1676594134563,31191385798953,52.0,10.0,-15.0
UncalGyro,1676594134568,31191390026614,0.04062254,-0.32238412,-1.3516921,0.0007478541,-0.0013319484,-0.00032400913
UncalAccel,1676594134572,31191394271558,-1.7784654,0.81834537,7.359126,0.037048545,-0.031444572,0.0098014325
UncalMag,1676594134572,31191394577436,-182.26799,774.1632,385.581,-174.57417,771.0116,430.86337
OrientationDeg,1676594134572,31191394271558,53.0,10.0,-15.0
UncalGyro,1676594134576,31191398523734,0.017715093,-0.32589662,-1.3602442,0.0007478541,-0.0013319484,-0.00032400913
UncalAccel,1676594134580,31191402766512,-1.817947,0.89491564,7.4398837,0.037048545,-0.031444572,0.0098014325
OrientationDeg,1676594134580,31191402766512,53.0,10.0,-14.0
UncalMag,1676594134582,31191404584393,-181.841,774.4438,386.2398,-174.57417,771.0116,430.86337
UncalGyro,1676594134585,31191407004833,-0.018784106,-0.35231653,-1.3620768,0.0007478541,-0.0013319484,-0.00032400913
UncalAccel,1676594134589,31191411235048,-1.8622142,0.9613165,7.563114,0.037048545,-0.031444572,0.0098014325
OrientationDeg,1676594134589,31191411235048,54.0,10.0,-14.0
UncalMag,1676594134592,31191414584311,-183.2074,774.3218,385.764,-174.57417,771.0116,430.86337
UncalGyro,1676594134593,31191415487132,-0.05971208,-0.39354995,-1.3662001,0.0007478541,-0.0013319484,-0.00032400913
UncalAccel,1676594134597,31191419723470,-1.8921245,1.032503,7.6917286,0.037048545,-0.031444572,0.0098014325
OrientationDeg,1676594134597,31191419723470,55.0,10.0,-14.0
UncalGyro,1676594134601,31191423960479,-0.10797043,-0.45249844,-1.3759739,0.0007478541,-0.0013319484,-0.00032400913
UncalMag,1676594134602,31191424579916,-183.17079,774.944,386.03238,-174.57417,771.0116,430.86337
UncalAccel,1676594134606,31191428207052,-1.8358932,1.0187442,7.8496547,0.037048545,-0.031444572,0.0098014325
OrientationDeg,1676594134606,31191428207052,55.0,10.0,-14.0
UncalGyro,1676594134610,31191432444965,-0.17486018,-0.5169447,-1.3862059,0.0007478541,-0.0013319484,-0.00032400913
UncalMag,1676594134612,31191434584310,-183.2928,774.50476,386.2886,-174.57417,771.0116,430.86337
UncalAccel,1676594134614,31191436675344,-1.7659031,0.99003035,8.117651,0.037048545,-0.031444572,0.0098014325
OrientationDeg,1676594134614,31191436675344,56.0,9.0,-14.0
UncalGyro,1676594134618,31191440931192,-0.25595254,-0.58032197,-1.4065173,0.0007478541,-0.0013319484,-0.00032400913
UncalMag,1676594134622,31191444573811,-183.32939,773.98016,386.2886,-174.57417,771.0116,430.86337
UncalAccel,1676594134623,31191445174661,-1.805983,1.0564312,8.303095,0.037048545,-0.031444572,0.0098014325
OrientationDeg,1676594134623,31191445174661,57.0,9.0,-13.0
UncalGyro,1676594134627,31191449416299,-0.32543847,-0.656222,-1.4495832,0.0007478541,-0.0013319484,-0.00032400913
UncalAccel,1676594134631,31191453647581,-1.8598214,1.07019,8.431708,0.037048545,-0.031444572,0.0098014325
OrientationDeg,1676594134631,31191453647581,57.0,9.0,-13.0
UncalMag,1676594134632,31191454573932,-183.9272,774.4926,386.1788,-174.57417,771.0116,430.86337
UncalGyro,1676594134635,31191457877795,-0.3743077,-0.73960507,-1.5160148,0.0007478541,-0.0013319484,-0.00032400913
UncalAccel,1676594134640,31191462132056,-1.8370895,0.9834501,8.68475,0.037048545,-0.031444572,0.0098014325
OrientationDeg,1676594134640,31191462132056,58.0,9.0,-13.0
UncalMag,1676594134642,31191464574176,-184.5616,774.3218,386.88638,-174.57417,771.0116,430.86337
UncalGyro,1676594134644,31191466373776,-0.39767328,-0.81199265,-1.5839735,0.0007478541,-0.0013319484,-0.00032400913
UncalAccel,1676594134648,31191470616940,-1.7670995,0.9164511,8.929416,0.037048545,-0.031444572,0.0098014325
OrientationDeg,1676594134648,31191470616940,59.0,9.0,-12.0
UncalMag,1676594134652,31191474584103,-184.75679,774.50476,386.93518,-174.57417,771.0116,430.86337
UncalGyro,1676594134652,31191474852413,-0.38912117,-0.86284715,-1.6476563,0.0007478541,-0.0013319484,-0.00032400913
UncalAccel,1676594134657,31191479083991,-1.6444674,0.8883354,9.211769,0.037048545,-0.031444572,0.0098014325
OrientationDeg,1676594134657,31191479083991,60.0,9.0,-12.0
UncalGyro,1676594134661,31191483333420,-0.34193182,-0.8695667,-1.7137824,0.0007478541,-0.0013319484,-0.00032400913
UncalMag,1676594134662,31191484584265,-186.00119,774.60236,385.4102,-174.57417,771.0116,430.86337
UncalAccel,1676594134665,31191487573064,-1.5559329,0.9314062,9.493524,0.037048545,-0.031444572,0.0098014325
OrientationDeg,1676594134665,31191487573064,60.0,8.0,-12.0
UncalGyro,1676594134669,31191491821416,-0.24923302,-0.8367327,-1.7884607,0.0007478541,-0.0013319484,-0.00032400913
UncalMag,1676594134672,31191494584224,-186.0378,774.151,387.8502,-174.57417,771.0116,430.86337
UncalAccel,1676594134674,31191496055293,-1.524228,0.9936196,9.631709,0.037048545,-0.031444572,0.0098014325
OrientationDeg,1676594134674,31191496055293,61.0,8.0,-12.0
UncalGyro,1676594134678,31191500289373,-0.113162786,-0.7912232,-1.8758144,0.0007478541,-0.0013319484,-0.00032400913
UncalAccel,1676594134682,31191504538375,-1.5433706,1.0606186,9.626924,0.037048545,-0.031444572,0.0098014325
OrientationDeg,1676594134682,31191504538375,62.0,8.0,-11.0
UncalMag,1676594134682,31191504574132,-186.6478,774.39496,387.5574,-174.57417,771.0116,430.86337
UncalGyro,1676594134686,31191508780105,0.053145275,-0.75334954,-1.9769126,0.0007478541,-0.0013319484,-0.00032400913
UncalAccel,1676594134691,31191513022657,-1.6588243,1.2035898,9.615558,0.037048545,-0.031444572,0.0098014325
OrientationDeg,1676594134691,31191513022657,63.0,8.0,-11.0
UncalMag,1676594134692,31191514573521,-186.6722,774.029,386.862,-174.57417,771.0116,430.86337
UncalGyro,1676594134695,31191517262617,0.2182316,-0.7264715,-2.0922134,0.0007478541,-0.0013319484,-0.00032400913
UncalAccel,1676594134699,31191521501183,-1.8466609,1.3986049,9.6275215,0.037048545,-0.031444572,0.0098014325
OrientationDeg,1676594134699,31191521501183,64.0,8.0,-11.0
UncalMag,1676594134702,31191524584425,-187.209,773.76056,387.30118,-174.57417,771.0116,430.86337
UncalGyro,1676594134703,31191525742933,0.35353827,-0.713796,-2.2153027,0.0007478541,-0.0013319484,-0.00032400913
UncalAccel,1676594134707,31191529984846,-2.0865414,1.6127625,9.610772,0.037048545,-0.031444572,0.0098014325
OrientationDeg,1676594134707,31191529984846,66.0,8.0,-11.0
UncalGyro,1676594134712,31191534234967,0.452193,-0.71578133,-2.3376286,0.0007478541,-0.0013319484,-0.00032400913
UncalMag,1676594134712,31191534583610,-187.3432,773.2848,385.98358,-174.57417,771.0116,430.86337
UncalAccel,1676594134716,31191538463807,-2.3365912,1.9082761,9.5455675,0.037048545,-0.031444572,0.0098014325
OrientationDeg,1676594134716,31191538463807,67.0,7.0,-12.0
UncalGyro,1676594134721,31191542705446,0.5123632,-0.73426,-2.4480424,0.0007478541,-0.0013319484,-0.00032400913
UncalMag,1676594134722,31191544573559,-188.1362,772.3332,386.496,-174.57417,771.0116,430.86337
UncalAccel,1676594134724,31191546942567,-2.541776,2.1852453,9.309277,0.037048545,-0.031444572,0.0098014325
OrientationDeg,1676594134724,31191546942567,68.0,7.0,-12.0
UncalGyro,1676594134729,31191551184989,0.5320636,-0.79091775,-2.5318837,0.0007478541,-0.0013319484,-0.00032400913
UncalMag,1676594134732,31191554584341,-187.3188,772.1258,387.7526,-174.57417,771.0116,430.86337
UncalAccel,1676594134733,31191555415803,-2.6985056,2.3958137,9.006584,0.037048545,-0.031444572,0.0098014325
OrientationDeg,1676594134733,31191555415803,69.0,7.0,-12.0
UncalGyro,1676594134737,31191559669007,0.49373183,-0.8880454,-2.58564,0.0007478541,-0.0013319484,-0.00032400913
UncalAccel,1676594134741,31191563904937,-2.766103,2.6973093,8.86122,0.037048545,-0.031444572,0.0098014325
UncalMag,1676594134742,31191564573598,-188.5876,771.75977,388.31378,-174.57417,771.0116,430.86337
OrientationDeg,1676594134741,31191563904937,71.0,7.0,-12.0
UncalGyro,1676594134746,31191568141865,0.38423425,-1.0004445,-2.6224444,0.0007478541,-0.0013319484,-0.00032400913
UncalAccel,1676594134750,31191572388528,-2.7732813,2.998805,8.983852,0.037048545,-0.031444572,0.0098014325
OrientationDeg,1676594134750,31191572388528,72.0,7.0,-12.0
UncalMag,1676594134753,31191574574411,-189.039,771.1986,387.3378,-174.57417,771.0116,430.86337
UncalGyro,1676594134754,31191576630360,0.21930063,-1.0795516,-2.6473372,0.0007478541,-0.0013319484,-0.00032400913
UncalAccel,1676594134759,31191580873005,-2.7463622,3.161517,9.073584,0.037048545,-0.031444572,0.0098014325
OrientationDeg,1676594134758,31191580873005,73.0,7.0,-12.0
UncalMag,1676594134762,31191584584339,-189.3806,770.7716,387.6062,-174.57417,771.0116,430.86337
UncalGyro,1676594134763,31191585110055,0.037873644,-1.1154399,-2.6584857,0.0007478541,-0.0013319484,-0.00032400913
UncalAccel,1676594134767,31191589340869,-2.6596224,3.2488549,8.959326,0.037048545,-0.031444572,0.0098014325
OrientationDeg,1676594134767,31191589340869,75.0,6.0,-11.0
UncalGyro,1676594134772,31191593593157,-0.13255776,-1.1394165,-2.6513078,0.0007478541,-0.0013319484,-0.00032400913
UncalMag,1676594134772,31191594573840,-189.5392,769.82,388.10638,-174.57417,771.0116,430.86337
UncalAccel,1676594134775,31191597832578,-2.544767,3.2590244,8.912068,0.037048545,-0.031444572,0.0098014325
OrientationDeg,1676594134775,31191597832578,76.0,6.0,-11.0
UncalGyro,1676594134780,31191602077124,-0.28710666,-1.1588113,-2.623208,0.0007478541,-0.0013319484,-0.00032400913
UncalMag,1676594134782,31191604584175,-190.4664,770.0884,388.8018,-174.57417,771.0116,430.86337
UncalAccel,1676594134784,31191606314226,-2.501696,3.2303107,8.984451,0.037048545,-0.031444572,0.0098014325
OrientationDeg,1676594134784,31191606314226,77.0,6.0,-11.0
UncalGyro,1676594134788,31191610554857,-0.41584653,-1.1742357,-2.5732698,0.0007478541,-0.0013319484,-0.00032400913
UncalMag,1676594134792,31191614584337,-190.9178,769.62476,388.3382,-174.57417,771.0116,430.86337
UncalAccel,1676594134792,31191614795101,-2.5734808,3.2973096,8.88814,0.037048545,-0.031444572,0.0098014325
OrientationDeg,1676594134792,31191614795101,78.0,5.0,-11.0
UncalGyro,1676594134797,31191619046280,-0.5224425,-1.2153164,-2.5089762,0.0007478541,-0.0013319484,-0.00032400913
UncalAccel,1676594134801,31191623264948,-2.7355945,3.4594233,8.700303,0.037048545,-0.031444572,0.0098014325
OrientationDeg,1676594134801,31191623264948,80.0,5.0,-10.0
UncalMag,1676594134802,31191624573960,-191.479,768.9294,388.6676,-174.57417,771.0116,430.86337
UncalGyro,1676594134805,31191627519974,-0.61300325,-1.2848023,-2.434756,0.0007478541,-0.0013319484,-0.00032400913
UncalAccel,1676594134809,31191631754614,-2.8175488,3.60718,8.689535,0.037048545,-0.031444572,0.0098014325
OrientationDeg,1676594134809,31191631754614,81.0,5.0,-10.0
UncalMag,1676594134812,31191634584132,-191.6986,768.7586,388.875,-174.57417,771.0116,430.86337
UncalGyro,1676594134814,31191636002436,-0.691194,-1.3423764,-2.340683,0.0007478541,-0.0013319484,-0.00032400913
UncalAccel,1676594134818,31191640238937,-2.8474588,3.650251,8.846265,0.037048545,-0.031444572,0.0098014325
OrientationDeg,1676594134818,31191640238937,82.0,4.0,-9.0
UncalGyro,1676594134822,31191644480727,-0.76251256,-1.3681854,-2.2224805,0.0007478541,-0.0013319484,-0.00032400913
UncalMag,1676594134822,31191644573755,-192.211,768.9538,389.78998,-174.57417,771.0116,430.86337
UncalAccel,1676594134826,31191648720198,-2.8241289,3.606582,8.99462,0.037048545,-0.031444572,0.0098014325
OrientationDeg,1676594134826,31191648720198,83.0,4.0,-9.0
UncalGyro,1676594134830,31191652961195,-0.829555,-1.3596333,-2.0749564,0.0007478541,-0.0013319484,-0.00032400913
UncalMag,1676594134832,31191654584374,-192.7478,768.7586,389.63138,-174.57417,771.0116,430.86337
UncalAccel,1676594134836,31191657201754,-2.7475586,3.501896,8.995817,0.037048545,-0.031444572,0.0098014325
OrientationDeg,1676594134835,31191657201754,84.0,3.0,-8.0
UncalGyro,1676594134839,31191661443403,-0.8900307,-1.3351988,-1.9017762,0.0007478541,-0.0013319484,-0.00032400913
UncalMag,1676594134842,31191664584292,-193.3578,768.99036,389.0946,-174.57417,771.0116,430.86337
UncalAccel,1676594134843,31191665683271,-2.6602206,3.382853,8.953942,0.037048545,-0.031444572,0.0098014325
OrientationDeg,1676594134843,31191665683271,85.0,3.0,-8.0
UncalGyro,1676594134847,31191669923891,-0.9445504,-1.2985468,-1.7119498,0.0007478541,-0.0013319484,-0.00032400913
UncalAccel,1676594134852,31191674161124,-2.6171498,3.2584262,9.002397,0.037048545,-0.031444572,0.0098014325
OrientationDeg,1676594134852,31191674161124,85.0,2.0,-7.0
UncalMag,1676594134852,31191674570091,-194.3216,768.661,390.37558,-174.57417,771.0116,430.86337
UncalGyro,1676594134856,31191678405692,-0.99296147,-1.2402092,-1.5204436,0.0007478541,-0.0013319484,-0.00032400913
UncalAccel,1676594134860,31191682645946,-2.5543382,3.1722846,9.022736,0.037048545,-0.031444572,0.0098014325
OrientationDeg,1676594134860,31191682645946,86.0,2.0,-7.0
UncalMag,1676594134862,31191684586976,-193.98,769.1246,391.0832,-174.57417,771.0116,430.86337
UncalGyro,1676594134864,31191686889049,-1.0297661,-1.1591167,-1.3391694,0.0007478541,-0.0013319484,-0.00032400913
UncalAccel,1676594134869,31191691127920,-2.4879375,3.0963125,9.142377,0.037048545,-0.031444572,0.0098014325
OrientationDeg,1676594134869,31191691127920,87.0,1.0,-6.0
UncalMag,1676594134872,31191694578919,-195.1268,769.1734,390.522,-174.57417,771.0116,430.86337
UncalGyro,1676594134873,31191695366710,-1.0571023,-1.0288498,-1.1801916,0.0007478541,-0.0013319484,-0.00032400913
UncalAccel,1676594134877,31191699597320,-2.4562325,3.057429,9.429516,0.037048545,-0.031444572,0.0098014325
OrientationDeg,1676594134877,31191699597320,87.0,1.0,-6.0
UncalGyro,1676594134881,31191703849700,-1.0731375,-0.84329945,-1.0512991,0.0007478541,-0.0013319484,-0.00032400913
UncalMag,1676594134882,31191704573751,-195.32199,769.41736,390.21698,-174.57417,771.0116,430.86337
UncalAccel,1676594134886,31191708086618,-2.5519454,3.1579278,9.323035,0.037048545,-0.031444572,0.0098014325
OrientationDeg,1676594134886,31191708086618,88.0,1.0,-5.0
UncalGyro,1676594134890,31191712323058,-1.0612257,-0.6953174,-0.9665415,0.0007478541,-0.0013319484,-0.00032400913
UncalMag,1676594134892,31191714584207,-195.61479,769.6858,390.6562,-174.57417,771.0116,430.86337
UncalAccel,1676594134894,31191716570810,-3.8374894,3.0987053,11.109876,0.037048545,-0.031444572,0.0098014325
OrientationDeg,1676594134894,31191716570810,88.0,1.0,-5.0
UncalGyro,1676594134898,31191720813719,-0.83062404,-0.19761491,-0.84742284,0.0007478541,-0.0013319484,-0.00032400913
UncalMag,1676594134902,31191724584247,-196.11499,770.2348,391.64438,-174.57417,771.0116,430.86337
UncalAccel,1676594134903,31191725052142,-7.3304124,3.821936,24.195026,0.037048545,-0.031444572,0.0098014325
OrientationDeg,1676594134903,31191725052142,88.0,1.0,-5.0
UncalGyro,1676594134907,31191729280810,0.6339254,0.52778757,-0.19547687,0.0007478541,-0.0013319484,-0.00032400913
UncalAccel,1676594134911,31191733523913,-10.359127,6.108876,8.743374,0.037048545,-0.031444572,0.0098014325
OrientationDeg,1676594134911,31191733523913,88.0,1.0,-6.0
UncalMag,1676594134912,31191734574033,-195.81,770.06396,391.4736,-174.57417,771.0116,430.86337
UncalGyro,1676594134915,31191737774950,1.8568777,-1.1414018,0.61819565,0.0007478541,-0.0013319484,-0.00032400913
UncalAccel,1676594134920,31191742016374,-5.9587264,8.221141,7.867601,0.037048545,-0.031444572,0.0098014325
OrientationDeg,1676594134920,31191742016374,88.0,0.0,-7.0
UncalMag,1676594134922,31191744573992,-195.6514,769.1856,391.376,-174.57417,771.0116,430.86337
UncalGyro,1676594134924,31191746255337,2.3000603,-2.0140228,0.8793405,0.0007478541,-0.0013319484,-0.00032400913
UncalAccel,1676594134928,31191750496080,-2.1391835,7.77129,7.7940216,0.037048545,-0.031444572,0.0098014325
OrientationDeg,1676594134928,31191750496080,87.0,0.0,-8.0
UncalMag,1676594134932,31191754584164,-196.29799,768.8562,392.413,-174.57417,771.0116,430.86337
UncalGyro,1676594134932,31191754738399,2.1157317,-2.189799,0.56321776,0.0007478541,-0.0013319484,-0.00032400913
UncalAccel,1676594134936,31191758978023,0.38165522,7.198209,7.536195,0.037048545,-0.031444572,0.0098014325
OrientationDeg,1676594134936,31191758978023,87.0,-1.0,-9.0
UncalGyro,1676594134941,31191763219131,1.5541939,-1.9332358,0.051465396,0.0007478541,-0.0013319484,-0.00032400913
UncalMag,1676594134942,31191764584326,-198.4574,767.868,392.8278,-174.57417,771.0116,430.86337
UncalAccel,1676594134945,31191767455581,2.3886352,5.892326,8.056634,0.037048545,-0.031444572,0.0098014325
OrientationDeg,1676594134945,31191767455581,87.0,-2.0,-9.0
UncalGyro,1676594134949,31191771697352,0.8935431,-1.5221235,-0.5535966,0.0007478541,-0.0013319484,-0.00032400913
UncalMag,1676594134952,31191774574112,-198.799,767.3434,392.70578,-174.57417,771.0116,430.86337
UncalAccel,1676594134953,31191775928695,2.905485,4.2035913,8.589037,0.037048545,-0.031444572,0.0098014325
OrientationDeg,1676594134953,31191775928695,88.0,-3.0,-10.0
UncalGyro,1676594134958,31191780182082,0.27091873,-0.8359691,-1.070236,0.0007478541,-0.0013319484,-0.00032400913
UncalAccel,1676594134962,31191784421319,2.9766715,1.2687942,10.718649,0.037048545,-0.031444572,0.0098014325
UncalMag,1676594134962,31191784574314,-199.4578,766.8188,393.206,-174.57417,771.0116,430.86337
OrientationDeg,1676594134962,31191784421319,88.0,-3.0,-10.0
UncalGyro,1676594134966,31191788665703,-0.27183503,0.012370021,-1.4100296,0.0007478541,-0.0013319484,-0.00032400913
UncalAccel,1676594134970,31191792900119,1.867598,0.30329028,8.163115,0.037048545,-0.031444572,0.0098014325
UncalMag,1676594134973,31191794584364,-199.4578,766.8188,393.206,-174.57417,771.0116,430.86337
OrientationDeg,1676594134970,31191792900119,89.0,-2.0,-10.0
UncalGyro,1676594134975,31191797143944,-0.7134906,0.38240165,-1.7093537,0.0007478541,-0.0013319484,-0.00032400913
UncalAccel,1676594134979,31191801382449,1.1330016,-0.53659046,6.5443697,0.037048545,-0.031444572,0.0098014325
OrientationDeg,1676594134979,31191801382449,90.0,-2.0,-9.0
UncalMag,1676594134982,31191804584445,-199.165,766.5504,392.779,-174.57417,771.0116,430.86337
UncalGyro,1676594134983,31191805622357,-1.1171198,0.34865135,-1.9691241,0.0007478541,-0.0013319484,-0.00032400913
UncalAccel,1676594134987,31191809864707,1.0205388,-1.1653047,6.6424756,0.037048545,-0.031444572,0.0098014325
OrientationDeg,1676594134987,31191809864707,91.0,-2.0,-8.0
UncalGyro,1676594134992,31191814106385,-1.4737124,0.22815818,-2.2249238,0.0007478541,-0.0013319484,-0.00032400913
UncalMag,1676594134992,31191814581311,-198.9698,766.221,393.5354,-174.57417,771.0116,430.86337
UncalAccel,1676594134996,31191818344524,0.7531409,-0.87996054,7.0450683,0.037048545,-0.031444572,0.0098014325
OrientationDeg,1676594134996,31191818344524,92.0,-2.0,-8.0
UncalGyro,1676594135000,31191822577403,-1.7119498,0.0983493,-2.4517076,0.0007478541,-0.0013319484,-0.00032400913
UncalMag,1676594135002,31191824584199,-198.6526,766.3918,392.962,-174.57417,771.0116,430.86337
UncalAccel,1676594135004,31191826827739,-1.3908281,-3.0382864,6.2117677,0.037048545,-0.031444572,0.0098014325
OrientationDeg,1676594135004,31191826827739,94.0,-1.0,-7.0
UncalGyro,1676594135009,31191831069886,-1.5867225,-0.28389964,-1.8205311,0.0007478541,-0.0013319484,-0.00032400913
UncalMag,1676594135012,31191834584442,-198.4086,766.98956,392.6204,-174.57417,771.0116,430.86337
UncalAccel,1676594135013,31191835308665,-1.082154,-1.3250256,8.434102,0.037048545,-0.031444572,0.0098014325
OrientationDeg,1676594135013,31191835308665,94.0,-1.0,-6.0
UncalGyro,1676594135017,31191839539581,-1.2067643,-0.113926366,-1.5793921,0.0007478541,-0.0013319484,-0.00032400913
UncalAccel,1676594135021,31191843789428,0.23988047,-0.69332033,10.949556,0.037048545,-0.031444572,0.0098014325
UncalMag,1676594135022,31191844566416,-199.0918,766.0014,392.0348,-174.57417,771.0116,430.86337
OrientationDeg,1676594135021,31191843789428,95.0,-1.0,-6.0
UncalGyro,1676594135026,31191848031614,-0.6772968,0.38362336,-1.420109,0.0007478541,-0.0013319484,-0.00032400913
UncalAccel,1676594135030,31191852274188,1.4644074,-0.16749759,10.5685,0.037048545,-0.031444572,0.0098014325
OrientationDeg,1676594135030,31191852274188,96.0,-1.0,-5.0
UncalMag,1676594135032,31191854584482,-198.3354,766.3796,392.22998,-174.57417,771.0116,430.86337
UncalGyro,1676594135034,31191856514088,-0.30909783,1.0447323,-1.3130548,0.0007478541,-0.0013319484,-0.00032400913
UncalAccel,1676594135038,31191860752481,2.5459633,0.04426722,10.94178,0.037048545,-0.031444572,0.0098014325
OrientationDeg,1676594135038,31191860752481,96.0,0.0,-5.0
UncalMag,1676594135042,31191864584277,-197.4326,765.7818,392.18118,-174.57417,771.0116,430.86337
UncalGyro,1676594135042,31191864991351,0.075289145,1.9118555,-1.059393,0.0007478541,-0.0013319484,-0.00032400913
UncalAccel,1676594135047,31191869222196,3.3367913,0.23030917,8.673982,0.037048545,-0.031444572,0.0098014325
OrientationDeg,1676594135047,31191869222196,97.0,0.0,-6.0
UncalGyro,1676594135051,31191873471402,0.88163126,1.6676621,-0.34376442,0.0007478541,-0.0013319484,-0.00032400913
UncalMag,1676594135052,31191874567268,-196.8104,765.6964,391.9006,-174.57417,771.0116,430.86337
UncalAccel,1676594135055,31191877711768,4.5338006,0.11425728,7.937591,0.037048545,-0.031444572,0.0098014325
OrientationDeg,1676594135055,31191877711768,97.0,0.0,-6.0
UncalGyro,1676594135059,31191881959509,1.7608191,0.9560041,0.55939984,0.0007478541,-0.0013319484,-0.00032400913
UncalMag,1676594135062,31191884584154,-196.2004,765.2572,391.4248,-174.57417,771.0116,430.86337
UncalAccel,1676594135064,31191886197303,3.7525442,-0.32662028,11.036895,0.037048545,-0.031444572,0.0098014325
OrientationDeg,1676594135064,31191886197303,96.0,1.0,-7.0
UncalGyro,1676594135068,31191890439978,2.1421516,1.0407617,0.84528476,0.0007478541,-0.0013319484,-0.00032400913
UncalMag,1676594135072,31191894584316,-195.95639,764.13477,391.5102,-174.57417,771.0116,430.86337
UncalAccel,1676594135072,31191894676611,1.3938192,-1.1521441,11.756536,0.037048545,-0.031444572,0.0098014325
OrientationDeg,1676594135072,31191894676611,96.0,1.0,-8.0
UncalGyro,1676594135076,31191898913732,2.273335,1.3881912,0.9425651,0.0007478541,-0.0013319484,-0.00032400913
UncalAccel,1676594135081,31191903148971,-0.47258246,0.32183465,11.460424,0.037048545,-0.031444572,0.0098014325
UncalMag,1676594135082,31191904573654,-195.3586,763.81757,392.02258,-174.57417,771.0116,430.86337
OrientationDeg,1676594135081,31191903148971,95.0,2.0,-10.0
Status,0,30,0,6,2,1176450050,38.81,95.0,78.0,1,1,1,35.208435
Status,0,30,1,6,2,1575420030,42.88,95.0,78.0,1,1,1,39.282852
Status,0,30,2,3,17,1604249980,43.05,304.0,74.0,1,1,1,39.45402
Status,0,30,3,1,11,1575420030,43.87,137.0,74.0,1,1,1,40.272232
Status,0,30,4,1,11,1176450050,39.54,137.0,74.0,1,1,1,35.94174
Status,0,30,5,3,15,1602000000,44.47,324.0,72.0,1,1,1,40.86507
Status,0,30,6,6,36,1575420030,43.77,55.0,65.0,1,1,1,40.17145
Status,0,30,7,6,36,1176450050,41.96,55.0,65.0,1,1,1,38.356937
Status,0,30,8,1,12,1575420030,44.58,325.0,61.0,1,1,1,40.97615
Status,0,30,9,6,34,1176450050,38.70,204.0,56.0,1,1,1,35.100636
Status,0,30,10,6,34,1575420030,39.34,204.0,56.0,1,1,1,35.74363
Status,0,30,11,3,14,1598062460,44.67,150.0,50.0,1,1,1,41.069702
Status,0,30,12,1,6,1176450050,38.73,50.0,47.0,1,1,1,35.132877
Status,0,30,13,1,6,1575420030,47.33,50.0,47.0,1,1,1,43.727993
Status,0,30,14,6,30,1575420030,43.35,315.0,43.0,1,1,1,39.752487
Status,0,30,15,6,30,1176450050,39.72,315.0,43.0,1,1,1,36.12137
Status,0,30,16,1,24,1575420030,38.34,221.0,41.0,1,1,1,34.736855
Status,0,30,17,1,24,1176450050,38.22,221.0,41.0,1,1,1,34.61593
Status,0,30,18,3,24,1603124990,47.99,32.0,34.0,1,1,1,44.394268
Status,0,30,19,3,18,1600312450,37.51,235.0,33.0,1,1,1,33.914146
Status,0,30,20,1,25,1575420030,45.77,312.0,32.0,1,1,1,42.17131
Status,0,30,21,1,25,1176450050,42.74,312.0,32.0,1,1,1,39.143913
Status,0,30,22,1,19,1575420030,45.81,58.0,28.0,1,1,1,42.214493
Status,0,30,23,6,25,1575420030,40.85,124.0,28.0,1,1,1,37.25028
Status,0,30,24,6,25,1176450050,39.71,124.0,28.0,1,1,1,36.11231
Status,0,30,25,1,20,1575420030,40.99,144.0,24.0,1,1,1,37.38562
Status,0,30,26,3,16,1601437440,43.65,328.0,18.0,1,1,1,40.05494
Status,0,30,27,6,11,1176450050,35.31,40.0,16.0,1,1,1,31.714699
Status,0,30,28,6,11,1575420030,42.70,40.0,16.0,1,1,1,39.095993
Status,0,30,29,1,29,1575420030,39.89,262.0,12.0,1,1,1,36.28685
UncalGyro,1676594135085,31191907395868,2.2606595,1.5377005,0.9859365,0.0007478541,-0.0013319484,-0.00032400913
UncalAccel,1676594135089,31191911622522,-1.0743774,2.3503501,10.577473,0.037048545,-0.031444572,0.0098014325
OrientationDeg,1676594135089,31191911622522,95.0,3.0,-11.0
Fix,GPS,37.4313054347,-122.1550242629,-7.053834466100241,0.16929844,3.0467906,125.90895,1676594134999,0.101060845,180.0,31191821478000,3.0
UncalMag,1676594135092,31191914584314,-194.89499,762.7684,391.8884,-174.57417,771.0116,430.86337
Raw,1676594134999,891043000000,,,-1360628461956669426,0.0,7.600682059891259,152.0,1.0,56,6,0.0,16431,434152928322513,11,46.70668029785156,464.22555226198256,0.15,16,379470.5513983174,340282346638528860000000000000000000000,1575420030,,,,0,,1,,43.10668182373047,0.320142130558394,1.0,0.320142130558394,1.0,C,31191821478000
Raw,1676594134999,891043000000,,,-1360628461956669426,0.0,7.600682059891259,152.0,1.0,56,11,0.0,16431,434152931529478,15,41.04877853393555,-74.39942936382761,0.15,16,-110509.17956235695,340282346638528860000000000000000000000,1575420030,,,,0,,1,,37.44878005981445,-0.20372681261465636,1.0,-0.20372681261465636,1.0,C,31191821478000
Raw,1676594134999,891043000000,,,-1360628461956669426,0.0,7.600682059891259,152.0,1.0,56,12,0.0,16431,434152930673300,13,42.47856903076172,-255.24130153965302,0.15,16,-250488.8942192388,340282346638528860000000000000000000000,1575420030,,,,0,,1,,38.878570556640625,-0.6984919076624261,1.0,-0.6984919076624261,1.0,C,31191821478000
Raw,1676594134999,891043000000,,,-1360628461956669426,0.0,7.600682059891259,152.0,1.0,56,19,0.0,16431,434152924032894,15,41.131561279296875,545.0961324396549,0.15,16,481104.55436806777,340282346638528860000000000000000000000,1575420030,,,,0,,1,,37.53156280517578,0.0,1.0,0.0,1.0,C,31191821478000
Raw,1676594134999,891043000000,,,-1360628461956669426,0.0,7.600682059891259,152.0,1.0,56,20,0.0,16431,434152921863255,21,36.73386001586914,-508.4810767375475,0.15,16,-459274.0831245357,340282346638528860000000000000000000000,1575420030,,,,0,,1,,33.13386154174805,0.0,1.0,0.0,1.0,C,31191821478000
Raw,1676594134999,891043000000,,,-1360628461956669426,0.0,7.600682059891259,152.0,1.0,56,24,0.0,16431,434152925790013,28,33.257720947265625,525.2440217414439,0.6160183013068963,16,439258.650824566,340282346638528860000000000000000000000,1575420030,,,,0,,1,,29.6577205657959,-0.20372681261465636,1.0,-0.20372681261465636,1.0,C,31191821478000
Raw,1676594134999,891043000000,,,-1360628461956669426,0.0,7.600682059891259,152.0,1.0,56,25,0.0,16431,434152925432898,12,45.77130889892578,-505.0985974223977,0.15,16,-459532.5937096425,340282346638528860000000000000000000000,1575420030,,,,0,,1,,42.17131042480469,-2.0372682255564105,1.0,-2.0372682255564105,1.0,C,31191821478000
Raw,1676594134999,891043000000,,,-1360628461956669426,0.0,7.600682059891259,152.0,1.0,56,29,0.0,16419,434152917423549,26,34.07539367675781,-461.2873718500641,0.5813410659773841,16,-279382.86598170165,340282346638528860000000000000000000000,1575420030,,,,0,,1,,30.475393295288086,-0.6984919076624261,1.0,-0.6984919076624261,1.0,C,31191821478000
Raw,1676594134999,891043000000,,,-1360628461956669426,0.0,7.600682059891259,152.0,1.0,56,6,0.0,81921,434152928323011,12,31.46671485900879,463.93240905342986,0.697013461916312,16,380701.56707045843,340282346638528860000000000000000000000,1176450050,,,,0,,1,,27.866714477539062,1.9208527336454408,1.330288172922391,1.9208527336454408,1.0,Q,31191821478000
Raw,1676594134999,891043000000,,,-1360628461956669426,0.0,7.600682059891259,152.0,1.0,56,11,0.0,81921,434152931529993,7,35.95391082763672,-74.99248114855277,0.49580608221875133,16,-111087.79903752828,340282346638528860000000000000000000000,1176450050,,,,0,,1,,32.353912353515625,0.0,1.330288172922391,0.0,1.0,Q,31191821478000
Raw,1676594134999,891043000000,,,-1360628461956669426,0.0,7.600682059891259,152.0,1.0,56,24,0.0,81921,434152925790521,10,36.69047164916992,524.8762379531063,0.15,16,439194.37928137695,340282346638528860000000000000000000000,1176450050,,,,0,,1,,33.09047317504883,3.5215636101095664,1.330288172922391,3.5215636101095664,1.0,Q,31191821478000
Raw,1676594134999,891043000000,,,-1360628461956669426,0.0,7.600682059891259,152.0,1.0,56,25,0.0,81921,434152925433416,12,41.17164611816406,-505.1648196354215,0.15,16,-461101.08361011697,340282346638528860000000000000000000000,1176450050,,,,0,,1,,37.57164764404297,1.0186341127782053,1.330288172922391,1.0186341127782053,1.0,Q,31191821478000
Raw,1676594134999,891043000000,,,-1360628461956669426,0.0,7.600682059891259,152.0,1.0,56,14,0.0,32995,12934931963082,33,43.39712142944336,561.9543379095326,0.15,16,455936.7935250048,340282346638528860000000000000000000000,1598062460,,,,0,,3,,39.797122955322266,52.1540641784668,2.0000000474974513,52.1540641784668,2.0000000474974513,C,31191821478000
Raw,1676594134999,891043000000,,,-1360628461956669426,0.0,7.600682059891259,152.0,1.0,56,18,0.0,32995,12934928173410,66,31.21240997314453,-491.97214828211554,0.708422431102727,16,-467899.19138325093,340282346638528860000000000000000000000,1600312450,,,,0,,3,,27.612409591674805,52.1540641784668,2.0000000474974513,52.1540641784668,2.0000000474974513,C,31191821478000
Raw,1676594134999,891043000000,,,-1360628461956669426,0.0,7.600682059891259,152.0,1.0,56,16,0.0,32867,12934923513337,40,37.49427795410156,-708.4851795678774,0.15,16,-636415.0151429141,340282346638528860000000000000000000000,1601437440,,,,1,,3,,33.89427947998047,52.1540641784668,2.0000000474974513,52.1540641784668,2.0000000474974513,C,31191821478000
Raw,1676594134999,891043000000,,,-1360628461956669426,0.0,7.600682059891259,152.0,1.0,56,15,0.0,32995,12934935121862,33,44.46506881713867,-190.92799578199026,0.15,16,-219162.5398363319,340282346638528860000000000000000000000,1602000000,,,,0,,3,,40.86507034301758,52.1540641784668,2.0000000474974513,52.1540641784668,2.0000000474974513,C,31191821478000
Raw,1676594134999,891043000000,,,-1360628461956669426,0.0,7.600682059891259,152.0,1.0,56,24,0.0,32995,12934928331423,33,47.994266510009766,668.4894168383594,0.15,16,582582.0952338718,340282346638528860000000000000000000000,1603124990,,,,0,,3,,44.39426803588867,52.1540641784668,2.0000000474974513,52.1540641784668,2.0000000474974513,C,31191821478000
Raw,1676594134999,891043000000,,,-1360628461956669426,0.0,7.600682059891259,152.0,1.0,56,17,0.0,32995,12934935753077,33,42.825782775878906,85.38818422792843,0.15,16,31285.88454104238,340282346638528860000000000000000000000,1604249980,,,,0,,3,,39.22578430175781,52.1540641784668,2.0000000474974513,52.1540641784668,2.0000000474974513,C,31191821478000
Raw,1676594134999,891043000000,,,-1360628461956669426,0.0,7.600682059891259,152.0,1.0,56,2,0.0,85026,434152921805447,14,41.76055145263672,107.89071715763572,0.15,16,76583.1029527536,340282346638528860000000000000000000000,1575420030,,,,0,,6,,38.160552978515625,-5.878973752260207,1.5000000237487257,-5.878973752260207,1.5000000237487257,C,31191821478000
Raw,1676594134999,891043000000,,,-1360628461956669426,0.0,7.600682059891259,152.0,1.0,56,11,0.0,85026,434152909917543,13,42.67353820800781,568.9545677372091,0.15,16,502068.0337650347,340282346638528860000000000000000000000,1575420030,,,,0,,6,,39.07353973388672,-5.878973752260207,1.5000000237487257,-5.878973752260207,1.5000000237487257,C,31191821478000
Raw,1676594134999,891043000000,,,-1360628461956669426,0.0,7.600682059891259,152.0,1.0,56,25,0.0,85026,434152912026314,18,38.530029296875,467.9718958829699,0.15,16,404922.8412500564,340282346638528860000000000000000000000,1575420030,,,,0,,6,,34.930030822753906,-5.878973752260207,1.5000000237487257,-5.878973752260207,1.5000000237487257,C,31191821478000
Raw,1676594134999,891043000000,,,-1360628461956669426,0.0,7.600682059891259,152.0,1.0,56,30,0.0,85026,434152915469770,13,42.450042724609375,-332.7272211249581,0.15,16,-302560.11026763916,340282346638528860000000000000000000000,1575420030,,,,0,,6,,38.85004425048828,-5.878973752260207,1.5000000237487257,-5.878973752260207,1.5000000237487257,C,31191821478000
Raw,1676594134999,891043000000,,,-1360628461956669426,0.0,7.600682059891259,152.0,1.0,56,34,0.0,85026,434152919255455,23,35.55964660644531,-297.0216557751619,0.5127667640497022,16,-287520.15923939226,340282346638528860000000000000000000000,1575420030,,,,0,,6,,31.95964813232422,-5.878973752260207,1.5000000237487257,-5.878973752260207,1.5000000237487257,C,31191821478000
Raw,1676594134999,891043000000,,,-1360628461956669426,0.0,7.600682059891259,152.0,1.0,56,36,0.0,85026,434152920577795,13,42.2546272277832,234.98739276149468,0.15,16,182988.28401148232,340282346638528860000000000000000000000,1575420030,,,,0,,6,,38.65462875366211,-5.878973752260207,1.5000000237487257,-5.878973752260207,1.5000000237487257,C,31191821478000
Raw,1676594134999,891043000000,,,-1360628461956669426,0.0,7.600682059891259,152.0,1.0,56,2,0.0,84003,434152921805963,14,32.091041564941406,107.46881894895398,0.671363284719896,16,76457.7932392449,340282346638528860000000000000000000000,1176450050,,,,0,,6,,28.491043090820312,-4.216632805764675,1.8302881966711166,-4.216632805764675,1.5000000237487257,Q,31191821478000
Raw,1676594134999,891043000000,,,-1360628461956669426,0.0,7.600682059891259,152.0,1.0,56,11,0.0,84003,434152909918056,10,34.90795135498047,568.8380057359011,0.5425518022385842,16,504807.9194224651,340282346638528860000000000000000000000,1176450050,,,,0,,6,,31.307950973510742,4.279776476323602,1.8302881966711166,4.279776476323602,1.5000000237487257,Q,31191821478000
Raw,1676594134999,891043000000,,,-1360628461956669426,0.0,7.600682059891259,152.0,1.0,56,25,0.0,84003,434152912026805,6,36.817020416259766,467.9652498039479,0.15,16,405313.70643579494,340282346638528860000000000000000000000,1176450050,,,,0,,6,,33.21702194213867,-8.649541996419428,1.8302881966711166,-8.649541996419428,1.5000000237487257,Q,31191821478000
Raw,1676594134999,891043000000,,,-1360628461956669426,0.0,7.600682059891259,152.0,1.0,56,30,0.0,84003,434152915470287,12,38.30476379394531,-332.8170283978957,0.15,16,-302983.9012027893,340282346638528860000000000000000000000,1176450050,,,,0,,6,,34.70476531982422,-8.2801328971982,1.8302881966711166,-8.2801328971982,1.5000000237487257,Q,31191821478000
Raw,1676594134999,891043000000,,,-1360628461956669426,0.0,7.600682059891259,152.0,1.0,56,34,0.0,84003,434152919256030,8,38.5768928527832,-296.6012145914965,0.15,16,-288253.3313238265,340282346638528860000000000000000000000,1176450050,,,,0,,6,,34.97689437866211,-9.942473843693731,1.8302881966711166,-9.942473843693731,1.5000000237487257,Q,31191821478000
Raw,1676594134999,891043000000,,,-1360628461956669426,0.0,7.600682059891259,152.0,1.0,56,36,0.0,84003,434152920578293,6,41.95693588256836,234.89893174558972,0.15,16,183148.81356537144,340282346638528860000000000000000000000,1176450050,,,,0,,6,,38.356937408447266,-10.865996591746804,1.8302881966711166,-10.865996591746804,1.5000000237487257,Q,31191821478000
UncalGyro,1676594135093,31191915884169,2.1233675,1.5224289,0.8895725,0.0007478541,-0.0013319484,-0.00032400913
UncalAccel,1676594135098,31191920121840,-1.8538394,3.856632,9.491131,0.037048545,-0.031444572,0.0098014325
UncalGyro,1676594135102,31191924368991,1.8318322,1.1946996,0.60231316,0.0007478541,-0.0013319484,-0.00032400913
OrientationDeg,1676594135098,31191920121840,95.0,3.0,-12.0
Fix,FLP,37.4313220000,-122.1549911000,-16.200000762939453,0.7240191,5.369,84.383835,1676594135000,,,31191822577403,2.8864045
UncalMag,1676594135102,31191924568119,-193.5896,761.91437,391.64438,-174.57417,771.0116,430.86337
UncalAccel,1676594135106,31191928600284,-2.9359934,5.488537,9.156136,0.037048545,-0.031444572,0.0098014325
OrientationDeg,1676594135106,31191928600284,95.0,4.0,-12.0
UncalGyro,1676594135110,31191932833071,1.3460416,0.61911196,0.12782355,0.0007478541,-0.0013319484,-0.00032400913
UncalMag,1676594135112,31191934584313,-194.0654,760.84076,391.0344,-174.57417,771.0116,430.86337
UncalAccel,1676594135115,31191937080711,-4.211368,6.9355965,9.866206,0.037048545,-0.031444572,0.0098014325
OrientationDeg,1676594135115,31191937080711,95.0,4.0,-13.0
UncalGyro,1676594135119,31191941325503,0.5907067,-0.089186326,-0.5155703,0.0007478541,-0.0013319484,-0.00032400913
UncalMag,1676594135122,31191944585044,-194.23619,761.5728,392.0592,-174.57417,771.0116,430.86337
UncalAccel,1676594135123,31191945568056,-4.642076,7.299904,10.868798,0.037048545,-0.031444572,0.0098014325
OrientationDeg,1676594135123,31191945568056,95.0,4.0,-13.0
UncalGyro,1676594135127,31191949807823,-0.33429602,-0.56398135,-1.210124,0.0007478541,-0.0013319484,-0.00032400913
UncalAccel,1676594135132,31191954047049,-3.3140593,6.1531434,11.269596,0.037048545,-0.031444572,0.0098014325
OrientationDeg,1676594135132,31191954047049,96.0,4.0,-13.0
UncalMag,1676594135132,31191954573610,-194.23619,761.47516,391.925,-174.57417,771.0116,430.86337
UncalGyro,1676594135136,31191958289450,-1.1242975,-0.67347896,-1.738828,0.0007478541,-0.0013319484,-0.00032400913
UncalAccel,1676594135140,31191962523915,-1.451247,4.7766724,10.639088,0.037048545,-0.031444572,0.0098014325
OrientationDeg,1676594135140,31191962523915,97.0,4.0,-12.0
UncalMag,1676594135142,31191964573772,-193.9068,761.79236,390.6562,-174.57417,771.0116,430.86337
UncalGyro,1676594135144,31191966753103,-1.5926784,-0.61575216,-2.0546453,0.0007478541,-0.0013319484,-0.00032400913
UncalAccel,1676594135149,31191971008840,-0.033499517,3.4354951,10.067801,0.037048545,-0.031444572,0.0098014325
OrientationDeg,1676594135149,31191971008840,98.0,3.0,-11.0
UncalMag,1676594135152,31191974584473,-193.8824,762.1706,391.3516,-174.57417,771.0116,430.86337
UncalGyro,1676594135153,31191975250702,-1.7889189,-0.5540548,-2.1830797,0.0007478541,-0.0013319484,-0.00032400913
UncalAccel,1676594135157,31191979494557,0.96430755,1.9710877,10.019945,0.037048545,-0.031444572,0.0098014325
OrientationDeg,1676594135157,31191979494557,99.0,3.0,-10.0
UncalGyro,1676594135161,31191983729389,-1.8264871,-0.42714754,-2.1426098,0.0007478541,-0.0013319484,-0.00032400913
UncalMag,1676594135162,31191984583617,-194.3094,762.0486,390.6074,-174.57417,771.0116,430.86337
UncalAccel,1676594135165,31191987961515,2.2175484,0.21774685,11.88874,0.037048545,-0.031444572,0.0098014325
OrientationDeg,1676594135165,31191987961515,100.0,3.0,-9.0
UncalGyro,1676594135170,31191992216012,-1.7982346,-0.15683965,-1.9543107,0.0007478541,-0.0013319484,-0.00032400913
UncalMag,1676594135172,31191994584268,-194.26059,762.7318,390.2902,-174.57417,771.0116,430.86337
UncalAccel,1676594135174,31191996456776,2.2971098,-0.51146585,10.088738,0.037048545,-0.031444572,0.0098014325
OrientationDeg,1676594135174,31191996456776,101.0,3.0,-8.0
UncalGyro,1676594135178,31192000687518,-1.6992744,-0.05207626,-1.7221818,0.0007478541,-0.0013319484,-0.00032400913
UncalMag,1676594135182,31192004584552,-194.57779,762.74396,390.6562,-174.57417,771.0116,430.86337
UncalAccel,1676594135182,31192004931394,2.3048863,-0.56470615,10.375279,0.037048545,-0.031444572,0.0098014325
OrientationDeg,1676594135182,31192004931394,101.0,4.0,-7.0
UncalGyro,1676594135187,31192009164568,-1.5361733,0.08155051,-1.51968,0.0007478541,-0.0013319484,-0.00032400913
UncalAccel,1676594135191,31192013417904,1.8957137,-0.61435723,10.100702,0.037048545,-0.031444572,0.0098014325
OrientationDeg,1676594135191,31192013417904,102.0,4.0,-6.0
UncalMag,1676594135192,31192014574582,-194.6632,763.0978,391.1076,-174.57417,771.0116,430.86337
UncalGyro,1676594135195,31192017657181,-1.3031282,0.19333886,-1.3489432,0.0007478541,-0.0013319484,-0.00032400913
UncalAccel,1676594135199,31192021899440,1.4183456,-0.43489552,9.853643,0.037048545,-0.031444572,0.0098014325
OrientationDeg,1676594135199,31192021899440,103.0,4.0,-6.0
UncalMag,1676594135202,31192024584347,-194.1996,763.8908,391.16858,-174.57417,771.0116,430.86337
UncalGyro,1676594135204,31192026139766,-1.0238101,0.29153544,-1.2162327,0.0007478541,-0.0013319484,-0.00032400913
UncalAccel,1676594135208,31192030378516,1.0360922,-0.13519448,9.610772,0.037048545,-0.031444572,0.0098014325
OrientationDeg,1676594135208,31192030378516,103.0,4.0,-5.0
UncalMag,1676594135212,31192034584387,-193.8824,763.8786,390.42438,-174.57417,771.0116,430.86337
UncalGyro,1676594135212,31192034619827,-0.7324274,0.37323865,-1.1209377,0.0007478541,-0.0013319484,-0.00032400913
UncalAccel,1676594135216,31192038854375,0.71665037,0.06460621,9.316455,0.037048545,-0.031444572,0.0098014325
OrientationDeg,1676594135216,31192038854375,104.0,4.0,-5.0
UncalGyro,1676594135221,31192043101007,-0.462425,0.41126502,-1.0537425,0.0007478541,-0.0013319484,-0.00032400913
UncalMag,1676594135222,31192044584182,-193.7726,763.8908,390.5464,-174.57417,771.0116,430.86337
UncalAccel,1676594135225,31192047340417,0.45583272,0.19262223,8.956335,0.037048545,-0.031444572,0.0098014325
OrientationDeg,1676594135225,31192047340417,104.0,5.0,-5.0
UncalGyro,1676594135229,31192051582382,-0.22586742,0.35995236,-1.0144944,0.0007478541,-0.0013319484,-0.00032400913
UncalMag,1676594135232,31192054584100,-193.9068,763.4516,390.5708,-174.57417,771.0116,430.86337
UncalAccel,1676594135233,31192055817346,0.23629123,0.38823548,8.753544,0.037048545,-0.031444572,0.0098014325
OrientationDeg,1676594135233,31192055817346,105.0,5.0,-5.0
UncalGyro,1676594135238,31192060064029,-0.028710667,0.23350324,-1.0129673,0.0007478541,-0.0013319484,-0.00032400913
UncalAccel,1676594135242,31192064300316,0.053240303,0.6119644,8.765508,0.037048545,-0.031444572,0.0098014325
OrientationDeg,1676594135242,31192064300316,105.0,5.0,-5.0
UncalMag,1676594135242,31192064590569,-192.6624,763.37836,390.156,-174.57417,771.0116,430.86337
UncalGyro,1676594135246,31192068546419,0.12293663,0.094531395,-1.0340421,0.0007478541,-0.0013319484,-0.00032400913
UncalAccel,1676594135250,31192072784975,-0.04366901,0.74536425,8.840881,0.037048545,-0.031444572,0.0098014325
OrientationDeg,1676594135250,31192072784975,106.0,5.0,-5.0
UncalMag,1676594135252,31192074584302,-192.577,763.0246,390.3146,-174.57417,771.0116,430.86337
UncalGyro,1676594135255,31192077028708,0.22815818,-0.02687807,-1.0627528,0.0007478541,-0.0013319484,-0.00032400913
UncalAccel,1676594135259,31192081265820,-0.07776674,0.81236327,8.882756,0.037048545,-0.031444572,0.0098014325
OrientationDeg,1676594135259,31192081265820,106.0,5.0,-5.0
UncalMag,1676594135262,31192084594759,-193.30899,763.0124,390.32678,-174.57417,771.0116,430.86337
UncalGyro,1676594135263,31192085507306,0.28848112,-0.12843442,-1.0896308,0.0007478541,-0.0013319484,-0.00032400913
UncalAccel,1676594135267,31192089747000,-0.09212367,0.78783685,8.935398,0.037048545,-0.031444572,0.0098014325
OrientationDeg,1676594135268,31192089747000,107.0,5.0,-5.0
UncalGyro,1676594135271,31192093989788,0.30604348,-0.2182316,-1.110553,0.0007478541,-0.0013319484,-0.00032400913
UncalMag,1676594135272,31192094584219,-193.4188,762.85376,390.6562,-174.57417,771.0116,430.86337
UncalAccel,1676594135276,31192098228821,-0.13100705,0.7160522,9.016754,0.037048545,-0.031444572,0.0098014325
OrientationDeg,1676594135276,31192098228821,107.0,5.0,-5.0
UncalGyro,1676594135280,31192102471191,0.28725937,-0.30680707,-1.1171198,0.0007478541,-0.0013319484,-0.00032400913
UncalMag,1676594135282,31192104584219,-193.2358,762.5,390.69278,-174.57417,771.0116,430.86337
UncalAccel,1676594135284,31192106712189,-0.19800608,0.60059845,9.136395,0.037048545,-0.031444572,0.0098014325
OrientationDeg,1676594135284,31192106712189,108.0,5.0,-5.0
UncalGyro,1676594135288,31192110961965,0.24862215,-0.38072178,-1.1134546,0.0007478541,-0.0013319484,-0.00032400913
UncalMag,1676594135292,31192114584055,-192.4306,761.9266,391.132,-174.57417,771.0116,430.86337
UncalAccel,1676594135293,31192115190907,-0.27996024,0.46061835,9.30808,0.037048545,-0.031444572,0.0098014325
OrientationDeg,1676594135293,31192115190907,108.0,4.0,-5.0
UncalGyro,1676594135297,31192119431965,0.1994475,-0.42531493,-1.0990993,0.0007478541,-0.0013319484,-0.00032400913
UncalAccel,1676594135301,31192123666756,-0.31405798,0.3786642,9.41815,0.037048545,-0.031444572,0.0098014325
OrientationDeg,1676594135301,31192123666756,109.0,4.0,-5.0
UncalMag,1676594135302,31192124573556,-192.8942,761.1946,390.48538,-174.57417,771.0116,430.86337
UncalGyro,1676594135304,31192127911080,0.15347989,-0.4334089,-1.0711522,0.0007478541,-0.0013319484,-0.00032400913
UncalAccel,1676594135310,31192132138069,-0.29970104,0.3164508,9.499506,0.037048545,-0.031444572,0.0098014325
OrientationDeg,1676594135310,31192132138069,109.0,4.0,-5.0
UncalMag,1676594135312,31192134584298,-193.3944,761.5728,391.681,-174.57417,771.0116,430.86337
UncalGyro,1676594135314,31192136395984,0.12782355,-0.40576723,-1.026559,0.0007478541,-0.0013319484,-0.00032400913
UncalAccel,1676594135318,31192140634386,-0.25663024,0.16331014,9.629914,0.037048545,-0.031444572,0.0098014325
OrientationDeg,1676594135318,31192140634386,110.0,4.0,-5.0
UncalMag,1676594135322,31192144584094,-192.83319,760.6212,391.43698,-174.57417,771.0116,430.86337
UncalGyro,1676594135322,31192144879686,0.13255776,-0.3462079,-0.9596693,0.0007478541,-0.0013319484,-0.00032400913
UncalAccel,1676594135327,31192149113094,-0.25663024,0.19680966,9.605389,0.037048545,-0.031444572,0.0098014325
OrientationDeg,1676594135327,31192149113094,110.0,4.0,-5.0
UncalGyro,1676594135331,31192153357785,0.129198,-0.28038713,-0.8880454,0.0007478541,-0.0013319484,-0.00032400913
UncalMag,1676594135332,31192154584256,-193.2236,760.96277,391.4126,-174.57417,771.0116,430.86337
UncalAccel,1676594135335,31192157597489,-0.36251262,0.32542387,9.580264,0.037048545,-0.031444572,0.0098014325
OrientationDeg,1676594135335,31192157597489,111.0,4.0,-5.0
UncalGyro,1676594135339,31192161841365,0.10338894,-0.21792617,-0.8210029,0.0007478541,-0.0013319484,-0.00032400913
UncalMag,1676594135342,31192164584214,-193.65059,760.7798,391.498,-174.57417,771.0116,430.86337
UncalAccel,1676594135344,31192166080786,-0.5491528,0.42532423,9.492926,0.037048545,-0.031444572,0.0098014325
OrientationDeg,1676594135344,31192166080786,111.0,4.0,-5.0
UncalGyro,1676594135348,31192170321437,0.0693332,-0.16829337,-0.75961095,0.0007478541,-0.0013319484,-0.00032400913
UncalAccel,1676594135352,31192174559565,-0.73519474,0.51505506,9.410374,0.037048545,-0.031444572,0.0098014325
OrientationDeg,1676594135352,31192174559565,111.0,4.0,-5.0
UncalMag,1676594135352,31192174592270,-193.3578,760.41376,390.9246,-174.57417,771.0116,430.86337
UncalGyro,1676594135356,31192178801375,0.040011674,-0.13103059,-0.7086037,0.0007478541,-0.0013319484,-0.00032400913
UncalAccel,1676594135361,31192183041131,-0.88414794,0.58624154,9.39482,0.037048545,-0.031444572,0.0098014325
OrientationDeg,1676594135361,31192183041131,112.0,4.0,-5.0
UncalMag,1676594135362,31192184575261,-193.8702,760.67,390.9978,-174.57417,771.0116,430.86337
UncalGyro,1676594135365,31192187282840,0.012370021,-0.10598512,-0.66630125,0.0007478541,-0.0013319484,-0.00032400913
UncalAccel,1676594135369,31192191522180,-0.96550393,0.65264237,9.364909,0.037048545,-0.031444572,0.0098014325
OrientationDeg,1676594135369,31192191522180,112.0,4.0,-5.0
UncalMag,1676594135372,31192194584090,-193.7116,759.88916,390.9246,-174.57417,771.0116,430.86337
UncalGyro,1676594135373,31192195760471,-0.015271631,-0.08903361,-0.6243043,0.0007478541,-0.0013319484,-0.00032400913
UncalAccel,1676594135377,31192199997959,-1.0271192,0.69092757,9.307482,0.037048545,-0.031444572,0.0098014325
OrientationDeg,1676594135377,31192199997959,112.0,4.0,-5.0
UncalGyro,1676594135382,31192204245323,-0.043982297,-0.08246681,-0.58108556,0.0007478541,-0.0013319484,-0.00032400913
UncalMag,1676594135382,31192204573510,-193.6872,760.1698,391.7176,-174.57417,771.0116,430.86337
UncalAccel,1676594135386,31192208485802,-1.07019,0.6759724,9.273384,0.037048545,-0.031444572,0.0098014325
OrientationDeg,1676594135386,31192208485802,113.0,4.0,-5.0
UncalGyro,1676594135390,31192212728304,-0.059406646,-0.08307768,-0.54305923,0.0007478541,-0.0013319484,-0.00032400913
UncalMag,1676594135392,31192214584170,-193.5896,760.1698,391.3516,-174.57417,771.0116,430.86337
UncalAccel,1676594135394,31192216964123,-1.0881361,0.6520442,9.173484,0.037048545,-0.031444572,0.0098014325
OrientationDeg,1676594135394,31192216964123,113.0,4.0,-5.0
UncalGyro,1676594135399,31192221197379,-0.05375614,-0.09697486,-0.5010622,0.0007478541,-0.0013319484,-0.00032400913
UncalMag,1676594135402,31192224584250,-193.60179,759.9746,390.8148,-174.57417,771.0116,430.86337
UncalAccel,1676594135403,31192225447806,-1.0348958,0.6334998,9.040084,0.037048545,-0.031444572,0.0098014325
OrientationDeg,1676594135403,31192225447806,113.0,4.0,-5.0
UncalGyro,1676594135407,31192229690400,-0.027794369,-0.124311075,-0.45570546,0.0007478541,-0.0013319484,-0.00032400913
UncalAccel,1676594135411,31192233932139,-0.96729857,0.63888365,8.959326,0.037048545,-0.031444572,0.0098014325
OrientationDeg,1676594135411,31192233932139,113.0,4.0,-5.0
UncalMag,1676594135412,31192234571717,-193.3822,760.0722,391.0832,-174.57417,771.0116,430.86337
UncalGyro,1676594135416,31192238171611,0.007788532,-0.16050485,-0.40622538,0.0007478541,-0.0013319484,-0.00032400913
UncalAccel,1676594135420,31192242410186,-0.94337034,0.65324056,8.98804,0.037048545,-0.031444572,0.0098014325
OrientationDeg,1676594135420,31192242410186,114.0,4.0,-5.0
UncalMag,1676594135422,31192244584371,-193.0894,759.7062,390.2536,-174.57417,771.0116,430.86337
UncalGyro,1676594135424,31192246651977,0.03283401,-0.2060143,-0.3556763,0.0007478541,-0.0013319484,-0.00032400913
UncalAccel,1676594135428,31192250887420,-0.9738788,0.74416786,9.131011,0.037048545,-0.031444572,0.0098014325
OrientationDeg,1676594135428,31192250887420,114.0,3.0,-5.0
UncalMag,1676594135432,31192254584248,-193.0894,759.7428,391.3516,-174.57417,771.0116,430.86337
UncalGyro,1676594135433,31192255114765,0.023518313,-0.2706133,-0.3191771,0.0007478541,-0.0013319484,-0.00032400913
UncalAccel,1676594135437,31192259362456,-1.0187442,0.8392825,9.34457,0.037048545,-0.031444572,0.0098014325
OrientationDeg,1676594135437,31192259362456,114.0,3.0,-5.0
UncalGyro,1676594135441,31192263615446,-0.01863139,-0.36147952,-0.29703322,0.0007478541,-0.0013319484,-0.00032400913
UncalMag,1676594135442,31192264566262,-193.9312,759.7428,391.986,-174.57417,771.0116,430.86337
UncalAccel,1676594135445,31192267858050,-1.0683953,0.8769695,9.54497,0.037048545,-0.031444572,0.0098014325
OrientationDeg,1676594135445,31192267858050,114.0,3.0,-5.0
UncalGyro,1676594135450,31192272097531,-0.069027774,-0.47632217,-0.2843578,0.0007478541,-0.0013319484,-0.00032400913
UncalMag,1676594135452,31192274568011,-192.54039,760.21857,392.3032,-174.57417,771.0116,430.86337
UncalAccel,1676594135454,31192276330737,-0.9936196,0.8578269,9.802796,0.037048545,-0.031444572,0.0098014325
OrientationDeg,1676594135454,31192276330737,114.0,3.0,-5.0
UncalGyro,1676594135458,31192280574104,-0.10140363,-0.5896377,-0.28115073,0.0007478541,-0.0013319484,-0.00032400913
