# 
# Header Description:
# 
# Version: v3.0.5.6 Platform: 13 Manufacturer: Google Model: Pixel 7
# 
# Raw,utcTimeMillis,TimeNanos,LeapSecond,TimeUncertaintyNanos,FullBiasNanos,BiasNanos,BiasUncertaintyNanos,DriftNanosPerSecond,DriftUncertaintyNanosPerSecond,HardwareClockDiscontinuityCount,Svid,TimeOffsetNanos,State,ReceivedSvTimeNanos,ReceivedSvTimeUncertaintyNanos,Cn0DbHz,PseudorangeRateMetersPerSecond,PseudorangeRateUncertaintyMetersPerSecond,AccumulatedDeltaRangeState,AccumulatedDeltaRangeMeters,AccumulatedDeltaRangeUncertaintyMeters,CarrierFrequencyHz,CarrierCycles,CarrierPhase,CarrierPhaseUncertainty,MultipathIndicator,SnrInDb,ConstellationType,AgcDb,BasebandCn0DbHz,FullInterSignalBiasNanos,FullInterSignalBiasUncertaintyNanos,SatelliteInterSignalBiasNanos,SatelliteInterSignalBiasUncertaintyNanos,CodeType,ChipsetElapsedRealtimeNanos
# 
# UncalAccel,utcTimeMillis,elapsedRealtimeNanos,UncalAccelXMps2,UncalAccelYMps2,UncalAccelZMps2,BiasXMps2,BiasYMps2,BiasZMps2
# 
# Accel,utcTimeMillis,elapsedRealtimeNanos,AccelXMps2,AccelYMps2,AccelZMps2
# 
# UncalGyro,utcTimeMillis,elapsedRealtimeNanos,UncalGyroXRadPerSec,UncalGyroYRadPerSec,UncalGyroZRadPerSec,DriftXRadPerSec,DriftYRadPerSec,DriftZRadPerSec
# 
# Gyro,utcTimeMillis,elapsedRealtimeNanos,GyroXRadPerSec,GyroYRadPerSec,GyroZRadPerSec
# 
# UncalMag,utcTimeMillis,elapsedRealtimeNanos,UncalMagXMicroT,UncalMagYMicroT,UncalMagZMicroT,BiasXMicroT,BiasYMicroT,BiasZMicroT
# 
# Mag,utcTimeMillis,elapsedRealtimeNanos,MagXMicroT,MagYMicroT,MagZMicroT
# 
# OrientationDeg,utcTimeMillis,elapsedRealtimeNanos,yawDeg,rollDeg,pitchDeg
# 
# Fix,Provider,LatitudeDegrees,LongitudeDegrees,AltitudeMeters,SpeedMps,AccuracyMeters,BearingDegrees,UnixTimeMillis,SpeedAccuracyMps,BearingAccuracyDegrees,elapsedRealtimeNanos,VerticalAccuracyMeters
# 
# Nav,Svid,Type,Status,MessageId,Sub-messageId,Data(Bytes)
# 
# Status,UnixTimeMillis,SignalCount,SignalIndex,ConstellationType,Svid,CarrierFrequencyHz,Cn0DbHz,AzimuthDegrees,ElevationDegrees,UsedInFix,HasAlmanacData,HasEphemerisData,BasebandCn0DbHz
# 
UncalMag,1676592263938,29320760765849,-197.213,772.87,392.901,-174.57417,771.0116,430.86337
UncalGyro,1676592263947,29320769701159,-0.17134771,0.16065755,-0.23289238,0.0036226935,-0.00046395656,-0.00031180933
UncalMag,1676592263948,29320770747336,-197.396,773.297,393.0108,-174.57417,771.0116,430.86337
UncalAccel,1676592263952,29320773965516,0.00059820566,0.84047896,10.71506,0.037048545,-0.031444572,0.0098014325
UncalGyro,1676592263956,29320778215190,-0.08307768,0.17867808,-0.23289238,0.0036226935,-0.00046395656,-0.00031180933
UncalMag,1676592263958,29320780744121,-197.3716,773.6386,392.4862,-174.57417,771.0116,430.86337
UncalAccel,1676592263960,29320782454793,-0.07597212,0.78783685,10.71506,0.037048545,-0.031444572,0.0098014325
UncalGyro,1676592263964,29320786698303,0.033292156,0.19822577,-0.24022275,0.0036226935,-0.00046395656,-0.00031180933
UncalMag,1676592263968,29320790762554,-196.9446,773.7362,392.86438,-174.57417,771.0116,430.86337
UncalAccel,1676592263968,29320790933076,-0.20578274,0.79142606,10.8047905,0.037048545,-0.031444572,0.0098014325
UncalGyro,1676592263973,29320795167318,0.15027285,0.21899518,-0.2602286,0.0036226935,-0.00046395656,-0.00031180933
UncalAccel,1676592263977,29320799415935,-0.32004002,0.8530413,10.718051,0.037048545,-0.031444572,0.0098014325
UncalMag,1676592263978,29320800751161,-196.8714,773.297,392.6326,-174.57417,771.0116,430.86337
UncalGyro,1676592263981,29320803647278,0.25289822,0.22479841,-0.2883284,0.0036226935,-0.00046395656,-0.00031180933
UncalAccel,1676592263985,29320807885509,-0.3912265,0.87218386,10.650454,0.037048545,-0.031444572,0.0098014325
UncalMag,1676592263988,29320810752423,-196.1638,772.8944,393.13278,-174.57417,771.0116,430.86337
UncalGyro,1676592263990,29320812129010,0.3220787,0.2098322,-0.31642818,0.0036226935,-0.00046395656,-0.00031180933
UncalAccel,1676592263994,29320816368288,-0.4528417,0.8955139,10.526027,0.037048545,-0.031444572,0.0098014325
UncalGyro,1676592263998,29320820611828,0.3623958,0.16065755,-0.34009922,0.0036226935,-0.00046395656,-0.00031180933
UncalMag,1676592263998,29320820751487,-196.59079,772.7846,392.8766,-174.57417,771.0116,430.86337
UncalAccel,1676592264002,29320824860119,-0.4325027,0.9200403,10.34477,0.037048545,-0.031444572,0.0098014325
UncalGyro,1676592264007,29320829099723,0.3820962,0.09819659,-0.35842517,0.0036226935,-0.00046395656,-0.00031180933
UncalMag,1676592264008,29320830756777,-196.1882,772.4308,392.413,-174.57417,771.0116,430.86337
UncalAccel,1676592264011,29320833335969,-0.34636107,0.9062816,10.326226,0.037048545,-0.031444572,0.0098014325
UncalGyro,1676592264015,29320837571118,0.3839288,0.06658431,-0.37003163,0.0036226935,-0.00046395656,-0.00031180933
UncalMag,1676592264018,29320840762881,-195.871,772.4552,392.8888,-174.57417,771.0116,430.86337
UncalAccel,1676592264019,29320841811699,-0.20219351,0.88295156,10.322637,0.037048545,-0.031444572,0.0098014325
OrientationDeg,1676592264011,29320833335969,77.0,1.0,-4.0
OrientationDeg,1676592264019,29320841811699,77.0,1.0,-5.0
Fix,NLP,37.4310698000,-122.1537653000,-16.100000381469727,,70.365,,1676592232913,,,29289735000000,2.7442784
UncalGyro,1676592264024,29320846061322,0.37751472,0.07513642,-0.376293,0.0036226935,-0.00046395656,-0.00031180933
UncalAccel,1676592264028,29320850300712,-0.03888337,0.8315059,10.237692,0.037048545,-0.031444572,0.0098014325
UncalMag,1676592264028,29320850759870,-195.93199,771.5768,392.6814,-174.57417,771.0116,430.86337
OrientationDeg,1676592264028,29320850300712,77.0,1.0,-5.0
UncalGyro,1676592264032,29320854539756,0.36483926,0.11453723,-0.38224894,0.0036226935,-0.00046395656,-0.00031180933
UncalAccel,1676592264036,29320858769148,0.091525465,0.75613195,10.129416,0.037048545,-0.031444572,0.0098014325
OrientationDeg,1676592264036,29320858769148,77.0,1.0,-5.0
UncalMag,1676592264038,29320860767032,-196.54199,771.9184,392.65698,-174.57417,771.0116,430.86337
UncalGyro,1676592264041,29320863022443,0.34804046,0.17562376,-0.39843684,0.0036226935,-0.00046395656,-0.00031180933
UncalAccel,1676592264045,29320867259789,0.17407785,0.6945168,10.0061865,0.037048545,-0.031444572,0.0098014325
OrientationDeg,1676592264045,29320867259789,78.0,1.0,-5.0
UncalMag,1676592264048,29320870762923,-195.9686,770.979,393.02298,-174.57417,771.0116,430.86337
UncalGyro,1676592264049,29320871504621,0.3379612,0.25366178,-0.43676865,0.0036226935,-0.00046395656,-0.00031180933
UncalAccel,1676592264053,29320875739617,0.18005991,0.5940182,9.930214,0.037048545,-0.031444572,0.0098014325
OrientationDeg,1676592264053,29320875739617,78.0,2.0,-5.0
UncalGyro,1676592264057,29320879983381,0.3407101,0.35231653,-0.49953505,0.0036226935,-0.00046395656,-0.00031180933
UncalMag,1676592264058,29320880754134,-195.749,771.0644,392.8034,-174.57417,771.0116,430.86337
UncalAccel,1676592264062,29320884228081,0.13280165,0.45942193,9.906884,0.037048545,-0.031444572,0.0098014325
OrientationDeg,1676592264062,29320884228081,78.0,2.0,-5.0
UncalGyro,1676592264066,29320888461653,0.36361754,0.45921794,-0.57726765,0.0036226935,-0.00046395656,-0.00031180933
UncalMag,1676592264068,29320890759505,-195.5538,770.8692,391.9006,-174.57417,771.0116,430.86337
UncalAccel,1676592264070,29320892699934,0.053240303,0.3062813,9.815957,0.037048545,-0.031444572,0.0098014325
OrientationDeg,1676592264070,29320892699934,78.0,2.0,-6.0
UncalGyro,1676592264074,29320896937055,0.41233405,0.56016344,-0.66737026,0.0036226935,-0.00046395656,-0.00031180933
UncalMag,1676592264078,29320900762761,-195.5538,770.9668,392.291,-174.57417,771.0116,430.86337
UncalAccel,1676592264079,29320901179060,-0.051445685,0.15672988,9.84467,0.037048545,-0.031444572,0.0098014325
OrientationDeg,1676592264079,29320901179060,79.0,3.0,-6.0
UncalGyro,1676592264083,29320905413903,0.48640144,0.6580546,-0.7678576,0.0036226935,-0.00046395656,-0.00031180933
UncalAccel,1676592264087,29320909662510,-0.10887343,0.055633128,9.897911,0.037048545,-0.031444572,0.0098014325
OrientationDeg,1676592264087,29320909662510,79.0,3.0,-6.0
UncalMag,1676592264088,29320910752548,-195.8832,770.49097,391.4614,-174.57417,771.0116,430.86337
UncalGyro,1676592264091,29320913900597,0.5748242,0.73807794,-0.87949324,0.0036226935,-0.00046395656,-0.00031180933
UncalAccel,1676592264096,29320918134872,-0.13280165,-0.064008005,9.988838,0.037048545,-0.031444572,0.0098014325
OrientationDeg,1676592264096,29320918134872,80.0,3.0,-6.0
UncalMag,1676592264098,29320920762964,-195.3708,770.5154,391.9372,-174.57417,771.0116,430.86337
UncalGyro,1676592264100,29320922383610,0.6601926,0.77106464,-0.9943359,0.0036226935,-0.00046395656,-0.00031180933
UncalAccel,1676592264104,29320926622990,-0.19561325,-0.13220344,10.0983095,0.037048545,-0.031444572,0.0098014325
OrientationDeg,1676592264104,29320926622990,80.0,4.0,-7.0
UncalMag,1676592264108,29320930763046,-195.0658,770.16156,391.22958,-174.57417,771.0116,430.86337
UncalGyro,1676592264108,29320930867446,0.74097955,0.7257079,-1.1067351,0.0036226935,-0.00046395656,-0.00031180933
UncalAccel,1676592264113,29320935103387,-0.33379877,-0.16630118,10.059426,0.037048545,-0.031444572,0.0098014325
OrientationDeg,1676592264113,29320935103387,81.0,4.0,-7.0
UncalGyro,1676592264117,29320939345463,0.81138176,0.6075055,-1.2151637,0.0036226935,-0.00046395656,-0.00031180933
UncalMag,1676592264118,29320940762762,-195.3342,769.3808,391.7786,-174.57417,771.0116,430.86337
UncalAccel,1676592264121,29320943583581,-0.50069815,-0.2536392,10.101899,0.037048545,-0.031444572,0.0098014325
OrientationDeg,1676592264121,29320943583581,81.0,5.0,-7.0
UncalGyro,1676592264125,29320947822463,0.8604037,0.47051895,-1.3243558,0.0036226935,-0.00046395656,-0.00031180933
UncalMag,1676592264128,29320950759629,-194.956,768.57556,390.85138,-174.57417,771.0116,430.86337
UncalAccel,1676592264130,29320952053909,-0.66999036,-0.2213361,10.281959,0.037048545,-0.031444572,0.0098014325
OrientationDeg,1676592264130,29320952053909,82.0,5.0,-8.0
UncalGyro,1676592264134,29320956302464,0.88086766,0.33750305,-1.4402676,0.0036226935,-0.00046395656,-0.00031180933
UncalAccel,1676592264139,29320960544785,-0.89013004,-0.1268196,10.227522,0.037048545,-0.031444572,0.0098014325
OrientationDeg,1676592264138,29320960544785,83.0,5.0,-8.0
UncalMag,1676592264138,29320960751084,-193.98,767.563,391.07098,-174.57417,771.0116,430.86337
UncalGyro,1676592264142,29320964788010,0.88040954,0.1704314,-1.568091,0.0036226935,-0.00046395656,-0.00031180933
UncalAccel,1676592264147,29320969025376,-1.1228321,-0.11365908,10.021141,0.037048545,-0.031444572,0.0098014325
UncalMag,1676592264148,29320970762233,-193.94339,766.4162,390.7904,-174.57417,771.0116,430.86337
OrientationDeg,1676592264147,29320969025376,84.0,5.0,-8.0
UncalGyro,1676592264151,29320973264786,0.840856,-0.0693332,-1.7127135,0.0036226935,-0.00046395656,-0.00031180933
UncalAccel,1676592264155,29320977505418,-1.2981063,-0.19561325,9.843474,0.037048545,-0.031444572,0.0098014325
OrientationDeg,1676592264155,29320977505418,85.0,5.0,-9.0
UncalMag,1676592264158,29320980762437,-193.8458,766.1966,391.9494,-174.57417,771.0116,430.86337
UncalGyro,1676592264159,29320981744228,0.74296486,-0.40194935,-1.8832976,0.0036226935,-0.00046395656,-0.00031180933
UncalAccel,1676592264163,29320985975642,-1.4362918,-0.2111666,9.828519,0.037048545,-0.031444572,0.0098014325
OrientationDeg,1676592264163,29320985975642,86.0,5.0,-9.0
UncalGyro,1676592264168,29320990227311,0.57360244,-0.8213083,-2.0920608,0.0036226935,-0.00046395656,-0.00031180933
UncalMag,1676592264168,29320990752183,-194.3216,765.29376,391.5102,-174.57417,771.0116,430.86337
UncalAccel,1676592264172,29320994466812,-1.3806586,-0.16749759,9.976275,0.037048545,-0.031444572,0.0098014325
OrientationDeg,1676592264172,29320994466812,87.0,5.0,-9.0
UncalGyro,1676592264176,29320998710598,0.3371976,-1.3100005,-2.3374758,0.0036226935,-0.00046395656,-0.00031180933
UncalMag,1676592264178,29321000762722,-195.1024,764.5984,391.96158,-174.57417,771.0116,430.86337
UncalAccel,1676592264180,29321002942765,-1.204188,-0.08075777,9.982258,0.037048545,-0.031444572,0.0098014325
OrientationDeg,1676592264180,29321002942765,88.0,4.0,-9.0
UncalGyro,1676592264185,29321007185055,0.05971208,-1.8559613,-2.6183212,0.0036226935,-0.00046395656,-0.00031180933
UncalMag,1676592264188,29321010762723,-195.32199,764.23236,391.64438,-174.57417,771.0116,430.86337
UncalAccel,1676592264189,29321011427303,-0.951147,0.011964113,9.968499,0.037048545,-0.031444572,0.0098014325
OrientationDeg,1676592264189,29321011427303,89.0,3.0,-9.0
UncalGyro,1676592264193,29321015669490,-0.24266621,-2.4284947,-2.9174924,0.0036226935,-0.00046395656,-0.00031180933
UncalAccel,1676592264197,29321019907651,-0.6305088,-0.029312078,9.999606,0.037048545,-0.031444572,0.0098014325
UncalMag,1676592264198,29321020752428,-196.5176,763.7444,393.3646,-174.57417,771.0116,430.86337
OrientationDeg,1676592264197,29321019907651,91.0,2.0,-8.0
UncalGyro,1676592264202,29321024143012,-0.5529858,-2.97751,-3.2010865,0.0036226935,-0.00046395656,-0.00031180933
UncalAccel,1676592264206,29321028377417,-0.33379877,-0.13280165,10.073783,0.037048545,-0.031444572,0.0098014325
OrientationDeg,1676592264206,29321028377417,93.0,1.0,-8.0
UncalMag,1676592264208,29321030763008,-196.6518,763.1344,393.4622,-174.57417,771.0116,430.86337
UncalGyro,1676592264210,29321032629624,-0.84864455,-3.4723108,-3.4558175,0.0036226935,-0.00046395656,-0.00031180933
UncalAccel,1676592264214,29321036869890,-0.05623133,-0.24586253,10.142577,0.037048545,-0.031444572,0.0098014325
OrientationDeg,1676592264214,29321036869890,94.0,0.0,-8.0
UncalMag,1676592264218,29321040762886,-198.6526,763.0124,393.60858,-174.57417,771.0116,430.86337
UncalGyro,1676592264219,29321041111091,-1.098183,-3.90236,-3.6796994,0.0036226935,-0.00046395656,-0.00031180933
UncalAccel,1676592264223,29321045338386,0.24945176,-0.34456646,10.226326,0.037048545,-0.031444572,0.0098014325
OrientationDeg,1676592264223,29321045338386,96.0,-1.0,-7.0
UncalGyro,1676592264227,29321049590268,-1.2626585,-4.255898,-3.8657079,0.0036226935,-0.00046395656,-0.00031180933
UncalMag,1676592264228,29321050761950,-199.836,762.42676,395.4386,-174.57417,771.0116,430.86337
UncalAccel,1676592264231,29321053829444,0.6562316,-0.4139583,10.262816,0.037048545,-0.031444572,0.0098014325
OrientationDeg,1676592264231,29321053829444,98.0,-3.0,-6.0
UncalGyro,1676592264236,29321058069771,-1.3141239,-4.498106,-3.9990294,0.0036226935,-0.00046395656,-0.00031180933
UncalMag,1676592264238,29321060763090,-200.79979,762.0608,395.4996,-174.57417,771.0116,430.86337
UncalAccel,1676592264240,29321062292203,1.1964114,-0.50189453,10.386046,0.037048545,-0.031444572,0.0098014325
OrientationDeg,1676592264240,29321062292203,100.0,-5.0,-6.0
UncalGyro,1676592264244,29321066542021,-1.2411255,-4.5520153,-4.0814962,0.0036226935,-0.00046395656,-0.00031180933
UncalMag,1676592264248,29321070763009,-202.2272,761.04816,397.4638,-174.57417,771.0116,430.86337
UncalAccel,1676592264248,29321070790902,1.8215362,-0.48394838,10.566705,0.037048545,-0.031444572,0.0098014325
OrientationDeg,1676592264248,29321070790902,102.0,-7.0,-6.0
UncalGyro,1676592264253,29321075036923,-1.0477866,-4.3849435,-4.1103597,0.0036226935,-0.00046395656,-0.00031180933
UncalAccel,1676592264257,29321079272683,2.5178475,-0.43728834,10.795219,0.037048545,-0.031444572,0.0098014325
UncalMag,1676592264258,29321080764759,-202.6908,760.2796,398.025,-174.57417,771.0116,430.86337
OrientationDeg,1676592264257,29321079272683,104.0,-9.0,-6.0
UncalGyro,1676592264261,29321083508136,-0.77472985,-3.9894083,-4.053702,0.0036226935,-0.00046395656,-0.00031180933
UncalAccel,1676592264265,29321087748015,3.1657043,-0.30388847,11.032109,0.037048545,-0.031444572,0.0098014325
OrientationDeg,1676592264265,29321087748015,106.0,-11.0,-6.0
UncalMag,1676592264268,29321090762684,-204.19139,759.68176,399.48898,-174.57417,771.0116,430.86337
UncalGyro,1676592264269,29321091990315,-0.4382958,-3.3597589,-3.898542,0.0036226935,-0.00046395656,-0.00031180933
UncalAccel,1676592264274,29321096223997,3.8285162,-0.04127619,11.063814,0.037048545,-0.031444572,0.0098014325
OrientationDeg,1676592264274,29321096223997,108.0,-12.0,-6.0
UncalGyro,1676592264278,29321100473794,-0.07620544,-2.6080892,-3.6448803,0.0036226935,-0.00046395656,-0.00031180933
UncalMag,1676592264278,29321100758615,-204.472,758.6448,399.85498,-174.57417,771.0116,430.86337
UncalAccel,1676592264282,29321104712746,4.456034,0.21714866,10.780264,0.037048545,-0.031444572,0.0098014325
OrientationDeg,1676592264282,29321104712746,110.0,-13.0,-6.0
UncalGyro,1676592264286,29321108956949,0.2509129,-1.8872682,-3.278972,0.0036226935,-0.00046395656,-0.00031180933
UncalMag,1676592264288,29321110762725,-204.8624,757.2662,400.7456,-174.57417,771.0116,430.86337
UncalAccel,1676592264291,29321113190337,4.879564,0.4636094,10.872388,0.037048545,-0.031444572,0.0098014325
OrientationDeg,1676592264291,29321113190337,111.0,-13.0,-7.0
UncalGyro,1676592264295,29321117423319,0.44929138,-1.2145529,-2.803108,0.0036226935,-0.00046395656,-0.00031180933
UncalMag,1676592264298,29321120762766,-205.204,757.01,401.2946,-174.57417,771.0116,430.86337
UncalAccel,1676592264299,29321121672871,4.503292,0.7962117,11.087742,0.037048545,-0.031444572,0.0098014325
OrientationDeg,1676592264299,29321121672871,112.0,-14.0,-7.0
UncalGyro,1676592264303,29321125914468,0.4718934,-0.6440047,-2.324495,0.0036226935,-0.00046395656,-0.00031180933
UncalAccel,1676592264309,29321130156697,3.5623147,1.2891332,10.5589285,0.037048545,-0.031444572,0.0098014325
UncalMag,1676592264308,29321130752960,-204.5452,755.729,401.6972,-174.57417,771.0116,430.86337
OrientationDeg,1676592264308,29321130156697,113.0,-14.0,-8.0
UncalGyro,1676592264312,29321134395883,0.3378085,-0.32452217,-1.9521726,0.0036226935,-0.00046395656,-0.00031180933
UncalAccel,1676592264316,29321138634318,2.4299114,1.4608182,9.692128,0.037048545,-0.031444572,0.0098014325
OrientationDeg,1676592264316,29321138634318,114.0,-14.0,-8.0
UncalMag,1676592264318,29321140762848,-204.899,755.0458,402.1486,-174.57417,771.0116,430.86337
UncalGyro,1676592264321,29321142876617,0.07192938,-0.3390302,-1.713477,0.0036226935,-0.00046395656,-0.00031180933
UncalAccel,1676592264325,29321147112518,1.3393825,1.253839,9.203992,0.037048545,-0.031444572,0.0098014325
OrientationDeg,1676592264325,29321147112518,115.0,-14.0,-8.0
UncalMag,1676592264328,29321150759837,-204.3134,754.3382,401.7216,-174.57417,771.0116,430.86337
UncalGyro,1676592264329,29321151345449,-0.26725355,-0.59330285,-1.5754215,0.0036226935,-0.00046395656,-0.00031180933
UncalAccel,1676592264333,29321155584563,0.5401797,0.8039884,8.957532,0.037048545,-0.031444572,0.0098014325
OrientationDeg,1676592264333,29321155584563,116.0,-14.0,-8.0
UncalGyro,1676592264338,29321159836334,-0.56413406,-0.9662361,-1.457219,0.0036226935,-0.00046395656,-0.00031180933
UncalMag,1676592264338,29321160752391,-204.0206,754.1064,402.2706,-174.57417,771.0116,430.86337
UncalAccel,1676592264342,29321164077636,0.14057833,0.40378883,8.924032,0.037048545,-0.031444572,0.0098014325
OrientationDeg,1676592264342,29321164077636,116.0,-14.0,-8.0
UncalGyro,1676592264346,29321168319296,-0.73655075,-1.3066407,-1.3139712,0.0036226935,-0.00046395656,-0.00031180933
UncalMag,1676592264348,29321170762727,-204.045,753.6672,402.4048,-174.57417,771.0116,430.86337
UncalAccel,1676592264350,29321172556213,0.0951147,0.4319045,9.18126,0.037048545,-0.031444572,0.0098014325
OrientationDeg,1676592264350,29321172556213,117.0,-15.0,-8.0
UncalGyro,1676592264354,29321176798360,-0.7761043,-1.5184582,-1.1418599,0.0036226935,-0.00046395656,-0.00031180933
UncalMag,1676592264358,29321180762890,-204.6306,754.38696,403.56378,-174.57417,771.0116,430.86337
UncalAccel,1676592264359,29321181033946,0.24646074,0.78723866,9.218349,0.037048545,-0.031444572,0.0098014325
OrientationDeg,1676592264359,29321181033946,118.0,-16.0,-8.0
UncalGyro,1676592264363,29321185267181,-0.732122,-1.5957327,-0.9607383,0.0036226935,-0.00046395656,-0.00031180933
UncalAccel,1676592264367,29321189516501,0.4109673,1.0947163,9.380463,0.037048545,-0.031444572,0.0098014325
UncalMag,1676592264368,29321190762198,-204.777,753.6794,403.149,-174.57417,771.0116,430.86337
OrientationDeg,1676592264367,29321189516501,118.0,-16.0,-7.0
UncalGyro,1676592264372,29321193758108,-0.6760751,-1.5445728,-0.76159626,0.0036226935,-0.00046395656,-0.00031180933
UncalAccel,1676592264376,29321198000245,0.64247286,0.9601201,10.494322,0.037048545,-0.031444572,0.0098014325
UncalMag,1676592264378,29321200763012,-205.387,754.0332,403.61258,-174.57417,771.0116,430.86337
OrientationDeg,1676592264376,29321198000245,119.0,-17.0,-7.0
UncalGyro,1676592264380,29321202239056,-0.59895337,-1.2513574,-0.53130007,0.0036226935,-0.00046395656,-0.00031180933
UncalAccel,1676592264384,29321206476523,0.2650051,1.4153546,8.871988,0.037048545,-0.031444572,0.0098014325
OrientationDeg,1676592264384,29321206476523,119.0,-18.0,-7.0
UncalMag,1676592264388,29321210752189,-205.88719,754.3626,403.4662,-174.57417,771.0116,430.86337
UncalGyro,1676592264388,29321210720135,-0.50686544,-1.184315,-0.34468073,0.0036226935,-0.00046395656,-0.00031180933
UncalAccel,1676592264392,29321214960582,-0.09212367,1.8981066,8.251649,0.037048545,-0.031444572,0.0098014325
OrientationDeg,1676592264392,29321214960582,119.0,-18.0,-7.0
UncalGyro,1676592264397,29321219201030,-0.5369505,-1.091158,-0.1647809,0.0036226935,-0.00046395656,-0.00031180933
UncalMag,1676592264398,29321220762769,-205.387,754.021,403.4906,-174.57417,771.0116,430.86337
UncalAccel,1676592264401,29321223439475,0.09092726,1.1479566,10.561919,0.037048545,-0.031444572,0.0098014325
OrientationDeg,1676592264401,29321223439475,119.0,-19.0,-7.0
UncalGyro,1676592264405,29321227680096,-0.39461896,-0.4202753,0.10338894,0.0036226935,-0.00046395656,-0.00031180933
UncalMag,1676592264408,29321230762728,-206.7412,754.0942,403.9054,-174.57417,771.0116,430.86337
UncalAccel,1676592264409,29321231920259,-1.0797613,-2.265405,19.200607,0.037048545,-0.031444572,0.0098014325
OrientationDeg,1676592264409,29321231920259,119.0,-18.0,-7.0
UncalGyro,1676592264414,29321236160240,0.52626044,1.0076222,0.7270824,0.0036226935,-0.00046395656,-0.00031180933
UncalAccel,1676592264418,29321240399915,-4.345964,-0.048454657,10.506286,0.037048545,-0.031444572,0.0098014325
OrientationDeg,1676592264418,29321240399915,118.0,-18.0,-7.0
UncalMag,1676592264418,29321240752230,-205.77739,754.3626,403.4662,-174.57417,771.0116,430.86337
UncalGyro,1676592264422,29321244641735,1.1314751,0.79626286,1.3040446,0.0036226935,-0.00046395656,-0.00031180933
UncalAccel,1676592264426,29321248880119,-6.3571315,-0.35413775,11.068001,0.037048545,-0.031444572,0.0098014325
OrientationDeg,1676592264426,29321248880119,117.0,-18.0,-7.0
UncalMag,1676592264428,29321250763217,-205.3626,754.4724,403.9664,-174.57417,771.0116,430.86337
UncalGyro,1676592264431,29321253121309,1.2698362,0.46578476,1.9136881,0.0036226935,-0.00046395656,-0.00031180933
UncalAccel,1676592264435,29321257357699,-2.3551357,0.74476606,10.481161,0.037048545,-0.031444572,0.0098014325
OrientationDeg,1676592264435,29321257357699,116.0,-18.0,-7.0
UncalMag,1676592264438,29321260762973,-205.875,754.631,403.6492,-174.57417,771.0116,430.86337
UncalGyro,1676592264439,29321261591108,0.93294394,0.22540927,2.1109977,0.0036226935,-0.00046395656,-0.00031180933
UncalAccel,1676592264443,29321265841117,1.8233309,1.0049855,7.966903,0.037048545,-0.031444572,0.0098014325
OrientationDeg,1676592264443,29321265841117,115.0,-18.0,-7.0
UncalGyro,1676592264448,29321270081902,0.38912117,-0.26893342,2.044108,0.0036226935,-0.00046395656,-0.00031180933
UncalMag,1676592264448,29321270752150,-207.095,755.13116,403.7956,-174.57417,771.0116,430.86337
UncalAccel,1676592264452,29321274319450,4.171288,3.0245278,6.640083,0.037048545,-0.031444572,0.0098014325
OrientationDeg,1676592264452,29321274319450,114.0,-18.0,-7.0
UncalGyro,1676592264456,29321278563937,-0.15928312,-0.6960809,1.7098118,0.0036226935,-0.00046395656,-0.00031180933
UncalMag,1676592264458,29321280752516,-207.47319,755.8388,404.3446,-174.57417,771.0116,430.86337
UncalAccel,1676592264460,29321282801506,4.106682,1.8502501,9.695718,0.037048545,-0.031444572,0.0098014325
OrientationDeg,1676592264460,29321282801506,114.0,-19.0,-7.0
UncalGyro,1676592264465,29321287044396,-0.55970526,-0.64461553,1.3274102,0.0036226935,-0.00046395656,-0.00031180933
UncalMag,1676592264468,29321290762160,-207.5464,756.3512,403.9786,-174.57417,771.0116,430.86337
UncalAccel,1676592264469,29321291279534,3.2470603,1.5014962,11.62493,0.037048545,-0.031444572,0.0098014325
OrientationDeg,1676592264469,29321291279534,113.0,-19.0,-6.0
UncalGyro,1676592264473,29321295513064,-0.84971356,-0.40622538,0.8530733,0.0036226935,-0.00046395656,-0.00031180933
UncalAccel,1676592264477,29321299762862,2.7876384,3.0550363,11.891132,0.037048545,-0.031444572,0.0098014325
OrientationDeg,1676592264477,29321299762862,113.0,-19.0,-6.0
UncalMag,1676592264478,29321300752476,-208.4614,756.7782,404.2226,-174.57417,771.0116,430.86337
UncalGyro,1676592264482,29321304001234,-1.0393872,-0.11178834,0.29932398,0.0036226935,-0.00046395656,-0.00031180933
UncalAccel,1676592264486,29321308235487,3.475575,3.591627,11.630315,0.037048545,-0.031444572,0.0098014325
OrientationDeg,1676592264486,29321308235487,113.0,-19.0,-5.0
UncalMag,1676592264488,29321310762974,-208.3272,757.2906,403.7346,-174.57417,771.0116,430.86337
UncalGyro,1676592264490,29321312485375,-1.1302534,0.12721269,-0.2434298,0.0036226935,-0.00046395656,-0.00031180933
UncalAccel,1676592264494,29321316723637,3.6646078,3.097509,9.700503,0.037048545,-0.031444572,0.0098014325
OrientationDeg,1676592264494,29321316723637,114.0,-19.0,-5.0
UncalMag,1676592264498,29321320763015,-207.7782,757.65656,404.0518,-174.57417,771.0116,430.86337
UncalGyro,1676592264498,29321320966466,-1.195616,0.40408736,-0.6627888,0.0036226935,-0.00046395656,-0.00031180933
UncalAccel,1676592264503,29321325199528,4.5170507,1.7730815,8.581859,0.037048545,-0.031444572,0.0098014325
OrientationDeg,1676592264503,29321325199528,114.0,-19.0,-4.0
UncalGyro,1676592264507,29321329445601,-1.1872166,0.43585235,-0.79458296,0.0036226935,-0.00046395656,-0.00031180933
UncalMag,1676592264508,29321330762731,-207.8758,757.7298,403.7102,-174.57417,771.0116,430.86337
UncalAccel,1676592264511,29321333685225,2.3946173,1.4303098,4.88076,0.037048545,-0.031444572,0.0098014325
OrientationDeg,1676592264511,29321333685225,115.0,-18.0,-4.0
UncalGyro,1676592264515,29321337928166,-0.9550878,0.13133603,-0.6953174,0.0036226935,-0.00046395656,-0.00031180933
UncalMag,1676592264518,29321340759557,-207.6684,757.7908,402.88058,-174.57417,771.0116,430.86337
UncalAccel,1676592264520,29321342162796,3.4522448,0.26799613,2.3682961,0.037048545,-0.031444572,0.0098014325
OrientationDeg,1676592264520,29321342162796,115.0,-18.0,-4.0
UncalGyro,1676592264524,29321346396702,-0.6536258,-0.3399465,-0.5038111,0.0036226935,-0.00046395656,-0.00031180933
UncalAccel,1676592264528,29321350645025,3.35713,0.3056831,2.3054845,0.037048545,-0.031444572,0.0098014325
OrientationDeg,1676592264528,29321350645025,115.0,-19.0,-3.0
UncalMag,1676592264528,29321350753128,-207.9856,757.6932,402.3804,-174.57417,771.0116,430.86337
UncalGyro,1676592264532,29321354886865,-0.36972618,-0.7461719,-0.3323107,0.0036226935,-0.00046395656,-0.00031180933
UncalAccel,1676592264537,29321359128484,4.0438704,0.07597212,4.6211386,0.037048545,-0.031444572,0.0098014325
UncalMag,1676592264538,29321360752274,-208.08319,757.88837,403.393,-174.57417,771.0116,430.86337
OrientationDeg,1676592264537,29321359128484,116.0,-19.0,-3.0
UncalGyro,1676592264541,29321363367385,-0.24770586,-0.998612,-0.10598512,0.0036226935,-0.00046395656,-0.00031180933
UncalAccel,1676592264545,29321367606339,5.239683,0.24466611,5.7876396,0.037048545,-0.031444572,0.0098014325
OrientationDeg,1676592264545,29321367606339,116.0,-20.0,-3.0
UncalMag,1676592264548,29321370762813,-207.8758,757.7176,403.4662,-174.57417,771.0116,430.86337
UncalGyro,1676592264549,29321371847550,-0.23167065,-1.2936599,0.18661933,0.0036226935,-0.00046395656,-0.00031180933
UncalAccel,1676592264554,29321376087143,5.108078,0.7178468,5.8037915,0.037048545,-0.031444572,0.0098014325
OrientationDeg,1676592264554,29321376087143,115.0,-20.0,-3.0
UncalGyro,1676592264558,29321380330175,-0.2762638,-1.5315919,0.45204028,0.0036226935,-0.00046395656,-0.00031180933
UncalMag,1676592264558,29321380752275,-208.193,757.8152,403.7468,-174.57417,771.0116,430.86337
UncalAccel,1676592264562,29321384571853,4.9848475,1.6139588,4.953741,0.037048545,-0.031444572,0.0098014325
OrientationDeg,1676592264562,29321384571853,115.0,-21.0,-3.0
UncalGyro,1676592264566,29321388808620,-0.30543262,-1.8269452,0.6383542,0.0036226935,-0.00046395656,-0.00031180933
UncalMag,1676592264568,29321390762691,-208.90059,758.08356,404.43,-174.57417,771.0116,430.86337
UncalAccel,1676592264571,29321393047500,4.8789654,2.4412773,5.750551,0.037048545,-0.031444572,0.0098014325
OrientationDeg,1676592264571,29321393047500,115.0,-22.0,-2.0
UncalGyro,1676592264575,29321397288173,-0.37934732,-1.91155,0.68554354,0.0036226935,-0.00046395656,-0.00031180933
UncalMag,1676592264578,29321400759599,-209.3886,758.779,404.72278,-174.57417,771.0116,430.86337
UncalAccel,1676592264579,29321401525966,5.041079,2.981457,6.750751,0.037048545,-0.031444572,0.0098014325
OrientationDeg,1676592264579,29321401525966,115.0,-23.0,-2.0
UncalGyro,1676592264583,29321405759924,-0.51159966,-1.8923078,0.5627596,0.0036226935,-0.00046395656,-0.00031180933
UncalAccel,1676592264588,29321410008948,5.139185,3.5934215,7.8891363,0.037048545,-0.031444572,0.0098014325
UncalMag,1676592264588,29321410766517,-210.5354,758.779,405.7232,-174.57417,771.0116,430.86337
OrientationDeg,1676592264588,29321410008948,115.0,-24.0,-2.0
UncalGyro,1676592264592,29321414250779,-0.68477994,-1.7327193,0.3098614,0.0036226935,-0.00046395656,-0.00031180933
UncalAccel,1676592264596,29321418491431,5.3090754,3.5976088,8.835498,0.037048545,-0.031444572,0.0098014325
OrientationDeg,1676592264596,29321418491431,115.0,-25.0,-1.0
UncalMag,1676592264598,29321420762977,-210.328,758.901,406.6016,-174.57417,771.0116,430.86337
UncalGyro,1676592264600,29321422730342,-0.8901834,-1.4770721,0.014049901,0.0036226935,-0.00046395656,-0.00031180933
UncalAccel,1676592264604,29321426969488,5.6189456,3.1256247,8.6961155,0.037048545,-0.031444572,0.0098014325
OrientationDeg,1676592264604,29321426969488,115.0,-26.0,-1.0
UncalMag,1676592264608,29321430762814,-211.6456,759.5964,407.2848,-174.57417,771.0116,430.86337
UncalGyro,1676592264609,29321431208269,-1.1152872,-1.2589933,-0.24770586,0.0036226935,-0.00046395656,-0.00031180933
UncalAccel,1676592264613,29321435437598,5.9994044,2.4969103,8.086544,0.037048545,-0.031444572,0.0098014325
OrientationDeg,1676592264613,29321435437598,116.0,-26.0,-1.0
UncalGyro,1676592264617,29321439683092,-1.3228287,-1.1447614,-0.41065416,0.0036226935,-0.00046395656,-0.00031180933
UncalMag,1676592264618,29321440755409,-211.65779,759.2914,405.8818,-174.57417,771.0116,430.86337
UncalAccel,1676592264621,29321443931037,6.378667,1.8975084,7.108478,0.037048545,-0.031444572,0.0098014325
OrientationDeg,1676592264621,29321443931037,116.0,-27.0,0.0
UncalGyro,1676592264626,29321448175432,-1.4643967,-1.1267409,-0.43951756,0.0036226935,-0.00046395656,-0.00031180933
UncalMag,1676592264628,29321450762774,-211.8042,760.2796,406.9676,-174.57417,771.0116,430.86337
UncalAccel,1676592264630,29321452413174,6.6448684,1.4979069,6.281758,0.037048545,-0.031444572,0.0098014325
OrientationDeg,1676592264630,29321452413174,117.0,-27.0,0.0
UncalGyro,1676592264634,29321456652239,-1.5294539,-1.1517864,-0.35476,0.0036226935,-0.00046395656,-0.00031180933
UncalMag,1676592264638,29321460762734,-211.6212,759.9136,406.3942,-174.57417,771.0116,430.86337
UncalAccel,1676592264638,29321460891020,6.672984,1.1724831,6.006583,0.037048545,-0.031444572,0.0098014325
OrientationDeg,1676592264638,29321460891020,117.0,-28.0,0.0
UncalGyro,1676592264643,29321465132494,-1.5234979,-1.1534663,-0.20158553,0.0036226935,-0.00046395656,-0.00031180933
UncalAccel,1676592264647,29321469371132,6.5958157,0.8751749,6.2321067,0.037048545,-0.031444572,0.0098014325
UncalMag,1676592264648,29321470752440,-212.4996,761.0848,408.01678,-174.57417,771.0116,430.86337
OrientationDeg,1676592264647,29321469371132,117.0,-28.0,1.0
UncalGyro,1676592264651,29321473610979,-1.4592043,-1.1252137,-0.049785517,0.0036226935,-0.00046395656,-0.00031180933
UncalAccel,1676592264655,29321477853076,6.492924,0.6436693,6.777072,0.037048545,-0.031444572,0.0098014325
OrientationDeg,1676592264655,29321477853076,118.0,-29.0,1.0
UncalMag,1676592264658,29321480753009,-212.6948,761.1824,408.4072,-174.57417,771.0116,430.86337
UncalGyro,1676592264660,29321482094552,-1.382999,-1.0522153,0.062002823,0.0036226935,-0.00046395656,-0.00031180933
UncalAccel,1676592264664,29321486333321,6.212964,0.40618163,7.2346992,0.037048545,-0.031444572,0.0098014325
OrientationDeg,1676592264664,29321486333321,118.0,-29.0,2.0
UncalGyro,1676592264668,29321490573667,-1.3231341,-0.9578367,0.13148874,0.0036226935,-0.00046395656,-0.00031180933
UncalMag,1676592264668,29321490752237,-213.3292,761.17017,408.6634,-174.57417,771.0116,430.86337
UncalAccel,1676592264672,29321494812803,5.7816577,0.15373886,7.576873,0.037048545,-0.031444572,0.0098014325
OrientationDeg,1676592264672,29321494812803,118.0,-30.0,2.0
UncalGyro,1676592264677,29321499054574,-1.2873985,-0.87857693,0.1600467,0.0036226935,-0.00046395656,-0.00031180933
UncalMag,1676592264678,29321500762816,-213.5,761.768,408.456,-174.57417,771.0116,430.86337
UncalAccel,1676592264681,29321503290790,5.3982077,-0.0741775,7.780861,0.037048545,-0.031444572,0.0098014325
OrientationDeg,1676592264681,29321503290790,119.0,-30.0,3.0
UncalGyro,1676592264685,29321507522927,-1.2713633,-0.8416196,0.15561792,0.0036226935,-0.00046395656,-0.00031180933
UncalMag,1676592264688,29321510762776,-214.01239,761.8778,409.2124,-174.57417,771.0116,430.86337
UncalAccel,1676592264689,29321511774647,5.2169514,-0.33439696,7.966903,0.037048545,-0.031444572,0.0098014325
OrientationDeg,1676592264689,29321511774647,119.0,-31.0,4.0
UncalGyro,1676592264694,29321516016559,-1.2644911,-0.8248208,0.12308934,0.0036226935,-0.00046395656,-0.00031180933
UncalAccel,1676592264698,29321520257547,5.1254263,-0.5312066,8.187042,0.037048545,-0.031444572,0.0098014325
UncalMag,1676592264699,29321520759033,-213.6464,762.74396,408.9318,-174.57417,771.0116,430.86337
OrientationDeg,1676592264698,29321520257547,119.0,-31.0,4.0
UncalGyro,1676592264702,29321524493030,-1.2518156,-0.7863363,0.07238753,0.0036226935,-0.00046395656,-0.00031180933
UncalAccel,1676592264706,29321528723479,4.9118667,-0.9403793,8.264212,0.037048545,-0.031444572,0.0098014325
OrientationDeg,1676592264706,29321528723479,119.0,-31.0,5.0
UncalMag,1676592264708,29321530759765,-214.0612,762.8294,409.0782,-174.57417,771.0116,430.86337
UncalGyro,1676592264710,29321532972604,-1.1820242,-0.7302894,0.03176499,0.0036226935,-0.00046395656,-0.00031180933
UncalAccel,1676592264715,29321537212829,4.7318068,-1.2191432,8.216354,0.037048545,-0.031444572,0.0098014325
OrientationDeg,1676592264715,29321537212829,120.0,-32.0,5.0
UncalMag,1676592264718,29321540762899,-214.01239,763.6468,410.12738,-174.57417,771.0116,430.86337
UncalGyro,1676592264719,29321541457926,-1.0494665,-0.6782131,-0.017562376,0.0036226935,-0.00046395656,-0.00031180933
UncalAccel,1676592264723,29321545686574,4.720441,-1.6354942,8.108678,0.037048545,-0.031444572,0.0098014325
OrientationDeg,1676592264723,29321545686574,120.0,-32.0,6.0
UncalGyro,1676592264727,29321549938202,-0.875828,-0.65179324,-0.057268616,0.0036226935,-0.00046395656,-0.00031180933
UncalMag,1676592264728,29321550752726,-213.9392,763.0856,408.7732,-174.57417,771.0116,430.86337
UncalAccel,1676592264732,29321554173746,4.7371907,-2.114657,8.082356,0.037048545,-0.031444572,0.0098014325
UncalGyro,1676592264736,29321558420430,-0.6942484,-0.6420194,-0.07513642,0.0036226935,-0.00046395656,-0.00031180933
OrientationDeg,1676592264732,29321554173746,120.0,-33.0,6.0
UncalMag,1676592264738,29321560762858,-213.2804,763.659,410.103,-174.57417,771.0116,430.86337
UncalAccel,1676592264740,29321562656677,4.7772703,-2.4783661,8.113463,0.037048545,-0.031444572,0.0098014325
OrientationDeg,1676592264740,29321562656677,120.0,-33.0,6.0
UncalGyro,1676592264744,29321566898762,-0.54458636,-0.6560693,-0.09605856,0.0036226935,-0.00046395656,-0.00031180933
UncalMag,1676592264748,29321570762777,-214.232,763.537,409.737,-174.57417,771.0116,430.86337
UncalAccel,1676592264749,29321571134898,4.706682,-3.0059834,8.311469,0.037048545,-0.031444572,0.0098014325
OrientationDeg,1676592264749,29321571134898,121.0,-33.0,6.0
UncalGyro,1676592264753,29321575368235,-0.41309762,-0.71929383,-0.09896017,0.0036226935,-0.00046395656,-0.00031180933
UncalAccel,1676592264757,29321579615581,4.57747,-3.3667014,8.589037,0.037048545,-0.031444572,0.0098014325
OrientationDeg,1676592264757,29321579615581,121.0,-34.0,6.0
UncalMag,1676592264758,29321580752483,-214.7444,763.81757,410.4202,-174.57417,771.0116,430.86337
UncalGyro,1676592264761,29321583850077,-0.301462,-0.79229224,-0.06856962,0.0036226935,-0.00046395656,-0.00031180933
UncalAccel,1676592264766,29321588100596,4.638487,-3.2991042,8.72782,0.037048545,-0.031444572,0.0098014325
OrientationDeg,1676592264766,29321588100596,121.0,-34.0,6.0
UncalMag,1676592264768,29321590759685,-214.5248,763.9762,410.0908,-174.57417,771.0116,430.86337
UncalGyro,1676592264770,29321592338572,-0.19868392,-0.8367327,-0.029474247,0.0036226935,-0.00046395656,-0.00031180933
UncalAccel,1676592264774,29321596577943,4.8137608,-3.0921252,8.766106,0.037048545,-0.031444572,0.0098014325
OrientationDeg,1676592264774,29321596577943,121.0,-34.0,7.0
UncalMag,1676592264778,29321600764813,-215.269,763.7322,411.13998,-174.57417,771.0116,430.86337
UncalGyro,1676592264779,29321600817191,-0.09621128,-0.84467393,-0.0033597588,0.0036226935,-0.00046395656,-0.00031180933
UncalAccel,1676592264783,29321605048717,5.08415,-2.9569306,8.953344,0.037048545,-0.031444572,0.0098014325
OrientationDeg,1676592264783,29321605048717,121.0,-35.0,7.0
UncalGyro,1676592264787,29321609302013,0.007788532,-0.8176431,-0.0096211275,0.0036226935,-0.00046395656,-0.00031180933
UncalMag,1676592264788,29321610762778,-215.3788,763.6468,411.12778,-174.57417,771.0116,430.86337
UncalAccel,1676592264791,29321613537293,5.441877,-2.644069,9.5455675,0.037048545,-0.031444572,0.0098014325
OrientationDeg,1676592264791,29321613537293,121.0,-35.0,6.0
UncalGyro,1676592264795,29321617773958,0.10567969,-0.73456544,-0.056963183,0.0036226935,-0.00046395656,-0.00031180933
UncalMag,1676592264798,29321620762779,-215.59839,763.5736,411.8476,-174.57417,771.0116,430.86337
UncalAccel,1676592264800,29321622015647,5.81755,-2.2791636,10.185648,0.037048545,-0.031444572,0.0098014325
OrientationDeg,1676592264800,29321622015647,121.0,-36.0,6.0
UncalGyro,1676592264804,29321626243735,0.18967366,-0.5865834,-0.12492194,0.0036226935,-0.00046395656,-0.00031180933
UncalAccel,1676592264808,29321630502962,6.094519,-1.9716859,10.706087,0.037048545,-0.031444572,0.0098014325
UncalMag,1676592264808,29321630752159,-215.3422,764.2568,411.1522,-174.57417,771.0116,430.86337
OrientationDeg,1676592264808,29321630502962,121.0,-36.0,6.0
UncalGyro,1676592264812,29321634742280,0.25305092,-0.38774672,-0.18112154,0.0036226935,-0.00046395656,-0.00031180933
UncalAccel,1676592264816,29321638988415,6.3182483,-1.8502501,10.725827,0.037048545,-0.031444572,0.0098014325
OrientationDeg,1676592264816,29321638988415,121.0,-36.0,6.0
UncalMag,1676592264818,29321640764529,-215.086,763.232,411.50598,-174.57417,771.0116,430.86337
UncalGyro,1676592264821,29321643222251,0.2958115,-0.17638734,-0.20555615,0.0036226935,-0.00046395656,-0.00031180933
UncalAccel,1676592264825,29321647461702,6.430711,-1.777269,10.396814,0.037048545,-0.031444572,0.0098014325
OrientationDeg,1676592264825,29321647461702,121.0,-36.0,6.0
UncalMag,1676592264828,29321650762779,-215.52519,763.049,411.5914,-174.57417,771.0116,430.86337
UncalGyro,1676592264829,29321651703036,0.32543847,0.0143553335,-0.1826487,0.0036226935,-0.00046395656,-0.00031180933
UncalAccel,1676592264834,29321655941906,6.3158555,-1.8442681,9.799805,0.037048545,-0.031444572,0.0098014325
OrientationDeg,1676592264833,29321655941906,121.0,-36.0,6.0
UncalGyro,1676592264838,29321660182111,0.3539964,0.13927728,-0.10751228,0.0036226935,-0.00046395656,-0.00031180933
UncalMag,1676592264838,29321660759972,-215.43979,762.6952,411.50598,-174.57417,771.0116,430.86337
UncalAccel,1676592264842,29321664418774,6.046663,-2.0033908,9.422338,0.037048545,-0.031444572,0.0098014325
OrientationDeg,1676592264842,29321664418774,121.0,-36.0,6.0
UncalGyro,1676592264846,29321668661502,0.39064834,0.21090123,0.011148291,0.0036226935,-0.00046395656,-0.00031180933
UncalMag,1676592264848,29321670762780,-215.52519,762.97577,412.055,-174.57417,771.0116,430.86337
UncalAccel,1676592264850,29321672893801,5.7900324,-2.033301,9.215358,0.037048545,-0.031444572,0.0098014325
OrientationDeg,1676592264850,29321672893801,120.0,-36.0,5.0
UncalGyro,1676592264856,29321677144584,0.42317688,0.25213462,0.15042557,0.0036226935,-0.00046395656,-0.00031180933
UncalMag,1676592264858,29321680762983,-215.3056,763.049,411.4694,-174.57417,771.0116,430.86337
UncalAccel,1676592264859,29321681377709,5.526822,-1.7952151,9.078967,0.037048545,-0.031444572,0.0098014325
OrientationDeg,1676592264859,29321681377709,120.0,-35.0,5.0
UncalGyro,1676592264863,29321685627902,0.42562035,0.2780964,0.2780964,0.0036226935,-0.00046395656,-0.00031180933
UncalAccel,1676592264867,29321689863549,5.28754,-1.451247,8.851051,0.037048545,-0.031444572,0.0098014325
UncalMag,1676592264868,29321690751753,-215.33,762.7074,411.628,-174.57417,771.0116,430.86337
OrientationDeg,1676592264867,29321689863549,120.0,-35.0,5.0
UncalGyro,1676592264872,29321694106203,0.39370266,0.28160888,0.36987892,0.0036226935,-0.00046395656,-0.00031180933
UncalAccel,1676592264876,29321698344017,5.1469617,-1.0402796,8.84806,0.037048545,-0.031444572,0.0098014325
OrientationDeg,1676592264876,29321698344017,120.0,-35.0,5.0
UncalMag,1676592264878,29321700752201,-214.48819,762.805,411.50598,-174.57417,771.0116,430.86337
UncalGyro,1676592264880,29321702582685,0.32925636,0.28695396,0.42424592,0.0036226935,-0.00046395656,-0.00031180933
UncalAccel,1676592264884,29321706814568,5.1828537,-0.85842514,9.038289,0.037048545,-0.031444572,0.0098014325
OrientationDeg,1676592264884,29321706814568,119.0,-35.0,5.0
UncalMag,1676592264888,29321710749272,-215.2202,762.86597,411.29858,-174.57417,771.0116,430.86337
UncalGyro,1676592264889,29321711063053,0.2396119,0.3119994,0.4622723,0.0036226935,-0.00046395656,-0.00031180933
UncalAccel,1676592264893,29321715295190,5.334798,-0.7328019,9.081959,0.037048545,-0.031444572,0.0098014325
OrientationDeg,1676592264893,29321715295190,119.0,-35.0,5.0
UncalGyro,1676592264897,29321719548975,0.12308934,0.3266602,0.49205196,0.0036226935,-0.00046395656,-0.00031180933
UncalMag,1676592264898,29321720755416,-214.96399,763.5858,411.5792,-174.57417,771.0116,430.86337
UncalAccel,1676592264901,29321723782291,5.401199,-0.60777694,9.095717,0.037048545,-0.031444572,0.0098014325
OrientationDeg,1676592264901,29321723782291,119.0,-35.0,5.0
UncalGyro,1676592264906,29321728028537,-0.010995574,0.3220787,0.5152648,0.0036226935,-0.00046395656,-0.00031180933
UncalMag,1676592264908,29321730762822,-214.9884,763.1222,410.7496,-174.57417,771.0116,430.86337
UncalAccel,1676592264910,29321732265791,5.4388857,-0.48753762,9.057432,0.037048545,-0.031444572,0.0098014325
OrientationDeg,1676592264910,29321732265791,119.0,-34.0,6.0
UncalGyro,1676592264914,29321736508152,-0.1366811,0.30726522,0.5279403,0.0036226935,-0.00046395656,-0.00031180933
UncalAccel,1676592264918,29321740746353,5.3832526,-0.55034924,8.900104,0.037048545,-0.031444572,0.0098014325
UncalMag,1676592264918,29321740758631,-215.39099,763.4638,410.96918,-174.57417,771.0116,430.86337
OrientationDeg,1676592264918,29321740746353,119.0,-34.0,6.0
UncalGyro,1676592264922,29321744983657,-0.22296582,0.2764165,0.5374087,0.0036226935,-0.00046395656,-0.00031180933
UncalAccel,1676592264927,29321749216445,5.323432,-0.6652047,8.647063,0.037048545,-0.031444572,0.0098014325
UncalMag,1676592264928,29321750744553,-215.269,763.81757,411.0424,-174.57417,771.0116,430.86337
OrientationDeg,1676592264927,29321749216445,119.0,-34.0,6.0
UncalGyro,1676592264931,29321753469160,-0.24801129,0.2359467,0.5487097,0.0036226935,-0.00046395656,-0.00031180933
UncalAccel,1676592264935,29321757707768,5.3647084,-0.8129615,8.352147,0.037048545,-0.031444572,0.0098014325
OrientationDeg,1676592264935,29321757707768,118.0,-34.0,6.0
UncalMag,1676592264938,29321760763108,-215.1592,763.80536,410.3104,-174.57417,771.0116,430.86337
UncalGyro,1676592264939,29321761951207,-0.21090123,0.19364429,0.569021,0.0036226935,-0.00046395656,-0.00031180933
UncalAccel,1676592264944,29321766187403,5.4963136,-0.974477,8.124829,0.037048545,-0.031444572,0.0098014325
OrientationDeg,1676592264944,29321766187403,118.0,-34.0,7.0
UncalGyro,1676592264948,29321770428818,-0.12705997,0.15515977,0.60154957,0.0036226935,-0.00046395656,-0.00031180933
UncalMag,1676592264948,29321770752366,-214.7932,764.6838,410.5178,-174.57417,771.0116,430.86337
UncalAccel,1676592264952,29321774668157,5.6560345,-1.0211371,7.920841,0.037048545,-0.031444572,0.0098014325
OrientationDeg,1676592264952,29321774668157,118.0,-34.0,7.0
UncalGyro,1676592264956,29321778906926,-0.01786781,0.118507855,0.6391178,0.0036226935,-0.00046395656,-0.00031180933
UncalMag,1676592264958,29321780762986,-215.6228,764.75696,410.6764,-174.57417,771.0116,430.86337
UncalAccel,1676592264961,29321783138290,5.7894344,-0.90508515,7.873583,0.037048545,-0.031444572,0.0098014325
OrientationDeg,1676592264961,29321783138290,118.0,-34.0,7.0
UncalGyro,1676592264965,29321787391068,0.09590584,0.098043874,0.65270954,0.0036226935,-0.00046395656,-0.00031180933
UncalMag,1676592264968,29321790752610,-215.4032,764.8302,409.9566,-174.57417,771.0116,430.86337
UncalAccel,1676592264969,29321791628423,5.8217373,-0.7040881,7.920243,0.037048545,-0.031444572,0.0098014325
OrientationDeg,1676592264969,29321791628423,117.0,-34.0,7.0
UncalGyro,1676592264973,29321795870071,0.19333886,0.07788532,0.6444628,0.0036226935,-0.00046395656,-0.00031180933
UncalAccel,1676592264978,29321800109127,5.705087,-0.4031906,7.9657063,0.037048545,-0.031444572,0.0098014325
UncalMag,1676592264978,29321800755581,-214.75659,765.19617,410.0298,-174.57417,771.0116,430.86337
OrientationDeg,1676592264978,29321800109127,117.0,-34.0,7.0
UncalGyro,1676592264982,29321804350602,0.25121832,0.04841107,0.6178902,0.0036226935,-0.00046395656,-0.00031180933
UncalAccel,1676592264986,29321808590959,5.5633125,-0.030508488,8.100901,0.037048545,-0.031444572,0.0098014325
UncalMag,1676592264988,29321810752489,-215.4886,765.19617,410.774,-174.57417,771.0116,430.86337
OrientationDeg,1676592264986,29321808590959,117.0,-34.0,7.0
UncalGyro,1676592264990,29321812829859,0.26007587,0.016798794,0.5535966,0.0036226935,-0.00046395656,-0.00031180933
UncalAccel,1676592264995,29321817061468,5.4460645,0.28953153,8.22772,0.037048545,-0.031444572,0.0098014325
OrientationDeg,1676592264995,29321817061468,116.0,-33.0,7.0
UncalMag,1676592264998,29321820763190,-215.0494,765.55,410.60318,-174.57417,771.0116,430.86337
UncalGyro,1676592264999,29321821312618,0.22815818,-0.018936822,0.45066583,0.0036226935,-0.00046395656,-0.00031180933
UncalAccel,1676592265003,29321825548000,5.377869,0.40857446,8.293523,0.037048545,-0.031444572,0.0098014325
UncalGyro,1676592265007,29321829778551,0.17470746,-0.05497787,0.3368922,0.0036226935,-0.00046395656,-0.00031180933
UncalMag,1676592265008,29321830746955,-215.3544,765.70856,410.28598,-174.57417,771.0116,430.86337
UncalAccel,1676592265012,29321834023790,5.354539,0.35114673,8.255239,0.037048545,-0.031444572,0.0098014325
OrientationDeg,1676592265003,29321825548000,116.0,-33.0,7.0
OrientationDeg,1676592265013,29321834023790,116.0,-33.0,7.0
UncalGyro,1676592265017,29321838272559,0.13179417,-0.09254608,0.24113905,0.0036226935,-0.00046395656,-0.00031180933
UncalMag,1676592265018,29321840759610,-215.5618,765.794,410.1884,-174.57417,771.0116,430.86337
UncalAccel,1676592265020,29321842512467,5.4035916,0.21296121,8.142178,0.037048545,-0.031444572,0.0098014325
OrientationDeg,1676592265020,29321842512467,116.0,-34.0,7.0
UncalGyro,1676592265024,29321846755826,0.11499538,-0.12110403,0.17394388,0.0036226935,-0.00046395656,-0.00031180933
UncalMag,1676592265028,29321850752408,-215.2446,765.8062,410.4324,-174.57417,771.0116,430.86337
UncalAccel,1676592265028,29321850994962,5.4963136,0.084346995,8.009376,0.037048545,-0.031444572,0.0098014325
OrientationDeg,1676592265028,29321850994962,116.0,-34.0,7.0
UncalGyro,1676592265033,29321855224240,0.1226312,-0.14446963,0.14095716,0.0036226935,-0.00046395656,-0.00031180933
UncalAccel,1676592265037,29321859465492,5.5405807,0.0077766734,7.943573,0.037048545,-0.031444572,0.0098014325
UncalMag,1676592265038,29321860752490,-215.75699,765.9892,410.96918,-174.57417,771.0116,430.86337
OrientationDeg,1676592265037,29321859465492,116.0,-34.0,7.0
UncalGyro,1676592265041,29321863715461,0.15118915,-0.15821409,0.13164146,0.0036226935,-0.00046395656,-0.00031180933
UncalAccel,1676592265045,29321867958524,5.54417,0.11306087,7.995617,0.037048545,-0.031444572,0.0098014325
OrientationDeg,1676592265045,29321867958524,116.0,-34.0,7.0
UncalMag,1676592265048,29321870763029,-215.43979,766.0746,410.6154,-174.57417,771.0116,430.86337
UncalGyro,1676592265050,29321872209175,0.18478674,-0.1553125,0.12660182,0.0036226935,-0.00046395656,-0.00031180933
UncalAccel,1676592265054,29321876433988,5.5746784,0.43429732,8.1942215,0.037048545,-0.031444572,0.0098014325
OrientationDeg,1676592265054,29321876433988,116.0,-34.0,7.0
UncalGyro,1676592265058,29321880675819,0.19975294,-0.123242065,0.107665,0.0036226935,-0.00046395656,-0.00031180933
UncalMag,1676592265058,29321880763721,-215.5618,765.8062,410.4324,-174.57417,771.0116,430.86337
UncalAccel,1676592265062,29321884911334,5.656633,0.84167534,8.412566,0.037048545,-0.031444572,0.0098014325
OrientationDeg,1676592265062,29321884911334,116.0,-34.0,7.0
UncalGyro,1676592265067,29321889155373,0.1779145,-0.071318515,0.05757405,0.0036226935,-0.00046395656,-0.00031180933
UncalMag,1676592265068,29321890752572,-215.0372,765.83057,411.03018,-174.57417,771.0116,430.86337
UncalAccel,1676592265071,29321893390613,5.663811,1.2053844,8.525029,0.037048545,-0.031444572,0.0098014325
OrientationDeg,1676592265071,29321893390613,115.0,-34.0,7.0
UncalGyro,1676592265075,29321897636025,0.10644327,-0.031154128,-0.026572637,0.0036226935,-0.00046395656,-0.00031180933
UncalMag,1676592265078,29321900762704,-215.54959,766.0868,411.2254,-174.57417,771.0116,430.86337
UncalAccel,1676592265078,29321901872262,5.6949177,1.5409778,8.609376,0.037048545,-0.031444572,0.0098014325
OrientationDeg,1676592265079,29321901872262,116.0,-34.0,7.0
UncalGyro,1676592265084,29321906106861,-0.004886922,-0.00992656,-0.13209961,0.0036226935,-0.00046395656,-0.00031180933
UncalAccel,1676592265088,29321910354409,5.797211,1.7952151,8.775677,0.037048545,-0.031444572,0.0098014325
UncalMag,1676592265088,29321910758757,-215.57399,765.6354,410.8838,-174.57417,771.0116,430.86337
OrientationDeg,1676592265088,29321910354409,116.0,-34.0,7.0
UncalGyro,1676592265092,29321914593311,-0.14508049,0.0070249503,-0.26007587,0.0036226935,-0.00046395656,-0.00031180933
UncalAccel,1676592265096,29321918838662,5.977869,1.8825532,8.84806,0.037048545,-0.031444572,0.0098014325
OrientationDeg,1676592265096,29321918838662,116.0,-34.0,7.0
UncalMag,1676592265098,29321920763030,-215.57399,765.6354,410.8838,-174.57417,771.0116,430.86337
UncalGyro,1676592265101,29321923075478,-0.29520062,0.012064588,-0.4027129,0.0036226935,-0.00046395656,-0.00031180933
UncalAccel,1676592265105,29321927306659,6.317052,1.8891335,8.935996,0.037048545,-0.031444572,0.0098014325
OrientationDeg,1676592265105,29321927306659,116.0,-34.0,7.0
UncalMag,1676592265108,29321930762949,-215.57399,765.5378,410.3714,-174.57417,771.0116,430.86337
UncalGyro,1676592265109,29321931559366,-0.43600506,0.021991149,-0.5477934,0.0036226935,-0.00046395656,-0.00031180933
UncalAccel,1676592265113,29321935803039,6.74776,1.8723837,8.919845,0.037048545,-0.031444572,0.0098014325
OrientationDeg,1676592265113,29321935803039,117.0,-34.0,7.0
UncalGyro,1676592265119,29321940040740,-0.5522222,0.04062254,-0.68294734,0.0036226935,-0.00046395656,-0.00031180933
UncalMag,1676592265118,29321940752166,-215.2934,764.9522,411.07898,-174.57417,771.0116,430.86337
UncalAccel,1676592265122,29321944277546,7.198209,1.8323039,8.846864,0.037048545,-0.031444572,0.0098014325
OrientationDeg,1676592265122,29321944277546,117.0,-34.0,7.0
UncalGyro,1676592265127,29321948518036,-0.6401868,0.070554934,-0.8040514,0.0036226935,-0.00046395656,-0.00031180933
UncalMag,1676592265128,29321950762827,-215.8058,765.2694,410.1884,-174.57417,771.0116,430.86337
UncalAccel,1676592265130,29321952758137,7.6570325,1.7970098,8.859426,0.037048545,-0.031444572,0.0098014325
OrientationDeg,1676592265130,29321952758137,118.0,-34.0,7.0
UncalGyro,1676592265134,29321956997487,-0.70463306,0.121256754,-0.89827734,0.0036226935,-0.00046395656,-0.00031180933
UncalMag,1676592265138,29321960762787,-214.6834,764.76917,410.28598,-174.57417,771.0116,430.86337
UncalAccel,1676592265139,29321961227387,8.06441,1.7084754,8.8289175,0.037048545,-0.031444572,0.0098014325
OrientationDeg,1676592265140,29321961227387,118.0,-34.0,7.0
UncalGyro,1676592265143,29321965479390,-0.7535023,0.17867808,-0.9665415,0.0036226935,-0.00046395656,-0.00031180933
UncalAccel,1676592265147,29321969718353,8.4347,1.6151553,8.612367,0.037048545,-0.031444572,0.0098014325
UncalMag,1676592265148,29321970752655,-215.33,764.5008,410.7252,-174.57417,771.0116,430.86337
OrientationDeg,1676592265147,29321969718353,119.0,-34.0,7.0
UncalGyro,1676592265151,29321973962402,-0.77946407,0.21426098,-1.0238101,0.0036226935,-0.00046395656,-0.00031180933
UncalAccel,1676592265156,29321978197489,8.86481,1.6947167,8.590832,0.037048545,-0.031444572,0.0098014325
OrientationDeg,1676592265156,29321978197489,119.0,-34.0,7.0
UncalMag,1676592265158,29321980759899,-214.48819,764.4886,409.737,-174.57417,771.0116,430.86337
UncalGyro,1676592265160,29321982431416,-0.783282,0.25396723,-1.0919216,0.0036226935,-0.00046395656,-0.00031180933
UncalAccel,1676592265164,29321986670685,9.364909,1.8795621,8.750552,0.037048545,-0.031444572,0.0098014325
OrientationDeg,1676592265164,29321986670685,120.0,-34.0,7.0
UncalMag,1676592265168,29321990763073,-214.9274,764.147,409.9078,-174.57417,771.0116,430.86337
UncalGyro,1676592265168,29321990921886,-0.75823647,0.3324634,-1.1808025,0.0036226935,-0.00046395656,-0.00031180933
UncalAccel,1676592265173,29321995158905,9.755538,1.963311,8.8905325,0.037048545,-0.031444572,0.0098014325
OrientationDeg,1676592265173,29321995158905,121.0,-34.0,7.0
UncalGyro,1676592265177,29321999392915,-0.70249504,0.44929138,-1.2825116,0.0036226935,-0.00046395656,-0.00031180933
UncalMag,1676592265178,29322000762869,-214.415,763.91516,410.6764,-174.57417,771.0116,430.86337
UncalAccel,1676592265181,29322003640320,10.056436,1.9938195,8.968898,0.037048545,-0.031444572,0.0098014325
OrientationDeg,1676592265181,29322003640320,121.0,-34.0,7.0
UncalGyro,1676592265185,29322007881827,-0.623388,0.59513545,-1.3967434,0.0036226935,-0.00046395656,-0.00031180933
UncalMag,1676592265188,29322010762829,-214.2198,763.781,408.9562,-174.57417,771.0116,430.86337
UncalAccel,1676592265190,29322012123954,10.223334,1.9800607,9.05145,0.037048545,-0.031444572,0.0098014325
OrientationDeg,1676592265190,29322012123954,122.0,-33.0,7.0
UncalGyro,1676592265194,29322016362905,-0.54260105,0.7690793,-1.5106697,0.0036226935,-0.00046395656,-0.00031180933
UncalAccel,1676592265198,29322020601726,10.1084795,1.9076779,9.055637,0.037048545,-0.031444572,0.0098014325
UncalMag,1676592265198,29322020758597,-213.71959,763.2564,408.6878,-174.57417,771.0116,430.86337
OrientationDeg,1676592265198,29322020601726,123.0,-33.0,7.0
UncalGyro,1676592265202,29322024841055,-0.4653266,0.9408852,-1.6102408,0.0036226935,-0.00046395656,-0.00031180933
UncalAccel,1676592265207,29322029070843,9.712467,1.7563318,9.096913,0.037048545,-0.031444572,0.0098014325
UncalMag,1676592265208,29322030762829,-213.56099,762.4756,408.74878,-174.57417,771.0116,430.86337
OrientationDeg,1676592265207,29322029070843,124.0,-33.0,6.0
UncalGyro,1676592265211,29322033322918,-0.39675698,1.0856602,-1.691944,0.0036226935,-0.00046395656,-0.00031180933
UncalAccel,1676592265215,29322037561749,9.1669035,1.4847465,9.276375,0.037048545,-0.031444572,0.0098014325
OrientationDeg,1676592265215,29322037561749,125.0,-32.0,6.0
UncalMag,1676592265218,29322040752372,-213.5,761.7802,408.822,-174.57417,771.0116,430.86337
UncalGyro,1676592265219,29322041805493,-0.34697145,1.2056953,-1.7562376,0.0036226935,-0.00046395656,-0.00031180933
UncalAccel,1676592265224,29322046039399,8.608179,1.1790633,9.422338,0.037048545,-0.031444572,0.0098014325
OrientationDeg,1676592265224,29322046039399,125.0,-32.0,6.0
UncalGyro,1676592265228,29322050283947,-0.3023783,1.3046554,-1.8099937,0.0036226935,-0.00046395656,-0.00031180933
UncalMag,1676592265228,29322050758558,-212.4996,760.975,407.5166,-174.57417,771.0116,430.86337
UncalAccel,1676592265232,29322054523174,8.016554,0.93619186,9.367303,0.037048545,-0.031444572,0.0098014325
OrientationDeg,1676592265232,29322054523174,126.0,-31.0,5.0
UncalGyro,1676592265236,29322058764315,-0.23426682,1.3775011,-1.861001,0.0036226935,-0.00046395656,-0.00031180933
UncalMag,1676592265238,29322060764132,-212.4996,760.975,407.3946,-174.57417,771.0116,430.86337
UncalAccel,1676592265240,29322062995882,7.25444,0.7399804,9.086145,0.037048545,-0.031444572,0.0098014325
OrientationDeg,1676592265240,29322062995882,127.0,-31.0,5.0
UncalGyro,1676592265245,29322067244407,-0.116980694,1.4115568,-1.9213239,0.0036226935,-0.00046395656,-0.00031180933
UncalMag,1676592265248,29322070762912,-212.0482,759.8404,406.8578,-174.57417,771.0116,430.86337
UncalAccel,1676592265249,29322071481417,6.2344995,0.6436693,8.722437,0.037048545,-0.031444572,0.0098014325
OrientationDeg,1676592265249,29322071481417,128.0,-30.0,4.0
UncalGyro,1676592265253,29322075727327,0.053603426,1.3883439,-2.0050125,0.0036226935,-0.00046395656,-0.00031180933
UncalAccel,1676592265257,29322079964755,5.0979085,0.46899325,8.5681,0.037048545,-0.031444572,0.0098014325
OrientationDeg,1676592265257,29322079964755,129.0,-29.0,4.0
UncalMag,1676592265258,29322080752129,-211.243,759.328,406.84558,-174.57417,771.0116,430.86337
UncalGyro,1676592265262,29322084207410,0.25152376,1.2924381,-2.111761,0.0036226935,-0.00046395656,-0.00031180933
UncalAccel,1676592265266,29322088445305,3.9858444,0.18903299,8.486146,0.037048545,-0.031444572,0.0098014325
OrientationDeg,1676592265266,29322088445305,130.0,-29.0,3.0
UncalMag,1676592265268,29322090763075,-210.4744,758.108,406.4064,-174.57417,771.0116,430.86337
UncalGyro,1676592265270,29322092687401,0.48197266,1.1067351,-2.2343924,0.0036226935,-0.00046395656,-0.00031180933
UncalAccel,1676592265274,29322096925204,3.1244283,-0.046660043,8.668,0.037048545,-0.031444572,0.0098014325
OrientationDeg,1676592265274,29322096925204,130.0,-28.0,2.0
UncalMag,1676592265278,29322100752170,-210.12059,756.9734,406.00378,-174.57417,771.0116,430.86337
UncalGyro,1676592265279,29322101164046,0.7637343,0.86544335,-2.3893993,0.0036226935,-0.00046395656,-0.00031180933
UncalAccel,1676592265283,29322105395816,2.5842485,-0.2656033,8.846864,0.037048545,-0.031444572,0.0098014325
OrientationDeg,1676592265283,29322105395816,131.0,-28.0,1.0
UncalGyro,1676592265287,29322109646427,1.1047498,0.6072,-2.5908322,0.0036226935,-0.00046395656,-0.00031180933
UncalMag,1676592265288,29322110751642,-209.3398,756.095,405.2962,-174.57417,771.0116,430.86337
UncalAccel,1676592265291,29322113883334,2.2983062,-0.47856453,8.846265,0.037048545,-0.031444572,0.0098014325
OrientationDeg,1676592265291,29322113883334,132.0,-28.0,0.0
UncalGyro,1676592265296,29322118130303,1.50731,0.36545014,-2.8431196,0.0036226935,-0.00046395656,-0.00031180933
