# 
# Header Description:
# 
# Version: v3.0.5.6 Platform: 13 Manufacturer: Google Model: Pixel 7
# 
# Raw,utcTimeMillis,TimeNanos,LeapSecond,TimeUncertaintyNanos,FullBiasNanos,BiasNanos,BiasUncertaintyNanos,DriftNanosPerSecond,DriftUncertaintyNanosPerSecond,HardwareClockDiscontinuityCount,Svid,TimeOffsetNanos,State,ReceivedSvTimeNanos,ReceivedSvTimeUncertaintyNanos,Cn0DbHz,PseudorangeRateMetersPerSecond,PseudorangeRateUncertaintyMetersPerSecond,AccumulatedDeltaRangeState,AccumulatedDeltaRangeMeters,AccumulatedDeltaRangeUncertaintyMeters,CarrierFrequencyHz,CarrierCycles,CarrierPhase,CarrierPhaseUncertainty,MultipathIndicator,SnrInDb,ConstellationType,AgcDb,BasebandCn0DbHz,FullInterSignalBiasNanos,FullInterSignalBiasUncertaintyNanos,SatelliteInterSignalBiasNanos,SatelliteInterSignalBiasUncertaintyNanos,CodeType,ChipsetElapsedRealtimeNanos
# 
# UncalAccel,utcTimeMillis,elapsedRealtimeNanos,UncalAccelXMps2,UncalAccelYMps2,UncalAccelZMps2,BiasXMps2,BiasYMps2,BiasZMps2
# 
# Accel,utcTimeMillis,elapsedRealtimeNanos,AccelXMps2,AccelYMps2,AccelZMps2
# 
# UncalGyro,utcTimeMillis,elapsedRealtimeNanos,UncalGyroXRadPerSec,UncalGyroYRadPerSec,UncalGyroZRadPerSec,DriftXRadPerSec,DriftYRadPerSec,DriftZRadPerSec
# 
# Gyro,utcTimeMillis,elapsedRealtimeNanos,GyroXRadPerSec,GyroYRadPerSec,GyroZRadPerSec
# 
# UncalMag,utcTimeMillis,elapsedRealtimeNanos,UncalMagXMicroT,UncalMagYMicroT,UncalMagZMicroT,BiasXMicroT,BiasYMicroT,BiasZMicroT
# 
# Mag,utcTimeMillis,elapsedRealtimeNanos,MagXMicroT,MagYMicroT,MagZMicroT
# 
# OrientationDeg,utcTimeMillis,elapsedRealtimeNanos,yawDeg,rollDeg,pitchDeg
# 
# Fix,Provider,LatitudeDegrees,LongitudeDegrees,AltitudeMeters,SpeedMps,AccuracyMeters,BearingDegrees,UnixTimeMillis,SpeedAccuracyMps,BearingAccuracyDegrees,elapsedRealtimeNanos,VerticalAccuracyMeters
# 
# Nav,Svid,Type,Status,MessageId,Sub-messageId,Data(Bytes)
# 
# Status,UnixTimeMillis,SignalCount,SignalIndex,ConstellationType,Svid,CarrierFrequencyHz,Cn0DbHz,AzimuthDegrees,ElevationDegrees,UsedInFix,HasAlmanacData,HasEphemerisData,BasebandCn0DbHz
# 
UncalAccel,1676592531529,29588351835283,-0.5766702,-0.016151553,10.397412,0.037048545,-0.031444572,0.0098014325
UncalAccel,1676592531538,29588360482814,-0.4336991,-0.06759724,10.470394,0.037048545,-0.031444572,0.0098014325
UncalMag,1676592531543,29588365591306,-196.27359,774.39496,390.949,-174.57417,771.0116,430.86337
UncalAccel,1676592531546,29588368316872,-0.36610186,-0.047856454,10.370493,0.037048545,-0.031444572,0.0098014325
UncalMag,1676592531553,29588375601764,-196.359,774.7488,391.1564,-174.57417,771.0116,430.86337
UncalGyro,1676592531554,29588376248588,0.22036964,-0.09941832,-0.022449298,0.001326485,-0.0016912267,-0.00032861932
UncalAccel,1676592531554,29588376248588,-0.31764722,-0.02871387,10.30828,0.037048545,-0.031444572,0.0098014325
UncalGyro,1676592531562,29588384814207,0.26511553,-0.082924955,-0.014966198,0.001326485,-0.0016912268,-0.00032861932
UncalAccel,1676592531562,29588384814207,-0.28893334,-0.018544376,10.299307,0.037048545,-0.031444572,0.0098014325
UncalMag,1676592531563,29588385591185,-196.8104,774.212,391.1564,-174.57417,771.0116,430.86337
UncalGyro,1676592531571,29588393282123,0.30650163,-0.06658431,-0.014966198,0.001326485,-0.0016912268,-0.00032861932
UncalAccel,1676592531571,29588393282123,-0.26979074,0.010169496,10.227522,0.037048545,-0.031444572,0.0098014325
UncalMag,1676592531573,29588395602009,-196.5176,773.98016,391.8274,-174.57417,771.0116,430.86337
UncalGyro,1676592531579,29588401763986,0.32803464,-0.06582073,-0.019394971,0.001326485,-0.0016912268,-0.00032861932
UncalAccel,1676592531579,29588401763986,-0.27876383,0.03888337,10.165309,0.037048545,-0.031444572,0.0098014325
UncalMag,1676592531583,29588405600259,-196.4688,774.6756,391.86398,-174.57417,771.0116,430.86337
UncalGyro,1676592531588,29588410247322,0.33414328,-0.08475755,-0.025503624,0.001326485,-0.0016912268,-0.00032861932
UncalAccel,1676592531588,29588410247322,-0.2883351,0.048454657,10.127024,0.037048545,-0.031444572,0.0098014325
UncalMag,1676592531593,29588415591226,-196.7372,773.6996,391.4004,-174.57417,771.0116,430.86337
UncalGyro,1676592531596,29588418725553,0.33093625,-0.12935072,-0.02977968,0.001326485,-0.0016912268,-0.00032861932
UncalAccel,1676592531596,29588418725553,-0.32542387,0.053240303,10.007382,0.037048545,-0.031444572,0.0098014325
UncalMag,1676592531603,29588425591267,-196.42,773.7118,391.5102,-174.57417,771.0116,430.86337
UncalGyro,1676592531605,29588427205413,0.31505376,-0.19074267,-0.03436117,0.001326485,-0.0016912268,-0.00032861932
UncalAccel,1676592531605,29588427205413,-0.31046873,0.04426722,9.945169,0.037048545,-0.031444572,0.0098014325
OrientationDeg,1676592531605,29588427205413,81.0,1.0,0.0
UncalMag,1676592531613,29588435591634,-196.11499,773.7484,392.4862,-174.57417,771.0116,430.86337
UncalGyro,1676592531613,29588435685689,0.2828306,-0.23579398,-0.032070424,0.001326485,-0.0016912268,-0.00032861932
UncalAccel,1676592531613,29588435685689,-0.25902304,0.049052864,10.036097,0.037048545,-0.031444572,0.0098014325
OrientationDeg,1676592531613,29588435685689,81.0,1.0,0.0
UncalGyro,1676592531622,29588444168619,0.23991732,-0.258396,-0.02107485,0.001326485,-0.0016912268,-0.00032861932
UncalAccel,1676592531622,29588444168619,-0.1591227,0.015553347,10.170692,0.037048545,-0.031444572,0.0098014325
UncalMag,1676592531623,29588445591471,-196.54199,773.4678,392.3032,-174.57417,771.0116,430.86337
OrientationDeg,1676592531622,29588444168619,81.0,1.0,0.0
Fix,NLP,37.4311274000,-122.1526506000,-17.899999618530273,,49.395,,1676592493111,,,29549933000000,7.089657
UncalGyro,1676592531630,29588452649169,0.19853121,-0.27305678,-0.0032070426,0.001326485,-0.0016912268,-0.00032861932
UncalAccel,1676592531630,29588452649169,-0.0735793,-0.012562319,10.223933,0.037048545,-0.031444572,0.0098014325
OrientationDeg,1676592531630,29588452649169,81.0,1.0,0.0
UncalMag,1676592531633,29588455591675,-196.4688,772.9554,392.54718,-174.57417,771.0116,430.86337
UncalGyro,1676592531639,29588461127421,0.17638734,-0.29718593,0.016035212,0.001326485,-0.0016912268,-0.00032861932
UncalAccel,1676592531639,29588461127421,-0.0059820567,-0.040677983,10.195817,0.037048545,-0.031444572,0.0098014325
OrientationDeg,1676592531639,29588461127421,81.0,1.0,0.0
UncalMag,1676592531643,29588465591309,-196.4688,772.9432,391.9372,-174.57417,771.0116,430.86337
UncalGyro,1676592531647,29588469608062,0.1779145,-0.32559118,0.03573562,0.001326485,-0.0016912268,-0.00032861932
UncalAccel,1676592531647,29588469608062,0.04127619,-0.10767702,10.287343,0.037048545,-0.031444572,0.0098014325
OrientationDeg,1676592531647,29588469608062,81.0,1.0,0.0
UncalMag,1676592531653,29588475591391,-197.396,773.2604,391.6688,-174.57417,771.0116,430.86337
UncalGyro,1676592531656,29588478101177,0.19853121,-0.34193182,0.054061573,0.001326485,-0.0016912268,-0.00032861932
UncalAccel,1676592531656,29588478101177,0.11246266,-0.22731815,10.43151,0.037048545,-0.031444572,0.0098014325
OrientationDeg,1676592531656,29588478101177,81.0,1.0,0.0
UncalMag,1676592531663,29588485601929,-197.823,773.0774,391.5224,-174.57417,771.0116,430.86337
UncalGyro,1676592531664,29588486582622,0.23625213,-0.35414913,0.070249505,0.001326485,-0.0016912268,-0.00032861932
UncalAccel,1676592531665,29588486582622,0.23150559,-0.3080759,10.570892,0.037048545,-0.031444572,0.0098014325
OrientationDeg,1676592531664,29588486582622,81.0,0.0,0.0
UncalGyro,1676592531673,29588495060212,0.30085114,-0.36361754,0.08002335,0.001326485,-0.0016912268,-0.00032861932
UncalAccel,1676592531673,29588495060212,0.2835495,-0.33200413,10.662417,0.037048545,-0.031444572,0.0098014325
OrientationDeg,1676592531673,29588495060212,81.0,0.0,-1.0
UncalMag,1676592531673,29588495591391,-197.6888,773.6142,392.0104,-174.57417,771.0116,430.86337
UncalGyro,1676592531681,29588503540915,0.39858958,-0.36682457,0.07819075,0.001326485,-0.0016912268,-0.00032861932
UncalAccel,1676592531681,29588503540915,0.24945176,-0.36550367,10.757532,0.037048545,-0.031444572,0.0098014325
OrientationDeg,1676592531681,29588503540915,81.0,0.0,-1.0
UncalMag,1676592531683,29588505591228,-197.6034,773.175,391.7786,-174.57417,771.0116,430.86337
UncalGyro,1676592531690,29588512021099,0.5235115,-0.35720345,0.06566802,0.001326485,-0.0016912268,-0.00032861932
UncalAccel,1676592531690,29588512021099,0.1680958,-0.40977088,10.828719,0.037048545,-0.031444572,0.0098014325
OrientationDeg,1676592531690,29588512021099,81.0,0.0,-1.0
UncalMag,1676592531693,29588515601971,-197.823,773.0774,391.64438,-174.57417,771.0116,430.86337
UncalGyro,1676592531698,29588520502473,0.65393126,-0.3483459,0.050549097,0.001326485,-0.0016912268,-0.00032861932
UncalAccel,1676592531698,29588520502473,0.096311115,-0.49172506,10.876575,0.037048545,-0.031444572,0.0098014325
OrientationDeg,1676592531698,29588520502473,81.0,0.0,-1.0
UncalMag,1676592531703,29588525591351,-197.762,772.4186,392.9376,-174.57417,771.0116,430.86337
UncalGyro,1676592531706,29588528981986,0.77640975,-0.3578143,0.034972034,0.001326485,-0.0016912268,-0.00032861932
UncalAccel,1676592531706,29588528981986,0.024526432,-0.44865423,10.904691,0.037048545,-0.031444572,0.0098014325
OrientationDeg,1676592531706,29588528981986,81.0,0.0,-2.0
UncalMag,1676592531713,29588535592043,-197.67659,771.96716,392.33978,-174.57417,771.0116,430.86337
UncalGyro,1676592531715,29588537459729,0.8912524,-0.39706242,0.009010263,0.001326485,-0.0016912268,-0.00032861932
UncalAccel,1676592531715,29588537459729,-0.052043892,-0.39661035,10.846665,0.037048545,-0.031444572,0.0098014325
OrientationDeg,1676592531715,29588537459729,81.0,0.0,-2.0
UncalMag,1676592531723,29588545601931,-197.6888,771.7964,392.291,-174.57417,771.0116,430.86337
UncalGyro,1676592531723,29588545936149,0.99280876,-0.46685377,-0.028405234,0.001326485,-0.0016912268,-0.00032861932
UncalAccel,1676592531723,29588545936149,-0.14237295,-0.3924229,10.79821,0.037048545,-0.031444572,0.0098014325
OrientationDeg,1676592531723,29588545936149,81.0,0.0,-3.0
UncalGyro,1676592531732,29588554428529,1.0800097,-0.5590944,-0.0870483,0.001326485,-0.0016912268,-0.00032861932
UncalAccel,1676592531732,29588554428529,-0.21894327,-0.4211368,10.769497,0.037048545,-0.031444572,0.0098014325
UncalMag,1676592531733,29588555591433,-198.555,771.3572,392.81558,-174.57417,771.0116,430.86337
OrientationDeg,1676592531732,29588554428529,81.0,0.0,-3.0
UncalGyro,1676592531740,29588562907737,1.1604912,-0.66859204,-0.16615535,0.001326485,-0.0016912268,-0.00032861932
UncalAccel,1676592531740,29588562907737,-0.24705894,-0.45044887,10.716854,0.037048545,-0.031444572,0.0098014325
OrientationDeg,1676592531741,29588562907737,81.0,0.0,-4.0
UncalMag,1676592531743,29588565601891,-199.0064,770.8204,392.8278,-174.57417,771.0116,430.86337
UncalGyro,1676592531749,29588571385073,1.2356277,-0.7686212,-0.28038713,0.001326485,-0.0016912268,-0.00032861932
UncalAccel,1676592531749,29588571385073,-0.2428715,-0.3786642,10.764112,0.037048545,-0.031444572,0.0098014325
OrientationDeg,1676592531749,29588571385073,81.0,-1.0,-4.0
UncalMag,1676592531753,29588575602013,-198.3354,769.9298,394.4138,-174.57417,771.0116,430.86337
UncalGyro,1676592531757,29588579874473,1.2883148,-0.8614727,-0.4195117,0.001326485,-0.0016912268,-0.00032861932
UncalAccel,1676592531757,29588579874473,-0.20578274,-0.4552345,10.979466,0.037048545,-0.031444572,0.0098014325
OrientationDeg,1676592531757,29588579874473,81.0,-1.0,-5.0
UncalMag,1676592531763,29588585602013,-198.8722,769.62476,393.3768,-174.57417,771.0116,430.86337
UncalGyro,1676592531766,29588588347059,1.3095424,-0.98471475,-0.57360244,0.001326485,-0.0016912268,-0.00032861932
UncalAccel,1676592531766,29588588347059,-0.1058824,-0.45942193,11.032707,0.037048545,-0.031444572,0.0098014325
OrientationDeg,1676592531766,29588588347059,82.0,-2.0,-6.0
UncalMag,1676592531773,29588595601851,-199.5432,768.844,393.81598,-174.57417,771.0116,430.86337
UncalGyro,1676592531774,29588596824141,1.297936,-1.1337659,-0.73746705,0.001326485,-0.0016912268,-0.00032861932
UncalAccel,1676592531774,29588596824141,-0.020937199,-0.41575295,11.12842,0.037048545,-0.031444572,0.0098014325
OrientationDeg,1676592531774,29588596824141,82.0,-2.0,-6.0
UncalGyro,1676592531783,29588605301324,1.2637274,-1.2696834,-0.9130908,0.001326485,-0.0016912268,-0.00032861932
UncalAccel,1676592531783,29588605301324,0.021535404,-0.43968117,11.267203,0.037048545,-0.031444572,0.0098014325
UncalMag,1676592531783,29588605593143,-200.1532,767.5508,394.853,-174.57417,771.0116,430.86337
OrientationDeg,1676592531783,29588605301324,82.0,-3.0,-7.0
UncalGyro,1676592531791,29588613784407,1.2200506,-1.4068227,-1.0928379,0.001326485,-0.0016912268,-0.00032861932
UncalAccel,1676592531791,29588613784407,0.15194423,-0.4869394,11.139786,0.037048545,-0.031444572,0.0098014325
OrientationDeg,1676592531791,29588613784407,83.0,-3.0,-8.0
UncalMag,1676592531793,29588615591353,-200.29959,766.8432,394.45038,-174.57417,771.0116,430.86337
UncalGyro,1676592531800,29588622272027,1.1641564,-1.5427402,-1.2643384,0.001326485,-0.0016912268,-0.00032861932
UncalAccel,1676592531800,29588622272027,0.35832518,-0.5192425,11.069198,0.037048545,-0.031444572,0.0098014325
OrientationDeg,1676592531800,29588622272027,83.0,-4.0,-8.0
UncalMag,1676592531803,29588625602014,-201.1658,766.4162,395.3288,-174.57417,771.0116,430.86337
UncalGyro,1676592531808,29588630752181,1.1029172,-1.6800321,-1.4373659,0.001326485,-0.0016912268,-0.00032861932
UncalAccel,1676592531808,29588630752181,0.5455636,-0.4552345,10.922039,0.037048545,-0.031444572,0.0098014325
OrientationDeg,1676592531808,29588630752181,84.0,-5.0,-9.0
UncalMag,1676592531813,29588635586268,-202.459,765.6964,395.6826,-174.57417,771.0116,430.86337
UncalGyro,1676592531817,29588639229374,1.0245737,-1.8188512,-1.6045903,0.001326485,-0.0016912268,-0.00032861932
UncalAccel,1676592531817,29588639229374,0.8757731,-0.39541394,10.871191,0.037048545,-0.031444572,0.0098014325
OrientationDeg,1676592531817,29588639229374,85.0,-6.0,-9.0
UncalMag,1676592531823,29588645601811,-202.81279,765.0254,396.5,-174.57417,771.0116,430.86337
UncalGyro,1676592531825,29588647710027,0.9289733,-1.9749273,-1.7594446,0.001326485,-0.0016912268,-0.00032861932
UncalAccel,1676592531825,29588647710027,1.2358929,-0.3062813,10.582258,0.037048545,-0.031444572,0.0098014325
OrientationDeg,1676592531825,29588647710027,86.0,-6.0,-10.0
UncalMag,1676592531833,29588655602137,-203.374,764.513,397.47598,-174.57417,771.0116,430.86337
UncalGyro,1676592531834,29588656188573,0.81397796,-2.1517727,-1.9234619,0.001326485,-0.0016912268,-0.00032861932
UncalAccel,1676592531834,29588656188573,1.538585,-0.20338993,10.330414,0.037048545,-0.031444572,0.0098014325
OrientationDeg,1676592531834,29588656188573,87.0,-7.0,-10.0
UncalGyro,1676592531842,29588664671036,0.67271537,-2.3280075,-2.0949624,0.001326485,-0.0016912268,-0.00032861932
UncalAccel,1676592531842,29588664671036,1.9423738,-0.15732808,10.079765,0.037048545,-0.031444572,0.0098014325
OrientationDeg,1676592531842,29588664671036,88.0,-8.0,-11.0
UncalMag,1676592531843,29588665591395,-203.55699,763.232,398.391,-174.57417,771.0116,430.86337
UncalGyro,1676592531851,29588673149908,0.5111415,-2.4938574,-2.2753203,0.001326485,-0.0016912268,-0.00032861932
UncalAccel,1676592531851,29588673149908,2.3264217,-0.0735793,9.795618,0.037048545,-0.031444572,0.0098014325
OrientationDeg,1676592531851,29588673149908,89.0,-9.0,-11.0
UncalMag,1676592531853,29588675602056,-205.1918,762.2438,398.5496,-174.57417,771.0116,430.86337
UncalGyro,1676592531859,29588681632156,0.35903606,-2.6123652,-2.4654522,0.001326485,-0.0016912268,-0.00032861932
UncalAccel,1676592531859,29588681632156,2.6769702,0.010767702,9.5252285,0.037048545,-0.031444572,0.0098014325
OrientationDeg,1676592531859,29588681632156,90.0,-10.0,-12.0
UncalMag,1676592531863,29588685601812,-205.5456,761.48737,399.4646,-174.57417,771.0116,430.86337
UncalGyro,1676592531868,29588690110885,0.23258694,-2.653904,-2.656653,0.001326485,-0.0016912268,-0.00032861932
UncalAccel,1676592531868,29588690110885,3.0083764,0.16630118,9.273384,0.037048545,-0.031444572,0.0098014325
OrientationDeg,1676592531868,29588690110885,91.0,-11.0,-12.0
UncalMag,1676592531873,29588695601813,-205.88719,761.17017,400.85538,-174.57417,771.0116,430.86337
UncalGyro,1676592531876,29588698593256,0.13958271,-2.6090055,-2.8362474,0.001326485,-0.0016912268,-0.00032861932
UncalAccel,1676592531876,29588698593256,3.3050864,0.32662028,9.09811,0.037048545,-0.031444572,0.0098014325
OrientationDeg,1676592531876,29588698593256,92.0,-12.0,-12.0
UncalMag,1676592531883,29588705601813,-206.5948,759.7672,401.02618,-174.57417,771.0116,430.86337
UncalGyro,1676592531885,29588707063584,0.08246681,-2.4772112,-2.9940033,0.001326485,-0.0016912268,-0.00032861932
UncalAccel,1676592531885,29588707063584,3.4965122,0.55334026,8.912068,0.037048545,-0.031444572,0.0098014325
OrientationDeg,1676592531885,29588707063584,94.0,-13.0,-13.0
UncalGyro,1676592531893,29588715554520,0.052381694,-2.2847888,-3.1132748,0.001326485,-0.0016912268,-0.00032861932
UncalAccel,1676592531893,29588715554520,3.635894,0.7746763,8.668598,0.037048545,-0.031444572,0.0098014325
UncalMag,1676592531893,29588715591356,-206.86319,758.9254,402.4048,-174.57417,771.0116,430.86337
OrientationDeg,1676592531894,29588715554520,95.0,-14.0,-13.0
UncalGyro,1676592531902,29588724035539,0.033292156,-2.0694587,-3.1871893,0.001326485,-0.0016912268,-0.00032861932
UncalAccel,1676592531902,29588724035539,3.6753755,0.9720842,8.376674,0.037048545,-0.031444572,0.0098014325
UncalMag,1676592531903,29588725591641,-207.3756,757.25397,402.13638,-174.57417,771.0116,430.86337
OrientationDeg,1676592531902,29588724035539,97.0,-14.0,-14.0
UncalGyro,1676592531910,29588732512661,0.013133603,-1.8402315,-3.2246048,0.001326485,-0.0016912268,-0.00032861932
UncalAccel,1676592531910,29588732512661,3.546163,1.2107682,8.212168,0.037048545,-0.031444572,0.0098014325
UncalMag,1676592531913,29588735591885,-207.31459,756.7904,403.83218,-174.57417,771.0116,430.86337
OrientationDeg,1676592531910,29588732512661,98.0,-15.0,-14.0
UncalGyro,1676592531918,29588740994768,-0.0143553335,-1.6102408,-3.2313244,0.001326485,-0.0016912268,-0.00032861932
UncalAccel,1676592531918,29588740994768,3.234498,1.5493526,8.098508,0.037048545,-0.031444572,0.0098014325
OrientationDeg,1676592531918,29588740994768,100.0,-15.0,-14.0
UncalMag,1676592531923,29588745597664,-207.18039,755.5216,404.979,-174.57417,771.0116,430.86337
UncalGyro,1676592531927,29588749479142,-0.05177083,-1.4034629,-3.210555,0.001326485,-0.0016912268,-0.00032861932
UncalAccel,1676592531927,29588749479142,2.7984061,1.9734805,7.9076805,0.037048545,-0.031444572,0.0098014325
OrientationDeg,1676592531927,29588749479142,102.0,-16.0,-15.0
UncalMag,1676592531933,29588755592618,-206.851,754.0454,404.979,-174.57417,771.0116,430.86337
UncalGyro,1676592531935,29588757961524,-0.09697486,-1.2841915,-3.1590896,0.001326485,-0.0016912268,-0.00032861932
UncalAccel,1676592531935,29588757961524,2.3449662,2.3545375,7.516454,0.037048545,-0.031444572,0.0098014325
OrientationDeg,1676592531935,29588757961524,103.0,-16.0,-15.0
UncalMag,1676592531943,29588765601896,-206.79,753.2646,405.162,-174.57417,771.0116,430.86337
UncalGyro,1676592531944,29588766437508,-0.14950927,-1.2611313,-3.0761647,0.001326485,-0.0016912268,-0.00032861932
UncalAccel,1676592531944,29588766437508,1.9010975,2.6153553,7.2448688,0.037048545,-0.031444572,0.0098014325
OrientationDeg,1676592531944,29588766437508,105.0,-16.0,-15.0
UncalGyro,1676592531952,29588774914813,-0.21792617,-1.2893838,-2.9710958,0.001326485,-0.0016912268,-0.00032861932
UncalAccel,1676592531952,29588774914813,1.5320047,2.8002007,7.18445,0.037048545,-0.031444572,0.0098014325
OrientationDeg,1676592531952,29588774914813,106.0,-16.0,-16.0
UncalMag,1676592531953,29588775592456,-206.7412,752.38617,404.83258,-174.57417,771.0116,430.86337
UncalGyro,1676592531961,29588783398526,-0.30207285,-1.3245085,-2.8460212,0.001326485,-0.0016912268,-0.00032861932
UncalAccel,1676592531961,29588783398526,1.2999009,3.0329027,7.3345995,0.037048545,-0.031444572,0.0098014325
OrientationDeg,1676592531961,29588783398526,108.0,-16.0,-16.0
UncalMag,1676592531963,29588785601937,-206.485,751.5566,406.199,-174.57417,771.0116,430.86337
UncalGyro,1676592531969,29588791879036,-0.39202276,-1.3464997,-2.7027733,0.001326485,-0.0016912268,-0.00032861932
UncalAccel,1676592531969,29588791879036,1.2215359,3.3056846,7.423134,0.037048545,-0.031444572,0.0098014325
OrientationDeg,1676592531969,29588791879036,109.0,-17.0,-16.0
UncalMag,1676592531973,29588795602059,-205.8994,750.9832,406.89438,-174.57417,771.0116,430.86337
UncalGyro,1676592531978,29588800349333,-0.48548517,-1.3716979,-2.5227208,0.001326485,-0.0016912268,-0.00032861932
UncalAccel,1676592531978,29588800349333,1.2640085,3.4205399,7.4422765,0.037048545,-0.031444572,0.0098014325
OrientationDeg,1676592531978,29588800349333,110.0,-17.0,-16.0
UncalMag,1676592531983,29588805591684,-206.241,750.36096,406.748,-174.57417,771.0116,430.86337
UncalGyro,1676592531986,29588808833077,-0.59559363,-1.379181,-2.28036,0.001326485,-0.0016912268,-0.00032861932
UncalAccel,1676592531986,29588808833077,1.3674982,3.382853,7.676773,0.037048545,-0.031444572,0.0098014325
OrientationDeg,1676592531986,29588808833077,111.0,-17.0,-16.0
UncalMag,1676592531993,29588815602101,-206.5948,749.751,407.2238,-174.57417,771.0116,430.86337
UncalGyro,1676592531995,29588817318795,-0.7173085,-1.3886495,-1.9595029,0.001326485,-0.0016912268,-0.00032861932
UncalAccel,1676592531995,29588817318795,1.4973087,3.2015967,7.6737823,0.037048545,-0.031444572,0.0098014325
OrientationDeg,1676592531995,29588817318795,112.0,-18.0,-16.0
UncalMag,1676592532003,29588825592050,-205.5578,749.5924,407.0408,-174.57417,771.0116,430.86337
UncalGyro,1676592532003,29588825800027,-0.82802784,-1.4158329,-1.5836681,0.001326485,-0.0016912268,-0.00032861932
UncalAccel,1676592532003,29588825800027,1.5948163,2.9718857,7.656434,0.037048545,-0.031444572,0.0098014325
OrientationDeg,1676592532003,29588825800027,113.0,-18.0,-16.0
UncalGyro,1676592532012,29588834281920,-0.9149234,-1.432479,-1.1908818,0.001326485,-0.0016912268,-0.00032861932
UncalAccel,1676592532012,29588834281920,1.727618,2.8671997,7.8203425,0.037048545,-0.031444572,0.0098014325
OrientationDeg,1676592532013,29588834281920,114.0,-19.0,-16.0
UncalMag,1676592532013,29588835591400,-206.4362,748.9092,407.8582,-174.57417,771.0116,430.86337
UncalGyro,1676592532020,29588842762705,-0.9766208,-1.4138476,-0.8208502,0.001326485,-0.0016912268,-0.00032861932
UncalAccel,1676592532020,29588842762705,1.8981066,2.8103702,8.121839,0.037048545,-0.031444572,0.0098014325
OrientationDeg,1676592532020,29588842762705,115.0,-19.0,-16.0
UncalMag,1676592532023,29588845602101,-206.57039,748.47,407.8826,-174.57417,771.0116,430.86337
UncalGyro,1676592532029,29588851226419,-1.0167851,-1.3306172,-0.5137377,0.001326485,-0.0016912268,-0.00032861932
UncalAccel,1676592532029,29588851226419,1.9435701,2.7912276,8.408977,0.037048545,-0.031444572,0.0098014325
OrientationDeg,1676592532029,29588851226419,115.0,-20.0,-15.0
UncalMag,1676592532033,29588855591156,-206.9608,748.9092,408.11438,-174.57417,771.0116,430.86337
UncalGyro,1676592532037,29588859728240,-1.0425943,-1.1772901,-0.29840767,0.001326485,-0.0016912268,-0.00032861932
UncalAccel,1676592532037,29588859728240,1.9280169,2.8145576,8.609376,0.037048545,-0.031444572,0.0098014325
OrientationDeg,1676592532037,29588859728240,115.0,-20.0,-15.0
UncalMag,1676592532043,29588865601817,-207.13159,749.61676,408.65118,-174.57417,771.0116,430.86337
UncalGyro,1676592532046,29588868201782,-1.0668762,-0.97326106,-0.17806722,0.001326485,-0.0016912268,-0.00032861932
UncalAccel,1676592532046,29588868201782,1.8215362,2.8426733,8.751749,0.037048545,-0.031444572,0.0098014325
OrientationDeg,1676592532046,29588868201782,116.0,-21.0,-14.0
UncalMag,1676592532053,29588875602346,-207.5586,749.4338,408.6146,-174.57417,771.0116,430.86337
UncalGyro,1676592532054,29588876683614,-1.0882565,-0.7281514,-0.1366811,0.001326485,-0.0016912268,-0.00032861932
UncalAccel,1676592532054,29588876683614,1.6773686,2.975475,8.740383,0.037048545,-0.031444572,0.0098014325
OrientationDeg,1676592532054,29588876683614,116.0,-21.0,-14.0
UncalGyro,1676592532063,29588885167908,-1.0984885,-0.44348818,-0.14935656,0.001326485,-0.0016912268,-0.00032861932
UncalAccel,1676592532063,29588885167908,1.4279169,3.1322048,8.718847,0.037048545,-0.031444572,0.0098014325
UncalMag,1676592532063,29588885591157,-207.7416,749.8486,408.11438,-174.57417,771.0116,430.86337
OrientationDeg,1676592532064,29588885167908,116.0,-21.0,-13.0
UncalGyro,1676592532071,29588893646932,-1.1073459,-0.13454308,-0.1919644,0.001326485,-0.0016912268,-0.00032861932
UncalAccel,1676592532071,29588893646932,1.0648061,3.1154552,8.692527,0.037048545,-0.031444572,0.0098014325
UncalMag,1676592532073,29588895591849,-207.522,750.04376,408.63898,-174.57417,771.0116,430.86337
OrientationDeg,1676592532071,29588893646932,116.0,-21.0,-13.0
UncalGyro,1676592532080,29588902127706,-1.1357512,0.1414153,-0.22739458,0.001326485,-0.0016912268,-0.00032861932
UncalAccel,1676592532080,29588902127706,0.88414794,2.9132617,8.639884,0.037048545,-0.031444572,0.0098014325
OrientationDeg,1676592532080,29588902127706,117.0,-21.0,-13.0
UncalMag,1676592532083,29588905601818,-207.5952,750.544,407.9192,-174.57417,771.0116,430.86337
UncalGyro,1676592532088,29588910607067,-1.1876748,0.3556763,-0.23671028,0.001326485,-0.0016912268,-0.00032861932
UncalAccel,1676592532088,29588910607067,0.78065836,2.7068806,8.597412,0.037048545,-0.031444572,0.0098014325
OrientationDeg,1676592532088,29588910607067,117.0,-21.0,-12.0
UncalMag,1676592532093,29588915591483,-207.583,750.8002,407.8582,-174.57417,771.0116,430.86337
UncalGyro,1676592532097,29588919085074,-1.2425,0.5233588,-0.20815234,0.001326485,-0.0016912268,-0.00032861932
UncalAccel,1676592532097,29588919085074,0.7573284,2.6638098,8.559127,0.037048545,-0.031444572,0.0098014325
OrientationDeg,1676592532097,29588919085074,117.0,-20.0,-12.0
UncalMag,1676592532103,29588925591361,-207.33899,751.32477,407.6142,-174.57417,771.0116,430.86337
UncalGyro,1676592532105,29588927565655,-1.2793045,0.6649268,-0.13545936,0.001326485,-0.0016912268,-0.00032861932
UncalAccel,1676592532105,29588927565655,0.76749784,2.7260232,8.411369,0.037048545,-0.031444572,0.0098014325
OrientationDeg,1676592532105,29588927565655,118.0,-20.0,-11.0
UncalMag,1676592532113,29588935595064,-206.6314,750.78796,406.748,-174.57417,771.0116,430.86337
UncalGyro,1676592532114,29588936047161,-1.3066407,0.7845037,-0.03023783,0.001326485,-0.0016912268,-0.00032861932
UncalAccel,1676592532114,29588936047161,0.74476606,2.8510482,8.162517,0.037048545,-0.031444572,0.0098014325
OrientationDeg,1676592532114,29588936047161,118.0,-19.0,-10.0
UncalGyro,1676592532121,29588944529217,-1.3622295,0.9231701,0.08582657,0.001326485,-0.0016912268,-0.00032861932
UncalAccel,1676592532122,29588944529217,0.5521438,2.9599216,8.284551,0.037048545,-0.031444572,0.0098014325
UncalMag,1676592532123,29588945591402,-206.18,751.398,406.5162,-174.57417,771.0116,430.86337
OrientationDeg,1676592532122,29588944529217,118.0,-19.0,-10.0
OrientationDeg,1676592532131,29588953012097,118.0,-18.0,-9.0
UncalGyro,1676592532131,29588953012097,-1.4689782,1.0668762,0.20525073,0.001326485,-0.0016912268,-0.00032861932
UncalAccel,1676592532131,29588953012097,0.28055847,2.6805596,8.336594,0.037048545,-0.031444572,0.0098014325
UncalMag,1676592532133,29588955601941,-206.1556,751.7152,405.3816,-174.57417,771.0116,430.86337
UncalGyro,1676592532140,29588961500012,-1.600467,1.1371256,0.32528573,0.001326485,-0.0016912268,-0.00032861932
UncalAccel,1676592532139,29588961500012,-0.025722843,2.2187448,8.021938,0.037048545,-0.031444572,0.0098014325
OrientationDeg,1676592532139,29588961500012,118.0,-18.0,-8.0
UncalMag,1676592532143,29588965601982,-206.1068,752.58136,405.345,-174.57417,771.0116,430.86337
UncalGyro,1676592532147,29588969970664,-1.7424932,1.1516337,0.4280638,0.001326485,-0.0016912268,-0.00032861932
UncalAccel,1676592532147,29588969970664,-0.21655045,2.0117657,8.127222,0.037048545,-0.031444572,0.0098014325
OrientationDeg,1676592532147,29588969970664,118.0,-17.0,-7.0
UncalMag,1676592532153,29588975591525,-205.9482,753.43536,404.5764,-174.57417,771.0116,430.86337
UncalGyro,1676592532156,29588978451489,-1.9043725,1.1780536,0.50961435,0.001326485,-0.0016912268,-0.00032861932
UncalAccel,1676592532156,29588978451489,-0.26679972,1.9531415,8.484949,0.037048545,-0.031444572,0.0098014325
OrientationDeg,1676592532156,29588978451489,118.0,-17.0,-6.0
UncalMag,1676592532163,29588985601820,-205.5334,753.32556,403.698,-174.57417,771.0116,430.86337
UncalGyro,1676592532164,29588986931756,-2.0448713,1.2021828,0.5847508,0.001326485,-0.0016912268,-0.00032861932
UncalAccel,1676592532164,29588986931756,-0.34396824,1.995614,8.55135,0.037048545,-0.031444572,0.0098014325
OrientationDeg,1676592532164,29588986931756,118.0,-16.0,-5.0
UncalGyro,1676592532173,29588995410973,-1.736079,2.0179935,0.74372846,0.001326485,-0.0016912268,-0.00032861932
UncalAccel,1676592532173,29588995410973,-0.68255264,0.79920274,18.157934,0.037048545,-0.031444572,0.0098014325
OrientationDeg,1676592532174,29588995410973,118.0,-15.0,-4.0
UncalMag,1676592532173,29588995611830,-205.3382,754.7896,402.70978,-174.57417,771.0116,430.86337
UncalGyro,1676592532181,29589003893060,-0.36819902,2.5303566,1.2400564,0.001326485,-0.0016912268,-0.00032861932
UncalAccel,1676592532181,29589003893060,-2.5070798,1.1676974,8.641679,0.037048545,-0.031444572,0.0098014325
OrientationDeg,1676592532181,29589003893060,118.0,-14.0,-4.0
UncalMag,1676592532183,29589005607069,-205.3382,754.7896,402.70978,-174.57417,771.0116,430.86337
UncalGyro,1676592532191,29589012371647,1.2689198,0.8335256,2.090381,0.001326485,-0.0016912268,-0.00032861932
UncalAccel,1676592532190,29589012371647,-3.6951163,3.522833,11.104491,0.037048545,-0.031444572,0.0098014325
OrientationDeg,1676592532190,29589012371647,117.0,-14.0,-5.0
UncalMag,1676592532193,29589015602065,-204.32559,755.8022,400.86758,-174.57417,771.0116,430.86337
UncalGyro,1676592532198,29589020854027,1.4894422,1.248914,2.008525,0.001326485,-0.0016912268,-0.00032861932
UncalAccel,1676592532198,29589020854027,0.9840483,2.024328,16.410576,0.037048545,-0.031444572,0.0098014325
OrientationDeg,1676592532198,29589020854027,115.0,-13.0,-5.0
UncalMag,1676592532203,29589025594619,-204.3378,755.7168,401.0872,-174.57417,771.0116,430.86337
UncalGyro,1676592532207,29589029332828,1.1403327,1.183246,1.5085317,0.001326485,-0.0016912268,-0.00032861932
UncalAccel,1676592532207,29589029332828,0.3930211,2.14696,9.657433,0.037048545,-0.031444572,0.0098014325
OrientationDeg,1676592532207,29589029332828,115.0,-13.0,-5.0
UncalMag,1676592532213,29589035593154,-204.3378,755.7168,401.0872,-174.57417,771.0116,430.86337
UncalGyro,1676592532215,29589037815027,0.56337047,0.796721,1.156826,0.001326485,-0.0016912268,-0.00032861932
UncalAccel,1676592532215,29589037815027,0.22851457,2.315654,8.514859,0.037048545,-0.031444572,0.0098014325
OrientationDeg,1676592532215,29589037815027,114.0,-12.0,-6.0
UncalMag,1676592532223,29589045601903,-204.0938,756.2414,400.8432,-174.57417,771.0116,430.86337
UncalGyro,1676592532224,29589046294072,-0.09865474,0.25793785,0.9821186,0.001326485,-0.0016912268,-0.00032861932
UncalAccel,1676592532224,29589046294072,1.268196,1.7623138,8.042277,0.037048545,-0.031444572,0.0098014325
OrientationDeg,1676592532224,29589046294072,114.0,-12.0,-5.0
UncalGyro,1676592532232,29589054773106,-0.623388,-0.1253801,0.9242391,0.001326485,-0.0016912268,-0.00032861932
UncalAccel,1676592532232,29589054773106,2.6075785,0.31764722,9.031709,0.037048545,-0.031444572,0.0098014325
UncalMag,1676592532233,29589055591324,-204.5696,757.02216,401.0384,-174.57417,771.0116,430.86337
OrientationDeg,1676592532232,29589054773106,113.0,-12.0,-5.0
UncalGyro,1676592532241,29589063260228,-0.9622655,-0.3529274,0.8571966,0.001326485,-0.0016912268,-0.00032861932
UncalAccel,1676592532241,29589063260228,2.9880373,0.7040881,8.38804,0.037048545,-0.031444572,0.0098014325
OrientationDeg,1676592532241,29589063260228,113.0,-13.0,-4.0
UncalMag,1676592532243,29589065602188,-204.5696,757.02216,401.0384,-174.57417,771.0116,430.86337
UncalGyro,1676592532249,29589071737361,-1.2382239,-0.52015173,0.7611381,0.001326485,-0.0016912268,-0.00032861932
UncalAccel,1676592532249,29589071737361,3.6861434,1.3357933,8.575278,0.037048545,-0.031444572,0.0098014325
OrientationDeg,1676592532249,29589071737361,113.0,-13.0,-4.0
UncalMag,1676592532253,29589075601904,-205.41139,758.71796,400.1356,-174.57417,771.0116,430.86337
UncalGyro,1676592532258,29589080207413,-1.4433218,-0.50869805,0.67363167,0.001326485,-0.0016912268,-0.00032861932
UncalAccel,1676592532258,29589080207413,4.4691944,0.6448657,9.256635,0.037048545,-0.031444572,0.0098014325
OrientationDeg,1676592532258,29589080207413,113.0,-13.0,-3.0
UncalMag,1676592532263,29589085599015,-204.8868,758.657,400.70898,-174.57417,771.0116,430.86337
UncalGyro,1676592532266,29589088697382,-1.5673275,-0.32452217,0.58032197,0.001326485,-0.0016912268,-0.00032861932
UncalAccel,1676592532266,29589088697382,4.624728,0.6646065,9.553345,0.037048545,-0.031444572,0.0098014325
OrientationDeg,1676592532266,29589088697382,112.0,-13.0,-2.0
UncalMag,1676592532273,29589095594376,-205.0332,759.5964,400.099,-174.57417,771.0116,430.86337
UncalGyro,1676592532275,29589097180110,-1.6520851,0.0106901415,0.47983465,0.001326485,-0.0016912268,-0.00032861932
UncalAccel,1676592532275,29589097180110,4.4817567,1.2191432,9.740582,0.037048545,-0.031444572,0.0098014325
OrientationDeg,1676592532275,29589097180110,112.0,-13.0,-1.0
UncalMag,1676592532283,29589105601742,-205.3992,760.4748,400.4284,-174.57417,771.0116,430.86337
UncalGyro,1676592532283,29589105651220,-1.6461291,0.2921463,0.47510046,0.001326485,-0.0016912268,-0.00032861932
UncalAccel,1676592532283,29589105651220,4.3495536,1.2915261,8.799007,0.037048545,-0.031444572,0.0098014325
OrientationDeg,1676592532283,29589105651220,112.0,-13.0,0.0
UncalGyro,1676592532292,29589114137193,-1.5888605,0.43753225,0.6760751,0.001326485,-0.0016912268,-0.00032861932
UncalAccel,1676592532292,29589114137193,3.7555351,0.91585284,7.938189,0.037048545,-0.031444572,0.0098014325
UncalMag,1676592532293,29589115591569,-204.7404,760.975,399.33038,-174.57417,771.0116,430.86337
OrientationDeg,1676592532292,29589114137193,112.0,-13.0,0.0
UncalGyro,1676592532300,29589122620753,-1.3739886,0.3491095,0.81092364,0.001326485,-0.0016912268,-0.00032861932
UncalAccel,1676592532300,29589122620753,3.8404803,1.2867404,7.1635127,0.037048545,-0.031444572,0.0098014325
OrientationDeg,1676592532300,29589122620753,112.0,-13.0,0.0
UncalMag,1676592532303,29589125601823,-204.7038,761.6704,399.48898,-174.57417,771.0116,430.86337
UncalGyro,1676592532309,29589131102026,-0.97692627,0.2434298,0.7646506,0.001326485,-0.0016912268,-0.00032861932
UncalAccel,1676592532309,29589131102026,3.257828,1.1706885,8.439486,0.037048545,-0.031444572,0.0098014325
OrientationDeg,1676592532309,29589131102026,112.0,-13.0,1.0
UncalMag,1676592532313,29589135586809,-205.1552,762.7806,398.9278,-174.57417,771.0116,430.86337
UncalGyro,1676592532317,29589139583990,-0.52931476,0.3996586,0.6366743,0.001326485,-0.0016912268,-0.00032861932
UncalAccel,1676592532317,29589139583990,2.629712,1.4327025,9.747163,0.037048545,-0.031444572,0.0098014325
OrientationDeg,1676592532317,29589139583990,112.0,-12.0,1.0
UncalMag,1676592532323,29589145601783,-205.3992,762.1462,398.1714,-174.57417,771.0116,430.86337
UncalGyro,1676592532326,29589148062090,-0.058643065,0.4972443,0.43218717,0.001326485,-0.0016912268,-0.00032861932
UncalAccel,1676592532326,29589148062090,3.0436704,1.942972,9.680164,0.037048545,-0.031444572,0.0098014325
OrientationDeg,1676592532326,29589148062090,111.0,-12.0,1.0
UncalMag,1676592532333,29589155601865,-205.27719,762.4146,398.2324,-174.57417,771.0116,430.86337
OrientationDeg,1676592532334,29589156542843,111.0,-12.0,1.0
UncalGyro,1676592532334,29589156542843,0.36575556,0.39400807,0.22831088,0.001326485,-0.0016912268,-0.00032861932
UncalAccel,1676592532334,29589156542843,3.7339997,1.9716859,9.416953,0.037048545,-0.031444572,0.0098014325
UncalGyro,1676592532343,29589165024564,0.7518224,0.23136522,0.00076358154,0.001326485,-0.0016912268,-0.00032861932
UncalAccel,1676592532343,29589165024564,3.6574295,2.6943183,9.55155,0.037048545,-0.031444572,0.0098014325
UncalMag,1676592532343,29589165613909,-204.4598,762.2804,399.0254,-174.57417,771.0116,430.86337
OrientationDeg,1676592532343,29589165024564,111.0,-12.0,0.0
UncalGyro,1676592532351,29589173503811,1.0965031,0.10262536,-0.29840767,0.001326485,-0.0016912268,-0.00032861932
UncalAccel,1676592532351,29589173503811,3.2105699,3.0604203,9.561121,0.037048545,-0.031444572,0.0098014325
UncalMag,1676592532353,29589175601947,-204.9722,762.31696,397.72,-174.57417,771.0116,430.86337
OrientationDeg,1676592532351,29589173503811,111.0,-12.0,0.0
UncalGyro,1676592532359,29589181984016,1.3544409,0.091477074,-0.61666846,0.001326485,-0.0016912268,-0.00032861932
UncalAccel,1676592532359,29589181984016,3.6077783,3.3427732,11.256436,0.037048545,-0.031444572,0.0098014325
OrientationDeg,1676592532360,29589181984016,111.0,-12.0,0.0
UncalMag,1676592532364,29589185602110,-205.11859,761.6216,398.0372,-174.57417,771.0116,430.86337
UncalGyro,1676592532368,29589190454333,1.4697418,0.26939157,-0.88239485,0.001326485,-0.0016912268,-0.00032861932
UncalAccel,1676592532368,29589190454333,3.8727834,3.263212,11.086546,0.037048545,-0.031444572,0.0098014325
OrientationDeg,1676592532368,29589190454333,112.0,-12.0,-1.0
UncalMag,1676592532373,29589195591612,-204.6306,761.06036,399.3426,-174.57417,771.0116,430.86337
UncalGyro,1676592532376,29589198947456,1.4239268,0.09850202,-1.1232284,0.001326485,-0.0016912268,-0.00032861932
UncalAccel,1676592532376,29589198947456,3.6053855,3.3690944,9.657433,0.037048545,-0.031444572,0.0098014325
OrientationDeg,1676592532376,29589198947456,112.0,-12.0,-1.0
UncalMag,1676592532383,29589205601744,-204.4964,759.8404,399.17178,-174.57417,771.0116,430.86337
UncalGyro,1676592532385,29589207426135,1.2148583,-0.09437868,-1.317331,0.001326485,-0.0016912268,-0.00032861932
UncalAccel,1676592532385,29589207426135,4.2251267,2.8977082,10.284351,0.037048545,-0.031444572,0.0098014325
OrientationDeg,1676592532385,29589207426135,112.0,-12.0,-2.0
UncalMag,1676592532393,29589215602029,-204.5452,759.0718,399.58658,-174.57417,771.0116,430.86337
UncalGyro,1676592532393,29589215903929,0.93554014,-0.25457808,-1.4059063,0.001326485,-0.0016912268,-0.00032861932
UncalAccel,1676592532393,29589215903929,4.436293,2.1798615,10.647463,0.037048545,-0.031444572,0.0098014325
OrientationDeg,1676592532393,29589215903929,113.0,-12.0,-3.0
UncalGyro,1676592532403,29589224384621,0.6407976,-0.29810223,-1.3906348,0.001326485,-0.0016912268,-0.00032861932
UncalAccel,1676592532402,29589224384621,4.7084765,1.515255,11.187044,0.037048545,-0.031444572,0.0098014325
UncalMag,1676592532403,29589225591409,-204.0694,758.2788,399.26938,-174.57417,771.0116,430.86337
OrientationDeg,1676592532402,29589224384621,114.0,-12.0,-3.0
UncalGyro,1676592532410,29589232869271,0.37766743,-0.26923886,-1.2819008,0.001326485,-0.0016912268,-0.00032861932
UncalAccel,1676592532410,29589232869271,4.9112687,0.9409775,11.310274,0.037048545,-0.031444572,0.0098014325
OrientationDeg,1676592532410,29589232869271,114.0,-12.0,-3.0
UncalMag,1676592532413,29589235591328,-204.6184,757.9372,399.9282,-174.57417,771.0116,430.86337
UncalGyro,1676592532419,29589241350320,0.15271631,-0.1873829,-1.1325442,0.001326485,-0.0016912268,-0.00032861932
UncalAccel,1676592532419,29589241350320,4.9172506,0.7160522,11.321042,0.037048545,-0.031444572,0.0098014325
OrientationDeg,1676592532419,29589241350320,115.0,-12.0,-4.0
UncalMag,1676592532423,29589245594909,-204.3378,757.4248,399.916,-174.57417,771.0116,430.86337
UncalGyro,1676592532427,29589249825367,-0.0143553335,-0.043066,-0.9793697,0.001326485,-0.0016912268,-0.00032861932
UncalAccel,1676592532427,29589249825367,4.7252264,0.6478567,11.453844,0.037048545,-0.031444572,0.0098014325
OrientationDeg,1676592532427,29589249825367,115.0,-12.0,-4.0
UncalMag,1676592532433,29589255601827,-204.2646,756.8026,399.5256,-174.57417,771.0116,430.86337
UncalGyro,1676592532436,29589258310363,-0.11804971,0.14340061,-0.84788096,0.001326485,-0.0016912268,-0.00032861932
UncalAccel,1676592532436,29589258310363,4.3387856,0.55453664,11.389835,0.037048545,-0.031444572,0.0098014325
OrientationDeg,1676592532436,29589258310363,116.0,-12.0,-4.0
UncalMag,1676592532443,29589265593282,-204.1304,757.2296,399.0254,-174.57417,771.0116,430.86337
UncalGyro,1676592532444,29589266790669,-0.16600263,0.31703907,-0.7244862,0.001326485,-0.0016912268,-0.00032861932
UncalAccel,1676592532444,29589266790669,3.8446677,0.39361933,11.100903,0.037048545,-0.031444572,0.0098014325
OrientationDeg,1676592532444,29589266790669,116.0,-12.0,-4.0
OrientationDeg,1676592532453,29589275270528,116.0,-11.0,-4.0
UncalGyro,1676592532453,29589275270528,-0.16768251,0.43417248,-0.60154957,0.001326485,-0.0016912268,-0.00032861932
UncalAccel,1676592532453,29589275270528,3.3170505,0.17048861,10.79821,0.037048545,-0.031444572,0.0098014325
UncalMag,1676592532453,29589275591126,-203.8498,756.82697,399.8794,-174.57417,771.0116,430.86337
UncalGyro,1676592532461,29589283746002,-0.13087788,0.5181664,-0.47051895,0.001326485,-0.0016912268,-0.00032861932
UncalAccel,1676592532461,29589283746002,2.9126635,-0.08075777,10.720444,0.037048545,-0.031444572,0.0098014325
OrientationDeg,1676592532461,29589283746002,117.0,-11.0,-4.0
UncalMag,1676592532463,29589285591574,-203.3496,756.461,399.06198,-174.57417,771.0116,430.86337
OrientationDeg,1676592532470,29589292231516,117.0,-11.0,-4.0
UncalGyro,1676592532470,29589292231516,-0.0759,0.590554,-0.3211624,0.001326485,-0.0016912268,-0.00032861932
UncalAccel,1676592532470,29589292231516,2.5848467,-0.41336012,10.643873,0.037048545,-0.031444572,0.0098014325
UncalMag,1676592532473,29589295601990,-202.9104,756.6318,398.85458,-174.57417,771.0116,430.86337
UncalGyro,1676592532478,29589300713053,-0.009010263,0.6250679,-0.15378532,0.001326485,-0.0016912268,-0.00032861932
UncalAccel,1676592532478,29589300713053,2.1912274,-0.7316055,10.413564,0.037048545,-0.031444572,0.0098014325
OrientationDeg,1676592532478,29589300713053,117.0,-10.0,-4.0
UncalMag,1676592532484,29589305593161,-203.12999,756.6318,398.85458,-174.57417,771.0116,430.86337
UncalGyro,1676592532487,29589309191965,0.0795652,0.6049093,0.009010263,0.001326485,-0.0016912268,-0.00032861932
UncalAccel,1676592532487,29589309191965,1.7150556,-0.9020941,10.220942,0.037048545,-0.031444572,0.0098014325
OrientationDeg,1676592532487,29589309191965,117.0,-10.0,-4.0
UncalMag,1676592532493,29589315602154,-202.581,756.9124,399.0254,-174.57417,771.0116,430.86337
OrientationDeg,1676592532495,29589317670554,117.0,-10.0,-4.0
UncalGyro,1676592532495,29589317670554,0.21365012,0.54046303,0.15699236,0.001326485,-0.0016912268,-0.00032861932
UncalAccel,1676592532495,29589317670554,1.1892328,-0.9290134,10.217353,0.037048545,-0.031444572,0.0098014325
UncalMag,1676592532504,29589325601910,-202.6176,756.461,398.6838,-174.57417,771.0116,430.86337
UncalGyro,1676592532504,29589326152070,0.4017966,0.4905248,0.26358834,0.001326485,-0.0016912268,-0.00032861932
UncalAccel,1676592532504,29589326152070,0.6412765,-0.7603194,10.485349,0.037048545,-0.031444572,0.0098014325
OrientationDeg,1676592532504,29589326152070,116.0,-10.0,-4.0
UncalGyro,1676592532512,29589334635102,0.6469063,0.48395798,0.3200934,0.001326485,-0.0016912268,-0.00032861932
UncalAccel,1676592532512,29589334635102,0.19322042,-0.49052864,10.729417,0.037048545,-0.031444572,0.0098014325
UncalMag,1676592532513,29589335591534,-202.2882,756.5464,398.33,-174.57417,771.0116,430.86337
OrientationDeg,1676592532512,29589334635102,116.0,-9.0,-4.0
OrientationDeg,1676592532521,29589343117708,116.0,-9.0,-5.0
UncalGyro,1676592532521,29589343117708,0.93966347,0.48624873,0.33444872,0.001326485,-0.0016912268,-0.00032861932
UncalAccel,1676592532521,29589343117708,-0.14356937,-0.28235307,10.8454685,0.037048545,-0.031444572,0.0098014325
UncalMag,1676592532523,29589345585431,-202.20279,756.30237,398.9888,-174.57417,771.0116,430.86337
UncalGyro,1676592532529,29589351595603,1.2670872,0.4783075,0.32421672,0.001326485,-0.0016912268,-0.00032861932
UncalAccel,1676592532530,29589351595603,-0.31764722,-0.12083755,10.953146,0.037048545,-0.031444572,0.0098014325
OrientationDeg,1676592532529,29589351595603,116.0,-9.0,-5.0
UncalMag,1676592532533,29589355602073,-202.1052,756.1194,398.7082,-174.57417,771.0116,430.86337
UncalGyro,1676592532538,29589360060833,1.6039795,0.4894558,0.30772337,0.001326485,-0.0016912268,-0.00032861932
UncalAccel,1676592532538,29589360060833,-0.40079778,-0.07836494,11.219945,0.037048545,-0.031444572,0.0098014325
OrientationDeg,1676592532538,29589360060833,115.0,-9.0,-6.0
UncalMag,1676592532543,29589365591738,-201.9466,755.43616,399.0254,-174.57417,771.0116,430.86337
UncalGyro,1676592532546,29589368555004,1.9230038,0.54519725,0.30192015,0.001326485,-0.0016912268,-0.00032861932
UncalAccel,1676592532546,29589368555004,-0.4223332,-0.09810573,11.492129,0.037048545,-0.031444572,0.0098014325
OrientationDeg,1676592532546,29589368555004,115.0,-9.0,-7.0
UncalMag,1676592532553,29589375601830,-201.788,754.6554,398.95218,-174.57417,771.0116,430.86337
UncalGyro,1676592532555,29589377036583,2.2014055,0.6206391,0.30741793,0.001326485,-0.0016912268,-0.00032861932
UncalAccel,1676592532555,29589377036583,-0.4564309,-0.14177474,11.678171,0.037048545,-0.031444572,0.0098014325
OrientationDeg,1676592532556,29589377036583,115.0,-8.0,-8.0
UncalGyro,1676592532563,29589385520714,2.4078782,0.64843345,0.33765575,0.001326485,-0.0016912268,-0.00032861932
UncalAccel,1676592532563,29589385520714,-0.57009,-0.21894327,11.539387,0.037048545,-0.031444572,0.0098014325
UncalMag,1676592532563,29589385603458,-201.3976,754.1552,399.42798,-174.57417,771.0116,430.86337
OrientationDeg,1676592532563,29589385520714,114.0,-8.0,-9.0
UncalGyro,1676592532571,29589393998039,2.4976752,0.5519168,0.3930918,0.001326485,-0.0016912268,-0.00032861932
UncalAccel,1676592532571,29589393998039,-0.6939186,-0.15732808,11.423335,0.037048545,-0.031444572,0.0098014325
UncalMag,1676592532573,29589395591576,-201.43419,753.53296,399.0376,-174.57417,771.0116,430.86337
OrientationDeg,1676592532571,29589393998039,114.0,-8.0,-10.0
UncalGyro,1676592532580,29589402476900,2.4640777,0.3622431,0.45875978,0.001326485,-0.0016912268,-0.00032861932
UncalAccel,1676592532580,29589402476900,-0.8859426,0.11006984,11.363515,0.037048545,-0.031444572,0.0098014325
UncalMag,1676592532583,29589405602115,-200.5558,752.6302,400.37958,-174.57417,771.0116,430.86337
OrientationDeg,1676592532580,29589402476900,114.0,-8.0,-11.0
UncalGyro,1676592532588,29589410959312,2.3420575,0.18325958,0.5174029,0.001326485,-0.0016912268,-0.00032861932
UncalAccel,1676592532588,29589410959312,-1.1180464,0.59700924,11.369496,0.037048545,-0.031444572,0.0098014325
OrientationDeg,1676592532588,29589410959312,113.0,-8.0,-13.0
UncalMag,1676592532593,29589415584822,-201.22679,751.73956,400.0502,-174.57417,771.0116,430.86337
UncalGyro,1676592532597,29589419442589,2.2001839,0.094225965,0.5494733,0.001326485,-0.0016912268,-0.00032861932
UncalAccel,1676592532598,29589419442589,-1.1557333,1.1377872,11.485549,0.037048545,-0.031444572,0.0098014325
OrientationDeg,1676592532597,29589419442589,113.0,-8.0,-14.0
UncalMag,1676592532603,29589425601953,-201.1658,751.0564,400.6236,-174.57417,771.0116,430.86337
UncalGyro,1676592532605,29589427919071,2.0787745,0.10048734,0.56428677,0.001326485,-0.0016912268,-0.00032861932
UncalAccel,1676592532605,29589427919071,-0.89431745,1.3692927,11.614761,0.037048545,-0.031444572,0.0098014325
OrientationDeg,1676592532605,29589427919071,112.0,-8.0,-15.0
UncalMag,1676592532613,29589435592635,-200.995,750.544,400.9774,-174.57417,771.0116,430.86337
UncalGyro,1676592532614,29589436396285,1.9798143,0.16783522,0.5870415,0.001326485,-0.0016912268,-0.00032861932
UncalAccel,1676592532614,29589436396285,-0.45044887,1.4536397,11.669796,0.037048545,-0.031444572,0.0098014325
OrientationDeg,1676592532614,29589436396285,112.0,-8.0,-15.0
UncalGyro,1676592532622,29589444872655,1.9069686,0.28420505,0.6078109,0.001326485,-0.0016912268,-0.00032861932
UncalAccel,1676592532623,29589444872655,-0.0735793,1.6331015,11.666805,0.037048545,-0.031444572,0.0098014325
UncalMag,1676592532623,29589445598698,-201.6538,750.0194,401.3556,-174.57417,771.0116,430.86337
OrientationDeg,1676592532622,29589444872655,112.0,-8.0,-16.0
UncalGyro,1676592532631,29589453351017,1.8602374,0.44623706,0.6186538,0.001326485,-0.0016912268,-0.00032861932
UncalAccel,1676592532631,29589453351017,0.15553348,1.8454645,11.519048,0.037048545,-0.031444572,0.0098014325
OrientationDeg,1676592532631,29589453351017,111.0,-8.0,-17.0
OrientationDeg,1676592532639,29589461829777,111.0,-8.0,-18.0
OrientationDeg,1676592532648,29589470309106,110.0,-7.0,-19.0
UncalMag,1676592532633,29589455583643,-201.2146,748.67737,402.4658,-174.57417,771.0116,430.86337
UncalGyro,1676592532639,29589461829777,1.8409951,0.6189592,0.625526,0.001326485,-0.0016912268,-0.00032861932
UncalAccel,1676592532639,29589461829777,0.27218357,1.9806589,11.19482,0.037048545,-0.031444572,0.0098014325
UncalMag,1676592532643,29589465583725,-201.2146,748.67737,402.4658,-174.57417,771.0116,430.86337
UncalGyro,1676592532648,29589470309106,1.8278615,0.77549344,0.63316184,0.001326485,-0.0016912268,-0.00032861932
UncalAccel,1676592532648,29589470309106,0.37507495,2.0632114,10.794023,0.037048545,-0.031444572,0.0098014325
UncalMag,1676592532653,29589475592636,-200.90959,748.5066,402.539,-174.57417,771.0116,430.86337
UncalGyro,1676592532656,29589478798161,1.8186985,0.89659745,0.63270366,0.001326485,-0.0016912268,-0.00032861932
UncalAccel,1676592532656,29589478798161,0.46899325,2.2660031,10.2682,0.037048545,-0.031444572,0.0098014325
UncalGyro,1676592532665,29589487277491,1.8307631,0.96837413,0.6241516,0.001326485,-0.0016912268,-0.00032861932
UncalAccel,1676592532665,29589487277491,0.48095736,2.5591238,9.71845,0.037048545,-0.031444572,0.0098014325
OrientationDeg,1676592532656,29589478798161,110.0,-7.0,-20.0
OrientationDeg,1676592532665,29589487277491,109.0,-7.0,-20.0
UncalMag,1676592532663,29589485587021,-201.0194,748.5066,402.4292,-174.57417,771.0116,430.86337
UncalMag,1676592532673,29589495595322,-201.06819,747.5672,403.29538,-174.57417,771.0116,430.86337
UncalGyro,1676592532673,29589495756820,1.8709276,1.0050261,0.60246587,0.001326485,-0.0016912268,-0.00032861932
UncalAccel,1676592532673,29589495756820,0.45942193,2.8091738,9.2488575,0.037048545,-0.031444572,0.0098014325
OrientationDeg,1676592532673,29589495756820,109.0,-6.0,-21.0
UncalGyro,1676592532682,29589504236149,1.9303342,1.0135782,0.5841399,0.001326485,-0.0016912268,-0.00032861932
UncalAccel,1676592532682,29589504236149,0.4432704,2.9246275,8.780462,0.037048545,-0.031444572,0.0098014325
UncalMag,1676592532683,29589505591416,-201.06819,747.5672,403.29538,-174.57417,771.0116,430.86337
OrientationDeg,1676592532682,29589504236149,108.0,-6.0,-22.0
UncalGyro,1676592532690,29589512714300,1.9937115,0.981355,0.5833763,0.001326485,-0.0016912268,-0.00032861932
UncalAccel,1676592532690,29589512714300,0.4319045,2.9443684,8.322237,0.037048545,-0.031444572,0.0098014325
OrientationDeg,1676592532691,29589512714300,108.0,-6.0,-23.0
UncalMag,1676592532693,29589515592881,-200.0434,747.25,403.4296,-174.57417,771.0116,430.86337
UncalGyro,1676592532699,29589521199398,2.0485365,0.9060659,0.59849524,0.001326485,-0.0016912268,-0.00032861932
UncalAccel,1676592532699,29589521199398,0.44925246,2.9599216,7.9974113,0.037048545,-0.031444572,0.0098014325
OrientationDeg,1676592532699,29589521199398,108.0,-6.0,-24.0
UncalMag,1676592532703,29589525591213,-200.50699,746.55457,404.125,-174.57417,771.0116,430.86337
UncalGyro,1676592532707,29589529679012,2.0770946,0.79809546,0.63041294,0.001326485,-0.0016912268,-0.00032861932
UncalAccel,1676592532707,29589529679012,0.4881358,3.0514472,7.8352976,0.037048545,-0.031444572,0.0098014325
OrientationDeg,1676592532707,29589529679012,107.0,-5.0,-25.0
UncalMag,1676592532713,29589535591824,-200.50699,746.55457,404.125,-174.57417,771.0116,430.86337
UncalGyro,1676592532716,29589538165880,2.0893118,0.68859786,0.6559166,0.001326485,-0.0016912268,-0.00032861932
UncalAccel,1676592532716,29589538165880,0.4534399,3.2183464,7.8628154,0.037048545,-0.031444572,0.0098014325
OrientationDeg,1676592532716,29589538165880,107.0,-5.0,-26.0
UncalMag,1676592532723,29589545583727,-200.2508,745.6884,404.14938,-174.57417,771.0116,430.86337
UncalGyro,1676592532724,29589546645484,2.094046,0.59498274,0.67103547,0.001326485,-0.0016912268,-0.00032861932
UncalAccel,1676592532724,29589546645484,0.46241298,3.3290145,7.8717885,0.037048545,-0.031444572,0.0098014325
OrientationDeg,1676592532724,29589546645484,106.0,-5.0,-27.0
UncalGyro,1676592532733,29589555130896,2.1065688,0.5056437,0.6786713,0.001326485,-0.0016912268,-0.00032861932
UncalAccel,1676592532733,29589555130896,0.58683974,3.3726835,7.8197446,0.037048545,-0.031444572,0.0098014325
OrientationDeg,1676592532733,29589555130896,106.0,-5.0,-28.0
UncalMag,1676592532733,29589555589424,-200.29959,744.84656,404.918,-174.57417,771.0116,430.86337
UncalGyro,1676592532741,29589563608100,2.130698,0.4277584,0.68539083,0.001326485,-0.0016912268,-0.00032861932
UncalAccel,1676592532741,29589563608100,0.8213364,3.3936207,7.7976108,0.037048545,-0.031444572,0.0098014325
OrientationDeg,1676592532741,29589563608100,105.0,-5.0,-29.0
UncalMag,1676592532743,29589565601875,-200.29959,744.84656,404.918,-174.57417,771.0116,430.86337
UncalGyro,1676592532750,29589572088253,2.16399,0.39675698,0.6979135,0.001326485,-0.0016912268,-0.00032861932
UncalAccel,1676592532750,29589572088253,1.0594223,3.437888,7.8699937,0.037048545,-0.031444572,0.0098014325
OrientationDeg,1676592532750,29589572088253,105.0,-5.0,-30.0
UncalMag,1676592532753,29589575602038,-200.5436,744.3098,404.67398,-174.57417,771.0116,430.86337
UncalGyro,1676592532758,29589580571113,2.1922426,0.41890085,0.71944654,0.001326485,-0.0016912268,-0.00032861932
UncalAccel,1676592532758,29589580571113,1.2221341,3.4965122,7.8281193,0.037048545,-0.031444572,0.0098014325
OrientationDeg,1676592532758,29589580571113,104.0,-5.0,-31.0
UncalMag,1676592532763,29589585591540,-200.4704,743.9316,406.3942,-174.57417,771.0116,430.86337
UncalGyro,1676592532767,29589589053555,2.2133174,0.4569272,0.7502952,0.001326485,-0.0016912268,-0.00032861932
UncalAccel,1676592532767,29589589053555,1.2574283,3.5641093,7.579864,0.037048545,-0.031444572,0.0098014325
OrientationDeg,1676592532767,29589589053555,104.0,-5.0,-32.0
UncalMag,1676592532773,29589595601917,-200.5192,743.1386,406.3332,-174.57417,771.0116,430.86337
UncalGyro,1676592532775,29589597531705,2.2246184,0.48517972,0.77381355,0.001326485,-0.0016912268,-0.00032861932
UncalAccel,1676592532775,29589597531705,1.3064811,3.6993039,7.259824,0.037048545,-0.031444572,0.0098014325
OrientationDeg,1676592532775,29589597531705,103.0,-5.0,-33.0
UncalMag,1676592532783,29589605591622,-200.95839,742.7238,407.21158,-174.57417,771.0116,430.86337
UncalGyro,1676592532784,29589606007881,2.234087,0.5013676,0.7870999,0.001326485,-0.0016912268,-0.00032861932
UncalAccel,1676592532784,29589606007881,1.4237294,3.863212,6.8345,0.037048545,-0.031444572,0.0098014325
OrientationDeg,1676592532784,29589606007881,102.0,-6.0,-34.0
UncalGyro,1676592532792,29589614492704,2.26463,0.48792863,0.7866417,0.001326485,-0.0016912268,-0.00032861932
UncalAccel,1676592532792,29589614492704,1.608575,4.071388,6.309873,0.037048545,-0.031444572,0.0098014325
UncalMag,1676592532793,29589615591500,-200.9706,742.6628,408.16318,-174.57417,771.0116,430.86337
OrientationDeg,1676592532792,29589614492704,102.0,-6.0,-35.0
UncalGyro,1676592532800,29589622971159,2.3031147,0.4616614,0.7791586,0.001326485,-0.0016912268,-0.00032861932
UncalAccel,1676592532800,29589622971159,1.9166509,4.289733,5.9096737,0.037048545,-0.031444572,0.0098014325
OrientationDeg,1676592532800,29589622971159,101.0,-6.0,-36.0
UncalMag,1676592532803,29589625601999,-200.995,742.2358,408.3096,-174.57417,771.0116,430.86337
UncalGyro,1676592532809,29589631452930,2.3240368,0.4372268,0.77442443,0.001326485,-0.0016912268,-0.00032861932
UncalAccel,1676592532809,29589631452930,2.1176481,4.49731,5.704489,0.037048545,-0.031444572,0.0098014325
OrientationDeg,1676592532809,29589631452930,101.0,-6.0,-37.0
UncalMag,1676592532813,29589635602080,-201.43419,741.8088,409.06598,-174.57417,771.0116,430.86337
UncalGyro,1676592532817,29589639936166,2.293799,0.41813725,0.75518215,0.001326485,-0.0016912268,-0.00032861932
UncalAccel,1676592532817,29589639936166,2.245066,4.7802615,5.7469616,0.037048545,-0.031444572,0.0098014325
OrientationDeg,1676592532817,29589639936166,100.0,-6.0,-38.0
UncalMag,1676592532823,29589645613759,-201.6538,741.6502,409.5174,-174.57417,771.0116,430.86337
UncalGyro,1676592532826,29589648415425,2.2096524,0.39522982,0.712727,0.001326485,-0.0016912268,-0.00032861932
UncalAccel,1676592532826,29589648415425,2.3282163,5.139783,5.9030933,0.037048545,-0.031444572,0.0098014325
OrientationDeg,1676592532826,29589648415425,99.0,-6.0,-39.0
UncalMag,1676592532833,29589655615549,-201.3488,741.56476,409.615,-174.57417,771.0116,430.86337
UncalGyro,1676592532834,29589656892445,2.0722077,0.40943244,0.6397286,0.001326485,-0.0016912268,-0.00032861932
UncalAccel,1676592532834,29589656892445,2.3958137,5.561518,6.1591253,0.037048545,-0.031444572,0.0098014325
OrientationDeg,1676592532834,29589656892445,99.0,-7.0,-40.0
UncalGyro,1676592532843,29589665375996,1.885741,0.46609017,0.5328272,0.001326485,-0.0016912268,-0.00032861932
UncalAccel,1676592532843,29589665375996,2.411367,5.9587264,6.3338017,0.037048545,-0.031444572,0.0098014325
OrientationDeg,1676592532843,29589665375996,98.0,-7.0,-41.0
UncalMag,1676592532843,29589665598053,-201.2146,740.4546,410.3104,-174.57417,771.0116,430.86337
UncalGyro,1676592532851,29589673862030,1.6702583,0.54076844,0.40026945,0.001326485,-0.0016912268,-0.00032861932
UncalAccel,1676592532852,29589673862030,2.32702,6.3798633,6.460023,0.037048545,-0.031444572,0.0098014325
UncalMag,1676592532853,29589675592072,-201.5318,740.3692,410.5422,-174.57417,771.0116,430.86337
UncalGyro,1676592532860,29589682333943,1.428203,0.6423248,0.25305092,0.001326485,-0.0016912268,-0.00032861932
UncalAccel,1676592532860,29589682333943,2.1649063,6.7758756,6.7292156,0.037048545,-0.031444572,0.0098014325
OrientationDeg,1676592532851,29589673862030,98.0,-7.0,-42.0
OrientationDeg,1676592532860,29589682333943,98.0,-7.0,-43.0
UncalMag,1676592532863,29589685601756,-201.0316,739.9422,410.2982,-174.57417,771.0116,430.86337
UncalGyro,1676592532868,29589690816629,1.1462886,0.783282,0.11224649,0.001326485,-0.0016912268,-0.00032861932
UncalAccel,1676592532868,29589690816629,1.9986051,6.879365,7.1282187,0.037048545,-0.031444572,0.0098014325
OrientationDeg,1676592532868,29589690816629,97.0,-6.0,-43.0
UncalMag,1676592532873,29589695591177,-200.95839,739.5274,411.28638,-174.57417,771.0116,430.86337
UncalGyro,1676592532877,29589699298421,0.8396343,0.9268353,-0.003970624,0.001326485,-0.0016912268,-0.00032861932
UncalAccel,1676592532877,29589699298421,1.8831514,6.8021965,7.275975,0.037048545,-0.031444572,0.0098014325
OrientationDeg,1676592532877,29589699298421,97.0,-6.0,-44.0
UncalMag,1676592532883,29589705601797,-201.056,739.5274,411.29858,-174.57417,771.0116,430.86337
UncalGyro,1676592532885,29589707780731,0.5720753,1.040609,-0.0954477,0.001326485,-0.0016912268,-0.00032861932
UncalAccel,1676592532885,29589707780731,1.7874385,6.7968125,7.2658057,0.037048545,-0.031444572,0.0098014325
OrientationDeg,1676592532885,29589707780731,97.0,-5.0,-44.0
UncalMag,1676592532893,29589715601838,-200.5192,739.78357,410.7374,-174.57417,771.0116,430.86337
UncalGyro,1676592532894,29589716247793,0.3846924,1.1281154,-0.16264287,0.001326485,-0.0016912268,-0.00032861932
UncalAccel,1676592532894,29589716247793,1.6157535,6.786045,7.2556367,0.037048545,-0.031444572,0.0098014325
OrientationDeg,1676592532894,29589716247793,97.0,-5.0,-44.0
