# 
# Header Description:
# 
# Version: v3.0.5.6 Platform: 13 Manufacturer: Google Model: Pixel 7
# 
# Raw,utcTimeMillis,TimeNanos,LeapSecond,TimeUncertaintyNanos,FullBiasNanos,BiasNanos,BiasUncertaintyNanos,DriftNanosPerSecond,DriftUncertaintyNanosPerSecond,HardwareClockDiscontinuityCount,Svid,TimeOffsetNanos,State,ReceivedSvTimeNanos,ReceivedSvTimeUncertaintyNanos,Cn0DbHz,PseudorangeRateMetersPerSecond,PseudorangeRateUncertaintyMetersPerSecond,AccumulatedDeltaRangeState,AccumulatedDeltaRangeMeters,AccumulatedDeltaRangeUncertaintyMeters,CarrierFrequencyHz,CarrierCycles,CarrierPhase,CarrierPhaseUncertainty,MultipathIndicator,SnrInDb,ConstellationType,AgcDb,BasebandCn0DbHz,FullInterSignalBiasNanos,FullInterSignalBiasUncertaintyNanos,SatelliteInterSignalBiasNanos,SatelliteInterSignalBiasUncertaintyNanos,CodeType,ChipsetElapsedRealtimeNanos
# 
# UncalAccel,utcTimeMillis,elapsedRealtimeNanos,UncalAccelXMps2,UncalAccelYMps2,UncalAccelZMps2,BiasXMps2,BiasYMps2,BiasZMps2
# 
# Accel,utcTimeMillis,elapsedRealtimeNanos,AccelXMps2,AccelYMps2,AccelZMps2
# 
# UncalGyro,utcTimeMillis,elapsedRealtimeNanos,UncalGyroXRadPerSec,UncalGyroYRadPerSec,UncalGyroZRadPerSec,DriftXRadPerSec,DriftYRadPerSec,DriftZRadPerSec
# 
# Gyro,utcTimeMillis,elapsedRealtimeNanos,GyroXRadPerSec,GyroYRadPerSec,GyroZRadPerSec
# 
# UncalMag,utcTimeMillis,elapsedRealtimeNanos,UncalMagXMicroT,UncalMagYMicroT,UncalMagZMicroT,BiasXMicroT,BiasYMicroT,BiasZMicroT
# 
# Mag,utcTimeMillis,elapsedRealtimeNanos,MagXMicroT,MagYMicroT,MagZMicroT
# 
# OrientationDeg,utcTimeMillis,elapsedRealtimeNanos,yawDeg,rollDeg,pitchDeg
# 
# Fix,Provider,LatitudeDegrees,LongitudeDegrees,AltitudeMeters,SpeedMps,AccuracyMeters,BearingDegrees,UnixTimeMillis,SpeedAccuracyMps,BearingAccuracyDegrees,elapsedRealtimeNanos,VerticalAccuracyMeters
# 
# Nav,Svid,Type,Status,MessageId,Sub-messageId,Data(Bytes)
# 
# Status,UnixTimeMillis,SignalCount,SignalIndex,ConstellationType,Svid,CarrierFrequencyHz,Cn0DbHz,AzimuthDegrees,ElevationDegrees,UsedInFix,HasAlmanacData,HasEphemerisData,BasebandCn0DbHz
# 
UncalAccel,1676594687891,31744713653680,-1.9148563,2.0057836,11.475379,0.037048545,-0.031444572,0.0098014325
UncalGyro,1676594687895,31744717896538,-0.070249505,0.32482758,-0.2003638,-0.00036945913,-0.0017189155,-0.00032371213
UncalMag,1676594687892,31744714935968,-179.01059,740.662,399.6354,-174.57417,771.0116,430.86337
UncalAccel,1676594687900,31744722139397,-2.4909284,2.1457636,11.65185,0.037048545,-0.031444572,0.0098014325
UncalGyro,1676594687904,31744726361839,-0.122020334,0.30665436,-0.24648413,-0.00036945913,-0.0017189155,-0.00032371213
UncalAccel,1676594687908,31744730602237,-2.909074,2.1475582,11.888141,0.037048545,-0.031444572,0.0098014325
UncalMag,1676594687902,31744724936009,-179.9012,741.5892,399.3914,-174.57417,771.0116,430.86337
OrientationDeg,1676594687891,31744713653680,162.0,4.0,-14.0
OrientationDeg,1676594687900,31744722139397,162.0,4.0,-14.0
UncalGyro,1676594687912,31744734845779,-0.20555615,0.21273382,-0.2863431,-0.00036945913,-0.0017189155,-0.00032371213
UncalAccel,1676594687917,31744739083124,-3.1573296,2.0165513,11.973086,0.037048545,-0.031444572,0.0098014325
OrientationDeg,1676594687917,31744739083124,162.0,5.0,-13.0
UncalMag,1676594687912,31744734938532,-179.7182,741.0158,400.343,-174.57417,771.0116,430.86337
UncalGyro,1676594687921,31744743325820,-0.2750421,0.055436023,-0.32284227,-0.00036945913,-0.0017189155,-0.00032371213
UncalMag,1676594687922,31744744935928,-179.1936,741.0768,399.01318,-174.57417,771.0116,430.86337
UncalAccel,1676594687925,31744747561934,-3.3379877,1.7760726,11.963515,0.037048545,-0.031444572,0.0098014325
OrientationDeg,1676594687925,31744747561934,162.0,5.0,-13.0
UncalGyro,1676594687929,31744751803715,-0.29458976,-0.13271047,-0.35201108,-0.00036945913,-0.0017189155,-0.00032371213
UncalMag,1676594687932,31744754938939,-179.48639,741.333,399.0742,-174.57417,771.0116,430.86337
UncalAccel,1676594687934,31744756042657,-3.3266218,1.4213367,12.0227375,0.037048545,-0.031444572,0.0098014325
OrientationDeg,1676594687934,31744756042657,162.0,5.0,-13.0
UncalGyro,1676594687938,31744760282770,-0.2667954,-0.3034473,-0.376293,-0.00036945913,-0.0017189155,-0.00032371213
UncalAccel,1676594687942,31744764517797,-3.181856,1.082154,12.087343,0.037048545,-0.031444572,0.0098014325
UncalMag,1676594687942,31744764935643,-179.401,741.089,399.5012,-174.57417,771.0116,430.86337
OrientationDeg,1676594687942,31744764517797,163.0,4.0,-13.0
UncalGyro,1676594687946,31744768764724,-0.20433442,-0.43951756,-0.4173737,-0.00036945913,-0.0017189155,-0.00032371213
UncalAccel,1676594687951,31744773004694,-2.955136,0.88235337,11.9515505,0.037048545,-0.031444572,0.0098014325
OrientationDeg,1676594687951,31744773004694,163.0,4.0,-13.0
UncalMag,1676594687952,31744774935888,-178.8642,741.3208,398.33,-174.57417,771.0116,430.86337
UncalGyro,1676594687955,31744777248854,-0.13103059,-0.5540548,-0.4978552,-0.00036945913,-0.0017189155,-0.00032371213
UncalAccel,1676594687960,31744781487411,-2.78046,0.6538388,11.767901,0.037048545,-0.031444572,0.0098014325
OrientationDeg,1676594687959,31744781487411,163.0,4.0,-13.0
UncalMag,1676594687962,31744784937882,-179.0838,741.2354,398.5618,-174.57417,771.0116,430.86337
UncalGyro,1676594687963,31744785727401,-0.08093964,-0.6516405,-0.61483586,-0.00036945913,-0.0017189155,-0.00032371213
UncalAccel,1676594687967,31744789965459,-2.629114,0.37268212,11.5316105,0.037048545,-0.031444572,0.0098014325
OrientationDeg,1676594687967,31744789965459,164.0,4.0,-13.0
UncalGyro,1676594687972,31744794209569,-0.06154467,-0.7359399,-0.75732017,-0.00036945913,-0.0017189155,-0.00032371213
UncalMag,1676594687972,31744794935848,-179.584,741.56476,398.2934,-174.57417,771.0116,430.86337
UncalAccel,1676594687977,31744798446894,-2.4580271,0.08673982,11.242677,0.037048545,-0.031444572,0.0098014325
OrientationDeg,1676594687976,31744798446894,164.0,3.0,-12.0
UncalGyro,1676594687980,31744802688309,-0.06765333,-0.8052731,-0.9219484,-0.00036945913,-0.0017189155,-0.00032371213
UncalMag,1676594687982,31744804936865,-178.7544,741.4184,398.7204,-174.57417,771.0116,430.86337
UncalAccel,1676594687984,31744806925563,-2.1529422,-0.17407785,10.950154,0.037048545,-0.031444572,0.0098014325
OrientationDeg,1676594687984,31744806925563,164.0,3.0,-12.0
UncalGyro,1676594687989,31744811170273,-0.0917825,-0.8544478,-1.1096367,-0.00036945913,-0.0017189155,-0.00032371213
UncalMag,1676594687992,31744814936662,-179.62059,740.9792,399.123,-174.57417,771.0116,430.86337
UncalAccel,1676594687993,31744815409278,-1.7485552,-0.41575295,10.734202,0.037048545,-0.031444572,0.0098014325
OrientationDeg,1676594687993,31744815409278,165.0,3.0,-12.0
UncalGyro,1676594687997,31744819648636,-0.1366811,-0.8717047,-1.3084733,-0.00036945913,-0.0017189155,-0.00032371213
UncalAccel,1676594688001,31744823890967,-1.4111671,-0.657428,10.5900345,0.037048545,-0.031444572,0.0098014325
OrientationDeg,1676594688001,31744823890967,166.0,3.0,-12.0
UncalMag,1676594688002,31744824936011,-179.3156,740.906,399.2084,-174.57417,771.0116,430.86337
UncalGyro,1676594688006,31744828131801,-0.19746219,-0.8889617,-1.5135714,-0.00036945913,-0.0017189155,-0.00032371213
UncalAccel,1676594688010,31744832371273,-1.244866,-0.8237292,10.234102,0.037048545,-0.031444572,0.0098014325
OrientationDeg,1676594688010,31744832371273,167.0,2.0,-12.0
UncalMag,1676594688012,31744834936825,-179.62059,740.9792,399.245,-174.57417,771.0116,430.86337
UncalGyro,1676594688014,31744836609065,-0.23716843,-0.93294394,-1.7334828,-0.00036945913,-0.0017189155,-0.00032371213
UncalAccel,1676594688018,31744840847438,-1.2083755,-1.0671989,10.0014,0.037048545,-0.031444572,0.0098014325
OrientationDeg,1676594688018,31744840847438,167.0,2.0,-12.0
UncalMag,1676594688022,31744844946632,-178.8886,740.8816,398.3544,-174.57417,771.0116,430.86337
UncalGyro,1676594688023,31744845093034,-0.24663684,-0.9627236,-1.9620992,-0.00036945913,-0.0017189155,-0.00032371213
UncalAccel,1676594688027,31744849340745,-1.1700903,-1.2975081,10.122238,0.037048545,-0.031444572,0.0098014325
OrientationDeg,1676594688027,31744849340745,169.0,2.0,-12.0
UncalGyro,1676594688031,31744853583137,-0.22174409,-0.95157534,-2.1826215,-0.00036945913,-0.0017189155,-0.00032371213
UncalMag,1676594688032,31744854946469,-178.5714,741.0036,399.22058,-174.57417,771.0116,430.86337
UncalAccel,1676594688035,31744857818844,-1.1736795,-1.4171492,10.079765,0.037048545,-0.031444572,0.0098014325
OrientationDeg,1676594688035,31744857818844,170.0,2.0,-11.0
UncalGyro,1676594688040,31744862051490,-0.14019357,-0.9243918,-2.389705,-0.00036945913,-0.0017189155,-0.00032371213
UncalMag,1676594688042,31744864946266,-178.1566,740.8938,398.22018,-174.57417,771.0116,430.86337
UncalAccel,1676594688044,31744866299282,-1.2819548,-1.5278172,9.917053,0.037048545,-0.031444572,0.0098014325
OrientationDeg,1676594688044,31744866299282,171.0,2.0,-11.0
UncalGyro,1676594688048,31744870540758,-0.0009162979,-0.90285885,-2.5776987,-0.00036945913,-0.0017189155,-0.00032371213
UncalAccel,1676594688052,31744874782285,-1.3226327,-1.6905292,9.750752,0.037048545,-0.031444572,0.0098014325
UncalMag,1676594688052,31744874936338,-178.05899,740.94257,399.55,-174.57417,771.0116,430.86337
OrientationDeg,1676594688052,31744874782285,172.0,1.0,-11.0
UncalGyro,1676594688057,31744879021990,0.15989397,-0.9074403,-2.7258334,-0.00036945913,-0.0017189155,-0.00032371213
UncalAccel,1676594688061,31744883260312,-1.3447664,-1.7814565,9.522238,0.037048545,-0.031444572,0.0098014325
OrientationDeg,1676594688061,31744883260312,174.0,1.0,-11.0
UncalMag,1676594688062,31744884936338,-177.74179,740.82056,398.3056,-174.57417,771.0116,430.86337
UncalGyro,1676594688065,31744887498745,0.31658092,-0.95233893,-2.8425088,-0.00036945913,-0.0017189155,-0.00032371213
UncalAccel,1676594688069,31744891727292,-1.3268201,-1.727618,9.040084,0.037048545,-0.031444572,0.0098014325
OrientationDeg,1676594688069,31744891727292,175.0,1.0,-11.0
UncalMag,1676594688072,31744894946552,-176.8024,740.8694,399.37918,-174.57417,771.0116,430.86337
UncalGyro,1676594688073,31744895971239,0.45631635,-1.0534371,-2.9442177,-0.00036945913,-0.0017189155,-0.00032371213
UncalAccel,1676594688078,31744900220344,-1.3250256,-1.7461623,8.763115,0.037048545,-0.031444572,0.0098014325
OrientationDeg,1676594688078,31744900220344,177.0,1.0,-12.0
UncalGyro,1676594688082,31744904461027,0.53878313,-1.1691961,-3.0344732,-0.00036945913,-0.0017189155,-0.00032371213
UncalMag,1676594688082,31744904937681,-175.8264,739.67377,399.4402,-174.57417,771.0116,430.86337
UncalAccel,1676594688086,31744908698748,-1.2669996,-1.7838492,8.720642,0.037048545,-0.031444572,0.0098014325
OrientationDeg,1676594688086,31744908698748,178.0,1.0,-12.0
UncalGyro,1676594688090,31744912935250,0.5345071,-1.2731959,-3.114649,-0.00036945913,-0.0017189155,-0.00032371213
UncalMag,1676594688092,31744914946389,-176.2412,739.8446,399.611,-174.57417,771.0116,430.86337
UncalAccel,1676594688095,31744917190010,-1.2053844,-1.6642082,8.744571,0.037048545,-0.031444572,0.0098014325
OrientationDeg,1676594688095,31744917190010,180.0,0.0,-12.0
UncalGyro,1676594688099,31744921425261,0.4390594,-1.3753631,-3.1859677,-0.00036945913,-0.0017189155,-0.00032371213
UncalMag,1676594688102,31744924958882,-175.4238,739.4908,399.1474,-174.57417,771.0116,430.86337
UncalAccel,1676594688103,31744925662493,-1.2203395,-1.5014962,8.695518,0.037048545,-0.031444572,0.0098014325
OrientationDeg,1676594688103,31744925662493,181.0,0.0,-12.0
UncalGyro,1676594688107,31744929891803,0.27672195,-1.5034921,-3.2569807,-0.00036945913,-0.0017189155,-0.00032371213
Raw,1676594687999,207999000000,,,-1360629698000545389,0.0,7.0436775531322375,202.0,1.0,58,2,0.0,16431,434705918339874,10,47.876914978027344,-584.0603555400535,0.15,16,-121496.79225174496,340282346638528860000000000000000000000,1575420030,,,,0,,1,,44.27691650390625,0.0,1.0,0.0,1.0,C,31744829484000
Raw,1676594687999,207999000000,,,-1360629698000545389,0.0,7.0436775531322375,202.0,1.0,58,6,0.0,16431,434705927382123,32,31.438886642456055,526.5631491387028,0.6980956464782091,16,108319.28456173188,340282346638528860000000000000000000000,1575420030,,,,0,,1,,27.838886260986328,0.320142130558394,1.0,0.320142130558394,1.0,C,31744829484000
Raw,1676594687999,207999000000,,,-1360629698000545389,0.0,7.0436775531322375,202.0,1.0,58,11,0.0,16431,434705931565741,12,43.45677185058594,6.845677603190033,0.15,16,-431.8445078464797,340282346638528860000000000000000000000,1575420030,,,,0,,1,,39.856773376464844,-0.20372681261465636,1.0,-0.20372681261465636,1.0,C,31744829484000
Raw,1676594687999,207999000000,,,-1360629698000545389,0.0,7.0436775531322375,202.0,1.0,58,12,0.0,16431,434705931066178,17,39.312931060791016,-198.30425735248298,0.15,16,-42219.17330509875,340282346638528860000000000000000000000,1575420030,,,,0,,1,,35.71293258666992,-0.6984919076624261,1.0,-0.6984919076624261,1.0,C,31744829484000
Raw,1676594687999,207999000000,,,-1360629698000545389,0.0,7.0436775531322375,202.0,1.0,58,19,0.0,16431,434705922978769,14,41.67786407470703,569.2850312356543,0.15,16,118580.20623866214,340282346638528860000000000000000000000,1575420030,,,,0,,1,,38.07786560058594,0.0,1.0,0.0,1.0,C,31744829484000
Raw,1676594687999,207999000000,,,-1360629698000545389,0.0,7.0436775531322375,202.0,1.0,58,20,0.0,16431,434705922744699,10,47.6998291015625,-473.9164897847654,0.15,16,-98611.1978629516,340282346638528860000000000000000000000,1575420030,,,,0,,1,,44.099830627441406,0.0,1.0,0.0,1.0,C,31744829484000
Raw,1676594687999,207999000000,,,-1360629698000545389,0.0,7.0436775531322375,202.0,1.0,58,24,0.0,16431,434705924745349,15,43.4441032409668,578.5742388434028,0.15,16,119493.06919514918,340282346638528860000000000000000000000,1575420030,,,,0,,1,,39.8441047668457,-0.20372681261465636,1.0,-0.20372681261465636,1.0,C,31744829484000
Raw,1676594687999,207999000000,,,-1360629698000545389,0.0,7.0436775531322375,202.0,1.0,58,25,0.0,16431,434705926304087,24,35.04616165161133,-466.9113520833496,0.5356864505373664,16,-97384.8791395513,340282346638528860000000000000000000000,1575420030,,,,0,,1,,31.446163177490234,-2.0372682255564105,1.0,-2.0372682255564105,1.0,C,31744829484000
Raw,1676594687999,207999000000,,,-1360629698000545389,0.0,7.0436775531322375,202.0,1.0,58,29,0.0,16431,434705918223747,23,35.4947395324707,-434.02014558092446,0.5176584952192471,16,-89959.13356683443,340282346638528860000000000000000000000,1575420030,,,,0,,1,,31.89474105834961,-0.6984919076624261,1.0,-0.6984919076624261,1.0,C,31744829484000
Raw,1676594687999,207999000000,,,-1360629698000545389,0.0,7.0436775531322375,202.0,1.0,58,6,0.0,81921,434705927382535,13,37.629852294921875,526.048026890817,0.15,16,109905.05547250371,340282346638528860000000000000000000000,1176450050,,,,0,,1,,34.02985382080078,1.9208527336454408,1.6826702837549465,1.9208527336454408,1.0,Q,31744829484000
Raw,1676594687999,207999000000,,,-1360629698000545389,0.0,7.0436775531322375,202.0,1.0,58,11,0.0,81921,434705931566246,7,44.592132568359375,7.044648854216668,0.15,16,-464.141951800503,340282346638528860000000000000000000000,1176450050,,,,0,,1,,40.99213409423828,0.0,1.6826702837549465,0.0,1.0,Q,31744829484000
Raw,1676594687999,207999000000,,,-1360629698000545389,0.0,7.0436775531322375,202.0,1.0,58,24,0.0,81921,434705924745837,9,41.08820343017578,578.4531779578338,0.15,16,121293.5180013134,340282346638528860000000000000000000000,1176450050,,,,0,,1,,37.48820495605469,3.5215636101095664,1.6826702837549465,3.5215636101095664,1.0,Q,31744829484000
Raw,1676594687999,207999000000,,,-1360629698000545389,0.0,7.0436775531322375,202.0,1.0,58,25,0.0,81921,434705926304804,8,39.55940628051758,-467.2195938201419,0.15,16,-98802.3878406142,340282346638528860000000000000000000000,1176450050,,,,0,,1,,35.959407806396484,1.0186341127782053,1.6826702837549465,1.0186341127782053,1.0,Q,31744829484000
Raw,1676594687999,207999000000,,,-1360629698000545389,0.0,7.0436775531322375,202.0,1.0,58,14,0.0,32995,13487930828685,33,45.483177185058594,639.1895469446558,0.15,16,131687.47287471752,340282346638528860000000000000000000000,1598062460,,,,0,,3,,41.8831787109375,50.29141902923584,2.0000000474974513,50.29141902923584,2.0000000474974513,C,31744829484000
Raw,1676594687999,207999000000,,,-1360629698000545389,0.0,7.0436775531322375,202.0,1.0,58,18,0.0,32995,13487928994423,34,39.29468536376953,-425.8610099841028,0.15,16,-90143.63920544117,340282346638528860000000000000000000000,1600312450,,,,0,,3,,35.69468688964844,50.29141902923584,2.0000000474974513,50.29141902923584,2.0000000474974513,C,31744829484000
Raw,1676594687999,207999000000,,,-1360629698000545389,0.0,7.0436775531322375,202.0,1.0,58,16,0.0,32995,13487924762244,59,32.72624588012695,-672.7214354647967,0.6397332340188764,16,-139463.20942644152,340282346638528860000000000000000000000,1601437440,,,,0,,3,,29.12624740600586,50.29141902923584,2.0000000474974513,50.29141902923584,2.0000000474974513,C,31744829484000
Raw,1676594687999,207999000000,,,-1360629698000545389,0.0,7.0436775531322375,202.0,1.0,58,15,0.0,32995,13487935362569,37,38.535179138183594,-97.18122542166867,0.15,16,-22628.300735399036,340282346638528860000000000000000000000,1602000000,,,,0,,3,,34.9351806640625,50.29141902923584,2.0000000474974513,50.29141902923584,2.0000000474974513,C,31744829484000
Raw,1676594687999,207999000000,,,-1360629698000545389,0.0,7.0436775531322375,202.0,1.0,58,24,0.0,32995,13487927041520,53,34.05618667602539,700.6991787050674,0.5803374308270044,16,145653.96613582334,340282346638528860000000000000000000000,1603124990,,,,0,,3,,30.456186294555664,50.29141902923584,2.0000000474974513,50.29141902923584,2.0000000474974513,C,31744829484000
Raw,1676594687999,207999000000,,,-1360629698000545389,0.0,7.0436775531322375,202.0,1.0,58,17,0.0,32995,13487935497023,38,38.15555953979492,163.45601915528982,0.15,16,32372.982093311413,340282346638528860000000000000000000000,1604249980,,,,0,,3,,34.55556106567383,50.29141902923584,2.0000000474974513,50.29141902923584,2.0000000474974513,C,31744829484000
Raw,1676594687999,207999000000,,,-1360629698000545389,0.0,7.0436775531322375,202.0,1.0,58,2,0.0,85026,434705921535649,12,43.27471923828125,156.7681720828731,0.15,16,32143.676149132345,340282346638528860000000000000000000000,1575420030,,,,0,,6,,39.674720764160156,-5.529727786779403,1.5000000237487257,-5.529727786779403,1.5000000237487257,C,31744829484000
Raw,1676594687999,207999000000,,,-1360629698000545389,0.0,7.0436775531322375,202.0,1.0,58,11,0.0,85026,434705908819550,47,28.193201065063477,594.7641555057812,299.7933093045099,16,122745.32947477477,340282346638528860000000000000000000000,1575420030,,,,0,,6,,24.59320068359375,-5.529727786779403,1.5000000237487257,-5.529727786779403,1.5000000237487257,C,31744829484000
Raw,1676594687999,207999000000,,,-1360629698000545389,0.0,7.0436775531322375,202.0,1.0,58,25,0.0,85026,434705911103480,28,33.22145462036133,504.83404939486763,0.6178854474455844,16,104761.40993720498,340282346638528860000000000000000000000,1575420030,,,,1,,6,,29.6214542388916,-5.529727786779403,1.5000000237487257,-5.529727786779403,1.5000000237487257,C,31744829484000
Raw,1676594687999,207999000000,,,-1360629698000545389,0.0,7.0436775531322375,202.0,1.0,58,30,0.0,85026,434705916029198,35,30.5823974609375,-301.7164800787225,0.7360078527835787,16,-62564.848306822634,340282346638528860000000000000000000000,1575420030,,,,0,,6,,26.982397079467773,-5.529727786779403,1.5000000237487257,-5.529727786779403,1.5000000237487257,C,31744829484000
Raw,1676594687999,207999000000,,,-1360629698000545389,0.0,7.0436775531322375,202.0,1.0,58,34,0.0,85026,434705919726951,14,41.7548828125,-242.41886791155434,0.15,16,-51752.21949257848,340282346638528860000000000000000000000,1575420030,,,,0,,6,,38.154884338378906,-5.529727786779403,1.5000000237487257,-5.529727786779403,1.5000000237487257,C,31744829484000
Raw,1676594687999,207999000000,,,-1360629698000545389,0.0,7.0436775531322375,202.0,1.0,58,36,0.0,85026,434705920068057,17,39.399845123291016,289.1483356587405,0.15,16,59542.08378781038,340282346638528860000000000000000000000,1575420030,,,,0,,6,,35.79984664916992,-5.529727786779403,1.5000000237487257,-5.529727786779403,1.5000000237487257,C,31744829484000
Raw,1676594687999,207999000000,,,-1360629698000545389,0.0,7.0436775531322375,202.0,1.0,58,2,0.0,84003,434705921536151,8,40.11225509643555,156.67430899760927,0.15,16,32086.74063620799,340282346638528860000000000000000000000,1176450050,,,,0,,6,,36.51225662231445,-3.8673868402838703,2.182670307503672,-3.8673868402838703,1.5000000237487257,Q,31744829484000
Raw,1676594687999,207999000000,,,-1360629698000545389,0.0,7.0436775531322375,202.0,1.0,58,11,0.0,16384,434705908820071,1000000000,18.423521041870117,592.7449062866308,299792458,16,122196.25024802047,340282346638528860000000000000000000000,1176450050,,,,0,,6,,14.82352066040039,5.55254518985748,2.182670307503672,5.55254518985748,1.5000000237487257,Q,31744829484000
Raw,1676594687999,207999000000,,,-1360629698000545389,0.0,7.0436775531322375,202.0,1.0,58,25,0.0,84003,434705911103951,8,38.56205749511719,504.33743392087376,0.15,16,106237.35980307563,340282346638528860000000000000000000000,1176450050,,,,0,,6,,34.962059020996094,-8.300296030938624,2.182670307503672,-8.300296030938624,1.5000000237487257,Q,31744829484000
Raw,1676594687999,207999000000,,,-1360629698000545389,0.0,7.0436775531322375,202.0,1.0,58,30,0.0,84003,434705916029724,8,39.49085235595703,-301.62363946715436,0.15,16,-62249.50269429453,340282346638528860000000000000000000000,1176450050,,,,0,,6,,35.89085388183594,-7.930886931717395,2.182670307503672,-7.930886931717395,1.5000000237487257,Q,31744829484000
Raw,1676594687999,207999000000,,,-1360629698000545389,0.0,7.0436775531322375,202.0,1.0,58,34,0.0,84003,434705919727446,7,42.90842819213867,-242.5953298302012,0.15,16,-51757.37624081443,340282346638528860000000000000000000000,1176450050,,,,0,,6,,39.30842971801758,-9.593227878212927,2.182670307503672,-9.593227878212927,1.5000000237487257,Q,31744829484000
Raw,1676594687999,207999000000,,,-1360629698000545389,0.0,7.0436775531322375,202.0,1.0,58,36,0.0,84003,434705920068535,8,36.11463165283203,288.96115480751723,0.15,16,59742.328428645465,340282346638528860000000000000000000000,1176450050,,,,0,,6,,32.51463317871094,-10.516750626265999,2.182670307503672,-10.516750626265999,1.5000000237487257,Q,31744829484000
UncalAccel,1676594688112,31744934142831,-1.247857,-1.3429717,8.456235,0.037048545,-0.031444572,0.0098014325
UncalMag,1676594688112,31744934935770,-174.2526,739.9178,400.6602,-174.57417,771.0116,430.86337
UncalGyro,1676594688116,31744938383502,0.076052725,-1.668273,-3.32891,-0.00036945913,-0.0017189155,-0.00032371213
UncalAccel,1676594688120,31744942623880,-1.1419746,-1.2029916,8.212766,0.037048545,-0.031444572,0.0098014325
UncalMag,1676594688122,31744944946512,-174.5698,739.7958,399.794,-174.57417,771.0116,430.86337
OrientationDeg,1676594688113,31744934142831,183.0,0.0,-12.0
OrientationDeg,1676594688120,31744942623880,185.0,0.0,-12.0
Status,0,30,0,3,15,1602000000,40.13,315.0,77.0,1,1,1,36.533924
Status,0,30,1,1,11,1176450050,44.59,121.0,76.0,1,1,1,40.992134
Status,0,30,2,6,2,1176450050,40.11,108.0,76.0,1,1,1,36.512257
Status,0,30,3,6,2,1575420030,43.27,108.0,76.0,1,1,1,39.67472
Status,0,30,4,1,11,1575420030,43.84,121.0,76.0,1,1,1,40.244873
Status,0,30,5,3,17,1604249980,40.59,322.0,72.0,1,1,1,36.98524
Status,0,30,6,1,12,1575420030,42.02,327.0,66.0,1,1,1,38.4213
Status,0,30,7,6,36,1176450050,36.78,50.0,62.0,1,1,1,33.18034
Status,0,30,8,6,36,1575420030,40.49,50.0,62.0,1,1,1,36.891563
Status,0,30,9,6,34,1575420030,43.05,207.0,60.0,1,1,1,39.44742
Status,0,30,10,6,34,1176450050,42.91,207.0,60.0,1,1,1,39.30843
Status,0,30,11,6,30,1176450050,41.03,315.0,46.0,1,1,1,37.428364
Status,0,30,12,6,30,1575420030,39.18,315.0,46.0,1,1,1,35.5801
Status,0,30,13,3,14,1598062460,46.77,153.0,45.0,1,1,1,43.167267
Status,0,30,14,1,6,1575420030,40.18,47.0,44.0,1,1,1,36.58133
Status,0,30,15,1,6,1176450050,37.63,47.0,44.0,1,1,1,34.029854
Status,0,30,16,1,24,1176450050,42.74,218.0,38.0,1,1,1,39.13583
Status,0,30,17,1,24,1575420030,44.58,218.0,38.0,1,1,1,40.977715
Status,0,30,18,3,18,1600312450,42.99,240.0,36.0,1,1,1,39.394005
Status,0,30,19,1,25,1176450050,40.09,313.0,36.0,1,1,1,36.49012
Status,0,30,20,1,25,1575420030,40.24,313.0,36.0,1,1,1,36.638214
Status,0,30,21,3,24,1603124990,39.30,34.0,30.0,1,1,1,35.699387
Status,0,30,22,1,20,1575420030,47.70,141.0,27.0,1,1,1,44.09983
Status,0,30,23,1,19,1575420030,42.18,61.0,25.0,1,1,1,38.577908
Status,0,30,24,6,25,1176450050,39.22,127.0,25.0,1,1,1,35.619865
Status,0,30,25,6,25,1575420030,41.83,127.0,25.0,1,1,1,38.226757
Status,0,30,26,3,16,1601437440,40.75,328.0,22.0,1,1,1,37.152176
Status,0,30,27,1,29,1575420030,42.14,265.0,15.0,1,1,1,38.541725
Status,0,30,28,6,11,1575420030,34.97,41.0,13.0,0,1,1,31.366903
Status,0,30,29,1,2,1575420030,49.73,217.0,12.0,1,1,1,46.128517
UncalGyro,1676594688124,31744946861713,-0.15806139,-1.851838,-3.3887749,-0.00036945913,-0.0017189155,-0.00032371213
Fix,GPS,37.4311236378,-122.1551737058,-17.74268511198687,0.25945586,3.1722493,232.60356,1676594687999,0.10322143,180.0,31744829484000,3.0
Fix,FLP,37.4311289000,-122.1551681000,-15.80000114440918,0.44472602,3.971,194.4973,1676594687921,,,31744743325820,2.5633261
UncalAccel,1676594688129,31744951087004,-0.98943216,-1.0390832,8.1840515,0.037048545,-0.031444572,0.0098014325
OrientationDeg,1676594688129,31744951087004,186.0,-1.0,-12.0
UncalMag,1676594688132,31744954946309,-173.8622,739.45416,399.5744,-174.57417,771.0116,430.86337
UncalGyro,1676594688133,31744955343312,-0.40851614,-2.0002782,-3.4332154,-0.00036945913,-0.0017189155,-0.00032371213
UncalAccel,1676594688137,31744959574207,-0.91405827,-0.89491564,8.212766,0.037048545,-0.031444572,0.0098014325
OrientationDeg,1676594688137,31744959574207,188.0,-1.0,-12.0
UncalGyro,1676594688141,31744963830209,-0.64553183,-2.0760255,-3.4669657,-0.00036945913,-0.0017189155,-0.00032371213
UncalMag,1676594688142,31744964928406,-172.2762,739.7226,398.757,-174.57417,771.0116,430.86337
UncalAccel,1676594688146,31744968061481,-0.92542416,-0.76630145,8.417352,0.037048545,-0.031444572,0.0098014325
OrientationDeg,1676594688146,31744968061481,190.0,-2.0,-11.0
UncalGyro,1676594688150,31744972305826,-0.86009824,-2.0751092,-3.4953709,-0.00036945913,-0.0017189155,-0.00032371213
UncalMag,1676594688152,31744974946391,-172.142,740.2838,399.977,-174.57417,771.0116,430.86337
UncalAccel,1676594688154,31744976534728,-1.0372887,-0.64247286,8.535198,0.037048545,-0.031444572,0.0098014325
OrientationDeg,1676594688154,31744976534728,192.0,-2.0,-11.0
UncalGyro,1676594688158,31744980785817,-1.0300715,-2.0132592,-3.5101845,-0.00036945913,-0.0017189155,-0.00032371213
UncalMag,1676594688162,31744984946432,-172.9594,740.4912,398.7082,-174.57417,771.0116,430.86337
UncalAccel,1676594688163,31744985018107,-1.2000005,-0.52342993,8.461619,0.037048545,-0.031444572,0.0098014325
OrientationDeg,1676594688163,31744985018107,193.0,-3.0,-10.0
UncalGyro,1676594688167,31744989280182,-1.131017,-1.926669,-3.5083518,-0.00036945913,-0.0017189155,-0.00032371213
UncalAccel,1676594688171,31744993506094,-1.41356,-0.37567315,8.201998,0.037048545,-0.031444572,0.0098014325
OrientationDeg,1676594688171,31744993506094,195.0,-4.0,-10.0
UncalMag,1676594688172,31744994941915,-171.349,741.14996,399.3182,-174.57417,771.0116,430.86337
UncalGyro,1676594688175,31744997750142,-1.1612549,-1.8443549,-3.4949129,-0.00036945913,-0.0017189155,-0.00032371213
UncalAccel,1676594688179,31745001983948,-1.5523437,-0.25663024,8.100303,0.037048545,-0.031444572,0.0098014325
OrientationDeg,1676594688179,31745001983948,197.0,-4.0,-9.0
UncalMag,1676594688182,31745004946432,-171.65399,741.1866,397.7566,-174.57417,771.0116,430.86337
UncalGyro,1676594688184,31745006227711,-1.1339186,-1.7458528,-3.4640641,-0.00036945913,-0.0017189155,-0.00032371213
UncalAccel,1676594688188,31745010467469,-1.6630118,-0.15194423,8.084749,0.037048545,-0.031444572,0.0098014325
OrientationDeg,1676594688188,31745010467469,199.0,-5.0,-9.0
UncalGyro,1676594688192,31745014709524,-1.0746647,-1.6103935,-3.4083226,-0.00036945913,-0.0017189155,-0.00032371213
UncalMag,1676594688192,31745014929506,-170.8,741.4428,397.31738,-174.57417,771.0116,430.86337
UncalAccel,1676594688196,31745018947775,-1.7700906,0.07238288,8.173284,0.037048545,-0.031444572,0.0098014325
OrientationDeg,1676594688196,31745018947775,200.0,-5.0,-9.0
UncalGyro,1676594688201,31745023188985,-1.0086912,-1.4413365,-3.3299792,-0.00036945913,-0.0017189155,-0.00032371213
UncalMag,1676594688202,31745024946270,-171.04399,742.63837,396.5122,-174.57417,771.0116,430.86337
UncalAccel,1676594688205,31745027427836,-1.8867407,0.3684947,8.213962,0.037048545,-0.031444572,0.0098014325
OrientationDeg,1676594688205,31745027427836,202.0,-5.0,-8.0
UncalGyro,1676594688209,31745031668316,-0.9624182,-1.2606732,-3.2238414,-0.00036945913,-0.0017189155,-0.00032371213
UncalMag,1676594688212,31745034946433,-170.72679,742.73596,396.41458,-174.57417,771.0116,430.86337
UncalAccel,1676594688213,31745035904552,-2.0889342,0.6831509,8.206783,0.037048545,-0.031444572,0.0098014325
OrientationDeg,1676594688213,31745035904552,204.0,-6.0,-8.0
UncalGyro,1676594688218,31745040146587,-0.9399689,-1.0818423,-3.0923526,-0.00036945913,-0.0017189155,-0.00032371213
UncalAccel,1676594688222,31745044389202,-2.3784657,1.0743774,8.2456665,0.037048545,-0.031444572,0.0098014325
OrientationDeg,1676594688222,31745044389202,205.0,-6.0,-8.0
UncalMag,1676594688223,31745044935773,-170.11679,744.21216,396.14618,-174.57417,771.0116,430.86337
UncalGyro,1676594688226,31745048631887,-0.9437868,-0.9071349,-2.9342911,-0.00036945913,-0.0017189155,-0.00032371213
UncalAccel,1676594688230,31745052870393,-2.6620152,1.4656038,8.1942215,0.037048545,-0.031444572,0.0098014325
OrientationDeg,1676594688230,31745052870393,207.0,-6.0,-7.0
UncalMag,1676594688232,31745054935773,-169.3848,744.2488,396.744,-174.57417,771.0116,430.86337
UncalGyro,1676594688235,31745057111664,-0.9755518,-0.76144356,-2.7337747,-0.00036945913,-0.0017189155,-0.00032371213
UncalAccel,1676594688239,31745061349611,-2.8492537,1.7282162,8.05783,0.037048545,-0.031444572,0.0098014325
OrientationDeg,1676594688239,31745061349611,208.0,-6.0,-7.0
UncalMag,1676594688242,31745064946515,-168.9456,744.4806,395.4508,-174.57417,771.0116,430.86337
UncalGyro,1676594688243,31745065591198,-1.0386237,-0.6751588,-2.4900393,-0.00036945913,-0.0017189155,-0.00032371213
UncalAccel,1676594688247,31745069830171,-2.9916265,1.7706888,7.9040914,0.037048545,-0.031444572,0.0098014325
OrientationDeg,1676594688247,31745069830171,209.0,-6.0,-7.0
UncalGyro,1676594688252,31745074071617,-1.1348349,-0.65011334,-2.2139285,-0.00036945913,-0.0017189155,-0.00032371213
UncalMag,1676594688252,31745074936262,-168.97,745.79816,395.88998,-174.57417,771.0116,430.86337
UncalAccel,1676594688256,31745078311108,-3.004787,1.6749759,7.7760754,0.037048545,-0.031444572,0.0098014325
OrientationDeg,1676594688256,31745078311108,210.0,-6.0,-6.0
UncalGyro,1676594688260,31745082553052,-1.2605205,-0.64858615,-1.9306396,-0.00036945913,-0.0017189155,-0.00032371213
UncalMag,1676594688262,31745084946353,-168.53079,746.0422,394.8408,-174.57417,771.0116,430.86337
UncalAccel,1676594688264,31745086791099,-3.0520453,1.4733806,7.862217,0.037048545,-0.031444572,0.0098014325
OrientationDeg,1676594688264,31745086791099,211.0,-7.0,-6.0
UncalGyro,1676594688269,31745091031761,-1.3868169,-0.59589905,-1.6626225,-0.00036945913,-0.0017189155,-0.00032371213
UncalMag,1676594688272,31745094946679,-168.7992,746.884,394.3284,-174.57417,771.0116,430.86337
UncalAccel,1676594688273,31745095265485,-3.0239296,1.439881,7.9393854,0.037048545,-0.031444572,0.0098014325
OrientationDeg,1676594688273,31745095265485,212.0,-7.0,-5.0
UncalGyro,1676594688277,31745099500297,-1.4895949,-0.45875978,-1.4286611,-0.00036945913,-0.0017189155,-0.00032371213
UncalAccel,1676594688281,31745103743177,-2.9485557,1.5834504,7.9914293,0.037048545,-0.031444572,0.0098014325
UncalMag,1676594688282,31745104936059,-168.2746,746.87177,393.5842,-174.57417,771.0116,430.86337
OrientationDeg,1676594688281,31745103743177,213.0,-7.0,-4.0
UncalGyro,1676594688285,31745107994387,-1.55847,-0.24144448,-1.2264647,-0.00036945913,-0.0017189155,-0.00032371213
UncalAccel,1676594688290,31745112235690,-3.1190443,2.0422742,8.093124,0.037048545,-0.031444572,0.0098014325
OrientationDeg,1676594688290,31745112235690,213.0,-7.0,-4.0
UncalMag,1676594688292,31745114946435,-168.0184,747.677,394.0112,-174.57417,771.0116,430.86337
UncalGyro,1676594688294,31745116477175,-1.5859588,0.100334615,-1.0870347,-0.00036945913,-0.0017189155,-0.00032371213
UncalAccel,1676594688298,31745120713189,-3.1244283,1.5607185,12.314662,0.037048545,-0.031444572,0.0098014325
OrientationDeg,1676594688298,31745120713189,214.0,-6.0,-3.0
UncalGyro,1676594688302,31745124951247,-0.981355,2.1062634,-0.7632761,-0.00036945913,-0.0017189155,-0.00032371213
UncalMag,1676594688302,31745124950179,-166.8838,748.9702,392.718,-174.57417,771.0116,430.86337
UncalAccel,1676594688307,31745129177504,-4.3040895,0.106480606,23.941387,0.037048545,-0.031444572,0.0098014325
OrientationDeg,1676594688307,31745129177504,214.0,-5.0,-3.0
UncalGyro,1676594688311,31745133434615,0.8712466,1.9518672,0.6068946,-0.00036945913,-0.0017189155,-0.00032371213
UncalMag,1676594688312,31745134946273,-166.8838,748.9702,392.718,-174.57417,771.0116,430.86337
UncalAccel,1676594688315,31745137673923,-12.890734,4.6283174,3.7513478,0.037048545,-0.031444572,0.0098014325
OrientationDeg,1676594688315,31745137673923,213.0,-4.0,-4.0
UncalGyro,1676594688319,31745141919061,3.4078646,-0.35262197,2.9420798,-0.00036945913,-0.0017189155,-0.00032371213
UncalMag,1676594688322,31745144946314,-166.713,746.6766,394.7066,-174.57417,771.0116,430.86337
UncalAccel,1676594688324,31745146155226,-6.8249283,6.647261,10.4566345,0.037048545,-0.031444572,0.0098014325
OrientationDeg,1676594688324,31745146155226,211.0,-5.0,-6.0
UncalGyro,1676594688328,31745150398635,3.669162,-0.65301496,3.4406984,-0.00036945913,-0.0017189155,-0.00032371213
UncalAccel,1676594688332,31745154635146,-7.60439,6.6759753,10.479965,0.037048545,-0.031444572,0.0098014325
OrientationDeg,1676594688332,31745154635146,209.0,-5.0,-7.0
UncalMag,1676594688332,31745154929712,-168.055,745.3468,394.914,-174.57417,771.0116,430.86337
UncalGyro,1676594688336,31745158876031,2.7156014,-0.3996586,2.9164233,-0.00036945913,-0.0017189155,-0.00032371213
UncalAccel,1676594688341,31745163113804,-6.6125655,10.253843,11.489737,0.037048545,-0.031444572,0.0098014325
OrientationDeg,1676594688341,31745163113804,208.0,-6.0,-8.0
UncalMag,1676594688342,31745164946599,-169.2628,744.4928,396.195,-174.57417,771.0116,430.86337
UncalGyro,1676594688345,31745167353387,1.3179418,-0.2209805,1.7663169,-0.00036945913,-0.0017189155,-0.00032371213
UncalAccel,1676594688349,31745171596012,-2.2002003,11.438889,9.716655,0.037048545,-0.031444572,0.0098014325
OrientationDeg,1676594688349,31745171596012,207.0,-6.0,-9.0
UncalMag,1676594688352,31745174946437,-170.19,744.7246,395.5362,-174.57417,771.0116,430.86337
UncalGyro,1676594688353,31745175837141,-0.22250767,-0.43676865,0.44806966,-0.00036945913,-0.0017189155,-0.00032371213
UncalAccel,1676594688358,31745180074467,0.18125631,8.82114,8.404191,0.037048545,-0.031444572,0.0098014325
OrientationDeg,1676594688358,31745180074467,207.0,-6.0,-8.0
UncalGyro,1676594688362,31745184307103,-1.6843082,-0.6290385,-0.5332854,-0.00036945913,-0.0017189155,-0.00032371213
UncalMag,1676594688362,31745184957505,-169.4214,745.17596,395.7558,-174.57417,771.0116,430.86337
UncalAccel,1676594688366,31745188557153,1.2137593,3.6670008,9.5868435,0.037048545,-0.031444572,0.0098014325
OrientationDeg,1676594688366,31745188557153,208.0,-6.0,-7.0
UncalGyro,1676594688370,31745192799199,-2.851977,-0.18432859,-0.853226,-0.00036945913,-0.0017189155,-0.00032371213
UncalMag,1676594688372,31745194946396,-169.2628,746.01776,394.6212,-174.57417,771.0116,430.86337
UncalAccel,1676594688375,31745197039718,1.7413766,0.9242278,7.4422765,0.037048545,-0.031444572,0.0098014325
OrientationDeg,1676594688375,31745197039718,209.0,-6.0,-6.0
UncalGyro,1676594688379,31745201278315,-3.5100317,0.026419923,-0.9656252,-0.00036945913,-0.0017189155,-0.00032371213
UncalMag,1676594688382,31745204946397,-168.6406,747.677,394.2674,-174.57417,771.0116,430.86337
UncalAccel,1676594688383,31745205514561,2.4717858,1.1443675,4.295715,0.037048545,-0.031444572,0.0098014325
OrientationDeg,1676594688383,31745205514561,209.0,-6.0,-4.0
UncalGyro,1676594688387,31745209748286,-3.777438,-0.16249016,-1.0815369,-0.00036945913,-0.0017189155,-0.00032371213
UncalAccel,1676594688391,31745213998245,2.6596224,0.11306087,6.120242,0.037048545,-0.031444572,0.0098014325
OrientationDeg,1676594688391,31745213998245,210.0,-6.0,-2.0
UncalMag,1676594688392,31745214935777,-169.1774,749.07996,392.3276,-174.57417,771.0116,430.86337
UncalGyro,1676594688396,31745218240483,-3.5709655,0.06658431,-1.1275045,-0.00036945913,-0.0017189155,-0.00032371213
UncalAccel,1676594688400,31745222480210,2.3228326,-0.34277186,7.9914293,0.037048545,-0.031444572,0.0098014325
OrientationDeg,1676594688400,31745222480210,211.0,-6.0,0.0
UncalMag,1676594688402,31745224957465,-168.26239,750.3976,392.0104,-174.57417,771.0116,430.86337
UncalGyro,1676594688404,31745226716680,-3.1853569,0.21456642,-1.1882856,-0.00036945913,-0.0017189155,-0.00032371213
UncalAccel,1676594688408,31745230958980,2.4903302,-0.75194454,7.0402822,0.037048545,-0.031444572,0.0098014325
OrientationDeg,1676594688408,31745230958980,212.0,-6.0,0.0
UncalMag,1676594688412,31745234946194,-168.6162,751.4956,391.07098,-174.57417,771.0116,430.86337
UncalGyro,1676594688413,31745235201941,-2.8371637,0.27763826,-1.2961034,-0.00036945913,-0.0017189155,-0.00032371213
UncalAccel,1676594688417,31745239447129,3.1902308,-1.747957,9.402596,0.037048545,-0.031444572,0.0098014325
OrientationDeg,1676594688417,31745239447129,212.0,-6.0,1.0
UncalGyro,1676594688421,31745243680589,-2.2629502,0.56184334,-1.3069462,-0.00036945913,-0.0017189155,-0.00032371213
UncalMag,1676594688422,31745244951443,-167.5792,752.89856,390.4122,-174.57417,771.0116,430.86337
UncalAccel,1676594688425,31745247920426,4.092923,-3.0759735,10.532009,0.037048545,-0.031444572,0.0098014325
OrientationDeg,1676594688425,31745247920426,213.0,-6.0,2.0
UncalGyro,1676594688430,31745252160488,-1.6401732,0.7834347,-1.1155926,-0.00036945913,-0.0017189155,-0.00032371213
UncalMag,1676594688432,31745254946276,-167.323,753.6794,390.3512,-174.57417,771.0116,430.86337
UncalAccel,1676594688434,31745256400651,6.023931,-3.7190447,9.869795,0.037048545,-0.031444572,0.0098014325
OrientationDeg,1676594688434,31745256400651,214.0,-5.0,3.0
UncalGyro,1676594688438,31745260642584,-0.9796751,0.6151413,-0.6107125,-0.00036945913,-0.0017189155,-0.00032371213
UncalAccel,1676594688442,31745264880540,7.0600233,-2.3114667,8.456235,0.037048545,-0.031444572,0.0098014325
UncalMag,1676594688442,31745264937487,-167.0546,754.7164,389.9852,-174.57417,771.0116,430.86337
OrientationDeg,1676594688442,31745264880540,214.0,-5.0,3.0
UncalGyro,1676594688447,31745269121599,-0.33078352,0.15561792,-0.03573562,-0.00036945913,-0.0017189155,-0.00032371213
UncalAccel,1676594688451,31745273359688,6.3481584,1.1952149,8.45803,0.037048545,-0.031444572,0.0098014325
OrientationDeg,1676594688451,31745273359688,214.0,-5.0,3.0
UncalMag,1676594688452,31745274949532,-167.2986,754.204,390.10718,-174.57417,771.0116,430.86337
UncalGyro,1676594688455,31745277602444,0.26206118,-0.096516706,0.16615535,-0.00036945913,-0.0017189155,-0.00032371213
UncalAccel,1676594688459,31745281841255,5.2402816,3.6340995,9.669994,0.037048545,-0.031444572,0.0098014325
OrientationDeg,1676594688459,31745281841255,214.0,-5.0,3.0
UncalMag,1676594688462,31745284946643,-167.384,754.37476,390.156,-174.57417,771.0116,430.86337
UncalGyro,1676594688464,31745286081112,0.7325801,0.13973543,-0.03191771,-0.00036945913,-0.0017189155,-0.00032371213
UncalAccel,1676594688468,31745290318488,3.8356948,4.3322053,10.907682,0.037048545,-0.031444572,0.0098014325
OrientationDeg,1676594688468,31745290318488,214.0,-5.0,2.0
UncalGyro,1676594688472,31745294547981,0.98654735,0.6133087,-0.39003745,-0.00036945913,-0.0017189155,-0.00032371213
UncalMag,1676594688472,31745294931750,-166.9082,753.6184,390.6806,-174.57417,771.0116,430.86337
UncalAccel,1676594688476,31745298803179,3.1154552,4.3609195,11.2755785,0.037048545,-0.031444572,0.0098014325
OrientationDeg,1676594688476,31745298803179,214.0,-5.0,1.0
UncalGyro,1676594688481,31745303043821,1.006095,0.8886562,-0.7831292,-0.00036945913,-0.0017189155,-0.00032371213
UncalMag,1676594688482,31745304946358,-166.3226,753.0938,390.3024,-174.57417,771.0116,430.86337
UncalAccel,1676594688485,31745307287066,3.025126,4.348955,12.482758,0.037048545,-0.031444572,0.0098014325
OrientationDeg,1676594688485,31745307287066,214.0,-4.0,1.0
UncalGyro,1676594688490,31745311524594,0.7787005,1.3118331,-1.1516337,-0.00036945913,-0.0017189155,-0.00032371213
UncalMag,1676594688492,31745314946521,-166.103,753.3012,391.43698,-174.57417,771.0116,430.86337
UncalAccel,1676594688493,31745315763821,4.731209,2.6955147,16.353746,0.037048545,-0.031444572,0.0098014325
OrientationDeg,1676594688493,31745315763821,215.0,-4.0,1.0
UncalGyro,1676594688498,31745320005939,0.27320948,1.5511396,-1.3755158,-0.00036945913,-0.0017189155,-0.00032371213
UncalAccel,1676594688502,31745324242389,3.4887354,2.437688,11.273186,0.037048545,-0.031444572,0.0098014325
OrientationDeg,1676594688502,31745324242389,216.0,-3.0,1.0
UncalMag,1676594688503,31745324938791,-164.8586,752.9474,390.2292,-174.57417,771.0116,430.86337
UncalGyro,1676594688506,31745328475940,-0.34345898,1.2444853,-1.6256652,-0.00036945913,-0.0017189155,-0.00032371213
UncalAccel,1676594688510,31745332713600,4.009773,2.056631,9.030513,0.037048545,-0.031444572,0.0098014325
OrientationDeg,1676594688510,31745332713600,217.0,-2.0,1.0
UncalMag,1676594688512,31745334946278,-163.7972,753.32556,390.7782,-174.57417,771.0116,430.86337
UncalGyro,1676594688514,31745336965645,-0.9605856,0.7521278,-1.817935,-0.00036945913,-0.0017189155,-0.00032371213
UncalAccel,1676594688519,31745341206551,4.7772703,1.422533,9.859626,0.037048545,-0.031444572,0.0098014325
OrientationDeg,1676594688519,31745341206551,218.0,-2.0,1.0
UncalMag,1676594688522,31745344941761,-163.6508,754.021,390.705,-174.57417,771.0116,430.86337
UncalGyro,1676594688523,31745345446135,-1.4320209,0.4437936,-1.8764253,-0.00036945913,-0.0017189155,-0.00032371213
UncalAccel,1676594688527,31745349674375,4.269394,0.69152576,9.807582,0.037048545,-0.031444572,0.0098014325
OrientationDeg,1676594688527,31745349674375,219.0,-2.0,2.0
UncalGyro,1676594688531,31745353923705,-1.7033978,0.2527455,-1.8820758,-0.00036945913,-0.0017189155,-0.00032371213
UncalMag,1676594688532,31745354935658,-163.6996,754.9848,390.69278,-174.57417,771.0116,430.86337
UncalAccel,1676594688536,31745358162820,4.400999,-0.29910284,9.598808,0.037048545,-0.031444572,0.0098014325
OrientationDeg,1676594688536,31745358162820,219.0,-2.0,3.0
UncalGyro,1676594688540,31745362409830,-1.7828102,0.038789943,-1.8358028,-0.00036945913,-0.0017189155,-0.00032371213
UncalMag,1676594688542,31745364946401,-162.3698,756.034,389.8144,-174.57417,771.0116,430.86337
UncalAccel,1676594688544,31745366647042,4.3405805,-0.98943216,9.787841,0.037048545,-0.031444572,0.0098014325
OrientationDeg,1676594688544,31745366647042,220.0,-2.0,4.0
UncalGyro,1676594688548,31745370888458,-1.6389514,-0.18875736,-1.7478381,-0.00036945913,-0.0017189155,-0.00032371213
UncalMag,1676594688552,31745374946360,-162.65039,756.644,390.339,-174.57417,771.0116,430.86337
UncalAccel,1676594688553,31745375122507,4.278367,-1.5798612,10.244272,0.037048545,-0.031444572,0.0098014325
OrientationDeg,1676594688553,31745375122507,221.0,-3.0,4.0
UncalGyro,1676594688557,31745379350056,-1.2948816,-0.345597,-1.6313156,-0.00036945913,-0.0017189155,-0.00032371213
UncalAccel,1676594688561,31745383604451,4.2478585,-1.8203398,10.627124,0.037048545,-0.031444572,0.0098014325
OrientationDeg,1676594688561,31745383604451,222.0,-3.0,5.0
UncalMag,1676594688562,31745384936147,-162.8822,758.0226,389.7046,-174.57417,771.0116,430.86337
UncalGyro,1676594688565,31745387849690,-0.860251,-0.40561453,-1.5250251,-0.00036945913,-0.0017189155,-0.00032371213
UncalAccel,1676594688570,31745392092488,4.124628,-1.9034904,11.218151,0.037048545,-0.031444572,0.0098014325
OrientationDeg,1676594688570,31745392092488,223.0,-3.0,5.0
UncalMag,1676594688572,31745394946523,-162.96759,758.352,389.302,-174.57417,771.0116,430.86337
UncalGyro,1676594688574,31745396330657,-0.40622538,-0.32589662,-1.4227052,-0.00036945913,-0.0017189155,-0.00032371213
UncalAccel,1676594688578,31745400567871,3.909274,-1.9345971,11.875579,0.037048545,-0.031444572,0.0098014325
OrientationDeg,1676594688578,31745400567871,223.0,-3.0,5.0
UncalGyro,1676594688582,31745404809418,0.01282817,-0.1160644,-1.3104587,-0.00036945913,-0.0017189155,-0.00032371213
UncalMag,1676594688582,31745404942536,-162.5284,758.535,389.0946,-174.57417,771.0116,430.86337
UncalAccel,1676594688587,31745409048451,3.6586258,-1.9220347,12.074781,0.037048545,-0.031444572,0.0098014325
OrientationDeg,1676594688587,31745409048451,224.0,-3.0,5.0
UncalGyro,1676594688591,31745413290386,0.3475823,0.1207986,-1.1808025,-0.00036945913,-0.0017189155,-0.00032371213
UncalMag,1676594688592,31745414946402,-162.321,758.63257,389.47278,-174.57417,771.0116,430.86337
UncalAccel,1676594688595,31745417530741,3.3092737,-1.7467605,12.052648,0.037048545,-0.031444572,0.0098014325
OrientationDeg,1676594688596,31745417530741,225.0,-3.0,5.0
UncalGyro,1676594688599,31745421771342,0.56214875,0.33261612,-1.0488557,-0.00036945913,-0.0017189155,-0.00032371213
UncalMag,1676594688602,31745424946524,-161.72319,758.2178,389.8388,-174.57417,771.0116,430.86337
UncalAccel,1676594688604,31745426009521,2.815754,-1.4721842,11.943176,0.037048545,-0.031444572,0.0098014325
OrientationDeg,1676594688604,31745426009521,225.0,-3.0,4.0
UncalGyro,1676594688608,31745430250488,0.64980793,0.49632803,-0.9424124,-0.00036945913,-0.0017189155,-0.00032371213
UncalAccel,1676594688612,31745434489727,2.1224337,-1.183849,11.722438,0.037048545,-0.031444572,0.0098014325
UncalMag,1676594688612,31745434937898,-161.4914,758.5838,390.16818,-174.57417,771.0116,430.86337
OrientationDeg,1676594688612,31745434489727,225.0,-3.0,4.0
UncalGyro,1676594688616,31745438731121,0.63071835,0.5884159,-0.87598073,-0.00036945913,-0.0017189155,-0.00032371213
UncalAccel,1676594688620,31745442970491,1.2418749,-0.80578303,11.485549,0.037048545,-0.031444572,0.0098014325
UncalMag,1676594688622,31745444931673,-161.1986,758.1324,389.4484,-174.57417,771.0116,430.86337
OrientationDeg,1676594688620,31745442970491,226.0,-3.0,4.0
UncalGyro,1676594688625,31745447211599,0.5342017,0.61575216,-0.8698721,-0.00036945913,-0.0017189155,-0.00032371213
UncalAccel,1676594688629,31745451451193,0.47736812,-0.503091,11.212169,0.037048545,-0.031444572,0.0098014325
OrientationDeg,1676594688629,31745451451193,226.0,-2.0,4.0
UncalMag,1676594688632,31745454946240,-160.7838,758.1568,390.0462,-174.57417,771.0116,430.86337
UncalGyro,1676594688633,31745455693269,0.40851614,0.6093381,-0.91522884,-0.00036945913,-0.0017189155,-0.00032371213
UncalAccel,1676594688637,31745459931581,-0.078963146,-0.49651068,10.783854,0.037048545,-0.031444572,0.0098014325
OrientationDeg,1676594688637,31745459931581,227.0,-2.0,3.0
UncalGyro,1676594688642,31745464173606,0.29978213,0.59131753,-0.9789116,-0.00036945913,-0.0017189155,-0.00032371213
UncalMag,1676594688642,31745464936068,-160.47879,757.99817,390.1194,-174.57417,771.0116,430.86337
UncalAccel,1676594688646,31745468411246,-0.35593235,-0.6837491,10.234102,0.037048545,-0.031444572,0.0098014325
OrientationDeg,1676594688646,31745468411246,227.0,-2.0,3.0
UncalGyro,1676594688650,31745472652752,0.2518292,0.5748242,-1.0270172,-0.00036945913,-0.0017189155,-0.00032371213
UncalMag,1676594688653,31745474946403,-159.84439,758.09576,390.2536,-174.57417,771.0116,430.86337
UncalAccel,1676594688654,31745476891827,-0.33200413,-0.89371926,9.705289,0.037048545,-0.031444572,0.0098014325
OrientationDeg,1676594688654,31745476891827,228.0,-2.0,3.0
UncalGyro,1676594688659,31745481132672,0.26832256,0.5665775,-1.0490084,-0.00036945913,-0.0017189155,-0.00032371213
UncalMag,1676594688662,31745484946444,-159.8566,758.0104,390.3512,-174.57417,771.0116,430.86337
UncalAccel,1676594688663,31745485367231,-0.20877378,-1.1030912,9.382855,0.037048545,-0.031444572,0.0098014325
OrientationDeg,1676594688663,31745485367231,228.0,-1.0,3.0
UncalGyro,1676594688667,31745489603579,0.3184135,0.57757306,-1.0351112,-0.00036945913,-0.0017189155,-0.00032371213
UncalAccel,1676594688671,31745493850100,-0.20578274,-1.3471591,9.169296,0.037048545,-0.031444572,0.0098014325
OrientationDeg,1676594688671,31745493850100,229.0,-1.0,3.0
UncalMag,1676594688672,31745494935987,-159.1246,757.87616,391.1442,-174.57417,771.0116,430.86337
UncalGyro,1676594688676,31745498092531,0.37965274,0.5936083,-0.99082345,-0.00036945913,-0.0017189155,-0.00032371213
UncalAccel,1676594688680,31745502327334,-0.23629123,-1.4811572,8.864211,0.037048545,-0.031444572,0.0098014325
OrientationDeg,1676594688680,31745502327334,229.0,-1.0,3.0
UncalMag,1676594688682,31745504946486,-159.1246,757.87616,391.1442,-174.57417,771.0116,430.86337
UncalGyro,1676594688684,31745506583101,0.4474588,0.58551437,-0.93111134,-0.00036945913,-0.0017189155,-0.00032371213
UncalAccel,1676594688688,31745510814161,-0.34456646,-1.4189439,8.562716,0.037048545,-0.031444572,0.0098014325
OrientationDeg,1676594688688,31745510814161,230.0,-1.0,2.0
UncalMag,1676594688692,31745514946486,-158.46579,758.474,390.1804,-174.57417,771.0116,430.86337
UncalGyro,1676594688693,31745515057783,0.52122074,0.5525276,-0.8741482,-0.00036945913,-0.0017189155,-0.00032371213
UncalAccel,1676594688697,31745519292819,-0.5204389,-1.2807583,8.3174515,0.037048545,-0.031444572,0.0098014325
OrientationDeg,1676594688697,31745519292819,230.0,0.0,2.0
UncalGyro,1676594688702,31745523536563,0.5914703,0.4978552,-0.82894415,-0.00036945913,-0.0017189155,-0.00032371213
UncalMag,1676594688702,31745524935825,-158.295,757.9128,391.742,-174.57417,771.0116,430.86337
UncalAccel,1676594688705,31745527775037,-0.67776704,-1.1377872,8.196015,0.037048545,-0.031444572,0.0098014325
OrientationDeg,1676594688705,31745527775037,230.0,0.0,2.0
UncalGyro,1676594688710,31745532017134,0.65148777,0.42852196,-0.8020661,-0.00036945913,-0.0017189155,-0.00032371213
UncalMag,1676594688712,31745534946201,-158.59999,758.047,390.5708,-174.57417,771.0116,430.86337
UncalAccel,1676594688714,31745536255008,-0.7728817,-1.0660025,8.023134,0.037048545,-0.031444572,0.0098014325
OrientationDeg,1676594688714,31745536255008,231.0,0.0,1.0
UncalGyro,1676594688718,31745540495771,0.6977608,0.33551773,-0.7874053,-0.00036945913,-0.0017189155,-0.00032371213
UncalAccel,1676594688722,31745544732599,-0.8249256,-1.0666007,7.9513497,0.037048545,-0.031444572,0.0098014325
OrientationDeg,1676594688722,31745544732599,231.0,0.0,1.0
UncalMag,1676594688722,31745544936070,-157.4532,757.9494,392.4496,-174.57417,771.0116,430.86337
UncalGyro,1676594688726,31745548977257,0.7333437,0.22159137,-0.7805331,-0.00036945913,-0.0017189155,-0.00032371213
UncalAccel,1676594688731,31745553216709,-0.7860422,-1.1282159,7.9423766,0.037048545,-0.031444572,0.0098014325
UncalMag,1676594688732,31745554936029,-157.3922,757.3028,391.32718,-174.57417,771.0116,430.86337
OrientationDeg,1676594688731,31745553216709,232.0,0.0,1.0
UncalGyro,1676594688735,31745557455549,0.75823647,0.09773844,-0.77304995,-0.00036945913,-0.0017189155,-0.00032371213
UncalAccel,1676594688739,31745561681635,-0.7190432,-1.2000005,7.9716887,0.037048545,-0.031444572,0.0098014325
OrientationDeg,1676594688739,31745561681635,232.0,0.0,0.0
UncalMag,1676594688742,31745564946406,-156.9652,757.3272,391.5712,-174.57417,771.0116,430.86337
UncalGyro,1676594688743,31745565937992,0.783282,-0.031612277,-0.7666359,-0.00036945913,-0.0017189155,-0.00032371213
UncalAccel,1676594688748,31745570177189,-0.62811595,-1.2137593,8.005786,0.037048545,-0.031444572,0.0098014325
OrientationDeg,1676594688748,31745570177189,232.0,0.0,0.0
UncalGyro,1676594688752,31745574422398,0.8127562,-0.16630806,-0.7609854,-0.00036945913,-0.0017189155,-0.00032371213
UncalMag,1676594688752,31745574941727,-157.0018,756.7416,392.4008,-174.57417,771.0116,430.86337
UncalAccel,1676594688756,31745578657597,-0.5377869,-1.2705889,8.111669,0.037048545,-0.031444572,0.0098014325
OrientationDeg,1676594688756,31745578657597,233.0,0.0,0.0
UncalGyro,1676594688760,31745582898879,0.84971356,-0.3023783,-0.75502944,-0.00036945913,-0.0017189155,-0.00032371213
UncalMag,1676594688762,31745584946365,-157.1116,756.70496,391.4248,-174.57417,771.0116,430.86337
UncalAccel,1676594688765,31745587138259,-0.41874397,-1.3998013,8.26122,0.037048545,-0.031444572,0.0098014325
OrientationDeg,1676594688765,31745587138259,233.0,0.0,0.0
UncalGyro,1676594688769,31745591380589,0.8950703,-0.42821655,-0.74372846,-0.00036945913,-0.0017189155,-0.00032371213
UncalMag,1676594688772,31745594946406,-156.7944,756.7294,392.02258,-174.57417,771.0116,430.86337
UncalAccel,1676594688773,31745595618840,-0.25184458,-1.5284154,8.425129,0.037048545,-0.031444572,0.0098014325
OrientationDeg,1676594688773,31745595618840,233.0,0.0,0.0
UncalGyro,1676594688777,31745599860041,0.9427178,-0.53023106,-0.72524977,-0.00036945913,-0.0017189155,-0.00032371213
UncalAccel,1676594688782,31745604094722,-0.03888337,-1.5463617,8.684152,0.037048545,-0.031444572,0.0098014325
UncalMag,1676594688782,31745604935909,-156.7944,756.7294,391.9006,-174.57417,771.0116,430.86337
OrientationDeg,1676594688782,31745604094722,234.0,-1.0,-1.0
UncalGyro,1676594688786,31745608334599,0.98440933,-0.60063326,-0.70921457,-0.00036945913,-0.0017189155,-0.00032371213
UncalAccel,1676594688790,31745612568547,0.20757736,-1.4733806,8.94796,0.037048545,-0.031444572,0.0098014325
OrientationDeg,1676594688790,31745612568547,234.0,-1.0,-1.0
UncalMag,1676594688792,31745614946326,-156.90419,756.71716,391.5346,-174.57417,771.0116,430.86337
UncalGyro,1676594688794,31745616821405,1.0105238,-0.6453791,-0.6937902,-0.00036945913,-0.0017189155,-0.00032371213
UncalAccel,1676594688799,31745621060970,0.34396824,-1.4063815,9.192028,0.037048545,-0.031444572,0.0098014325
OrientationDeg,1676594688799,31745621060970,234.0,-1.0,-2.0
UncalMag,1676594688802,31745624946529,-157.3678,755.9486,392.5838,-174.57417,771.0116,430.86337
UncalGyro,1676594688803,31745625302212,1.0067059,-0.6748534,-0.6797403,-0.00036945913,-0.0017189155,-0.00032371213
UncalAccel,1676594688807,31745629529842,0.45224348,-1.3818551,9.416953,0.037048545,-0.031444572,0.0098014325
OrientationDeg,1676594688807,31745629529842,235.0,-2.0,-2.0
UncalGyro,1676594688811,31745633781652,0.97295564,-0.70616025,-0.66859204,-0.00036945913,-0.0017189155,-0.00032371213
UncalMag,1676594688812,31745634935584,-157.7094,755.4972,392.2422,-174.57417,771.0116,430.86337
UncalAccel,1676594688816,31745638020798,0.62751776,-1.3477573,9.665807,0.037048545,-0.031444572,0.0098014325
OrientationDeg,1676594688816,31745638020798,235.0,-2.0,-3.0
UncalGyro,1676594688820,31745642264736,0.9265299,-0.744492,-0.67073005,-0.00036945913,-0.0017189155,-0.00032371213
UncalMag,1676594688822,31745644939857,-157.9412,755.1556,392.5228,-174.57417,771.0116,430.86337
UncalAccel,1676594688824,31745646499009,0.79740816,-1.308874,9.915258,0.037048545,-0.031444572,0.0098014325
OrientationDeg,1676594688824,31745646499009,235.0,-2.0,-3.0
UncalGyro,1676594688828,31745650732407,0.88239485,-0.7620544,-0.6759224,-0.00036945913,-0.0017189155,-0.00032371213
UncalMag,1676594688832,31745654946327,-158.14859,755.1434,392.27878,-174.57417,771.0116,430.86337
UncalAccel,1676594688832,31745654980261,0.96789676,-1.3220345,10.107283,0.037048545,-0.031444572,0.0098014325
OrientationDeg,1676594688832,31745654980261,236.0,-3.0,-3.0
UncalGyro,1676594688837,31745659216101,0.8542951,-0.73960507,-0.66905016,-0.00036945913,-0.0017189155,-0.00032371213
UncalAccel,1676594688841,31745663465095,1.1204392,-1.3214363,10.189237,0.037048545,-0.031444572,0.0098014325
UncalMag,1676594688842,31745664936073,-157.64839,754.70416,391.80298,-174.57417,771.0116,430.86337
OrientationDeg,1676594688841,31745663465095,236.0,-3.0,-4.0
UncalGyro,1676594688845,31745667704382,0.8371908,-0.68554354,-0.64751714,-0.00036945913,-0.0017189155,-0.00032371213
UncalAccel,1676594688849,31745671943549,1.2394822,-1.2634103,10.218549,0.037048545,-0.031444572,0.0098014325
OrientationDeg,1676594688849,31745671943549,236.0,-3.0,-4.0
UncalMag,1676594688852,31745674946612,-158.5024,754.4358,392.3642,-174.57417,771.0116,430.86337
UncalGyro,1676594688854,31745676180934,0.8239045,-0.6204864,-0.6232353,-0.00036945913,-0.0017189155,-0.00032371213
UncalAccel,1676594688858,31745680422991,1.3004991,-1.1431711,10.299307,0.037048545,-0.031444572,0.0098014325
OrientationDeg,1676594688858,31745680422991,236.0,-3.0,-5.0
UncalGyro,1676594688862,31745684664569,0.8009971,-0.539394,-0.59483004,-0.00036945913,-0.0017189155,-0.00032371213
UncalMag,1676594688862,31745684949501,-158.94159,754.16736,392.3154,-174.57417,771.0116,430.86337
UncalAccel,1676594688866,31745688902168,1.2951152,-1.0331012,10.336994,0.037048545,-0.031444572,0.0098014325
OrientationDeg,1676594688866,31745688902168,237.0,-4.0,-5.0
UncalGyro,1676594688871,31745693135536,0.7593055,-0.4436409,-0.5655085,-0.00036945913,-0.0017189155,-0.00032371213
UncalMag,1676594688873,31745694946409,-158.7098,754.5334,392.5106,-174.57417,771.0116,430.86337
UncalAccel,1676594688875,31745697384274,1.2143575,-0.9906286,10.245468,0.037048545,-0.031444572,0.0098014325
OrientationDeg,1676594688875,31745697384274,237.0,-4.0,-5.0
UncalGyro,1676594688879,31745701621641,0.7021896,-0.34254268,-0.5319109,-0.00036945913,-0.0017189155,-0.00032371213
UncalMag,1676594688882,31745704946735,-158.6732,753.3866,392.3642,-174.57417,771.0116,430.86337
UncalAccel,1676594688883,31745705852526,1.1150553,-0.9906286,10.020543,0.037048545,-0.031444572,0.0098014325
OrientationDeg,1676594688883,31745705852526,237.0,-4.0,-6.0
UncalGyro,1676594688888,31745710105893,0.6421721,-0.24770586,-0.48808134,-0.00036945913,-0.0017189155,-0.00032371213
UncalAccel,1676594688892,31745714344867,1.0600204,-0.98584294,9.710074,0.037048545,-0.031444572,0.0098014325
UncalMag,1676594688892,31745714943642,-158.25839,753.3134,392.5716,-174.57417,771.0116,430.86337
UncalGyro,1676594688896,31745718589882,0.5919284,-0.16233744,-0.43325618,-0.00036945913,-0.0017189155,-0.00032371213
OrientationDeg,1676594688892,31745714344867,237.0,-4.0,-6.0
UncalAccel,1676594688900,31745722824654,1.0336994,-0.93738824,9.413364,0.037048545,-0.031444572,0.0098014325
UncalMag,1676594688902,31745724935871,-159.1856,753.6672,393.1694,-174.57417,771.0116,430.86337
OrientationDeg,1676594688900,31745722824654,238.0,-4.0,-6.0
UncalGyro,1676594688905,31745727063973,0.5549711,-0.08323039,-0.3727805,-0.00036945913,-0.0017189155,-0.00032371213
UncalAccel,1676594688909,31745731305306,0.9631111,-0.85124665,9.193225,0.037048545,-0.031444572,0.0098014325
OrientationDeg,1676594688909,31745731305306,238.0,-4.0,-7.0
UncalMag,1676594688913,31745734941853,-158.1974,752.7156,392.91318,-174.57417,771.0116,430.86337
UncalGyro,1676594688913,31745735542559,0.52458054,-0.004886922,-0.30970868,-0.00036945913,-0.0017189155,-0.00032371213
UncalAccel,1676594688917,31745739776640,0.8781659,-0.779462,8.943773,0.037048545,-0.031444572,0.0098014325
UncalGyro,1676594688922,31745744027851,0.4914411,0.05177083,-0.24098633,-0.00036945913,-0.0017189155,-0.00032371213
UncalMag,1676594688922,31745744935790,-158.0998,752.6424,393.2548,-174.57417,771.0116,430.86337
UncalAccel,1676594688926,31745748267525,0.76989067,-0.6939186,8.685348,0.037048545,-0.031444572,0.0098014325
OrientationDeg,1676594688917,31745739776640,238.0,-4.0,-7.0
OrientationDeg,1676594688926,31745748267525,238.0,-4.0,-7.0
UncalGyro,1676594688930,31745752510812,0.4552473,0.06887506,-0.17516561,-0.00036945913,-0.0017189155,-0.00032371213
UncalMag,1676594688932,31745754946329,-157.7704,752.7156,392.6692,-174.57417,771.0116,430.86337
