# 
# Header Description:
# 
# Version: v3.0.5.6 Platform: 13 Manufacturer: Google Model: Pixel 7
# 
# Raw,utcTimeMillis,TimeNanos,LeapSecond,TimeUncertaintyNanos,FullBiasNanos,BiasNanos,BiasUncertaintyNanos,DriftNanosPerSecond,DriftUncertaintyNanosPerSecond,HardwareClockDiscontinuityCount,Svid,TimeOffsetNanos,State,ReceivedSvTimeNanos,ReceivedSvTimeUncertaintyNanos,Cn0DbHz,PseudorangeRateMetersPerSecond,PseudorangeRateUncertaintyMetersPerSecond,AccumulatedDeltaRangeState,AccumulatedDeltaRangeMeters,AccumulatedDeltaRangeUncertaintyMeters,CarrierFrequencyHz,CarrierCycles,CarrierPhase,CarrierPhaseUncertainty,MultipathIndicator,SnrInDb,ConstellationType,AgcDb,BasebandCn0DbHz,FullInterSignalBiasNanos,FullInterSignalBiasUncertaintyNanos,SatelliteInterSignalBiasNanos,SatelliteInterSignalBiasUncertaintyNanos,CodeType,ChipsetElapsedRealtimeNanos
# 
# UncalAccel,utcTimeMillis,elapsedRealtimeNanos,UncalAccelXMps2,UncalAccelYMps2,UncalAccelZMps2,BiasXMps2,BiasYMps2,BiasZMps2
# 
# Accel,utcTimeMillis,elapsedRealtimeNanos,AccelXMps2,AccelYMps2,AccelZMps2
# 
# UncalGyro,utcTimeMillis,elapsedRealtimeNanos,UncalGyroXRadPerSec,UncalGyroYRadPerSec,UncalGyroZRadPerSec,DriftXRadPerSec,DriftYRadPerSec,DriftZRadPerSec
# 
# Gyro,utcTimeMillis,elapsedRealtimeNanos,GyroXRadPerSec,GyroYRadPerSec,GyroZRadPerSec
# 
# UncalMag,utcTimeMillis,elapsedRealtimeNanos,UncalMagXMicroT,UncalMagYMicroT,UncalMagZMicroT,BiasXMicroT,BiasYMicroT,BiasZMicroT
# 
# Mag,utcTimeMillis,elapsedRealtimeNanos,MagXMicroT,MagYMicroT,MagZMicroT
# 
# OrientationDeg,utcTimeMillis,elapsedRealtimeNanos,yawDeg,rollDeg,pitchDeg
# 
# Fix,Provider,LatitudeDegrees,LongitudeDegrees,AltitudeMeters,SpeedMps,AccuracyMeters,BearingDegrees,UnixTimeMillis,SpeedAccuracyMps,BearingAccuracyDegrees,elapsedRealtimeNanos,VerticalAccuracyMeters
# 
# Nav,Svid,Type,Status,MessageId,Sub-messageId,Data(Bytes)
# 
# Status,UnixTimeMillis,SignalCount,SignalIndex,ConstellationType,Svid,CarrierFrequencyHz,Cn0DbHz,AzimuthDegrees,ElevationDegrees,UsedInFix,HasAlmanacData,HasEphemerisData,BasebandCn0DbHz
# 
UncalMag,1676592403528,29460350303763,-193.37,775.8346,390.6074,-174.57417,771.0116,430.86337
UncalMag,1676592403538,29460360303031,-193.37,775.7126,389.2532,-174.57417,771.0116,430.86337
UncalGyro,1676592403545,29460367512608,0.14553864,0.011301007,-0.05375614,0.0011935455,-0.0017162698,-0.00032191584
UncalMag,1676592403548,29460370303682,-193.44319,776.3348,389.7656,-174.57417,771.0116,430.86337
UncalAccel,1676592403549,29460371794181,-0.738784,1.2598212,10.286146,0.037048545,-0.031444572,0.0098014325
UncalGyro,1676592403554,29460376032307,0.17440203,0.013439035,-0.080634214,0.0011935455,-0.0017162698,-0.00032191584
UncalAccel,1676592403558,29460380274660,-0.7537391,1.2646067,10.367502,0.037048545,-0.031444572,0.0098014325
UncalMag,1676592403558,29460380303316,-192.76,775.371,389.15558,-174.57417,771.0116,430.86337
UncalGyro,1676592403562,29460384511629,0.19226983,0.006414085,-0.12812899,0.0011935455,-0.0017162698,-0.00032191584
UncalAccel,1676592403566,29460388753918,-0.77766734,1.244866,10.381859,0.037048545,-0.031444572,0.0098014325
UncalMag,1676592403568,29460390304334,-193.1016,775.0538,390.42438,-174.57417,771.0116,430.86337
UncalGyro,1676592403570,29460392992932,0.18891008,-0.0355829,-0.1881465,0.0011935455,-0.0017162698,-0.00032191584
UncalAccel,1676592403575,29460397230929,-0.7956135,1.2017952,10.305289,0.037048545,-0.031444572,0.0098014325
UncalMag,1676592403578,29460400305555,-192.577,775.0538,390.2902,-174.57417,771.0116,430.86337
UncalGyro,1676592403579,29460401474154,0.17623462,-0.11866058,-0.2574797,0.0011935455,-0.0017162698,-0.00032191584
UncalAccel,1676592403583,29460405713087,-0.80997044,1.16351,10.2723875,0.037048545,-0.031444572,0.0098014325
UncalGyro,1676592403587,29460409952812,0.16310102,-0.21731532,-0.32589662,0.0011935455,-0.0017162698,-0.00032191584
UncalMag,1676592403588,29460410303073,-192.7966,774.9684,390.26578,-174.57417,771.0116,430.86337
UncalAccel,1676592403592,29460414192202,-0.77647096,1.096511,10.315458,0.037048545,-0.031444572,0.0098014325
Fix,FLP,37.4307893000,-122.1551086000,-16.100000381469727,0.012107375,4.745,,1676592344754,,,29401576184576,2.617255
UncalGyro,1676592403596,29460418434787,0.1554652,-0.2959642,-0.38683042,0.0011935455,-0.0017162698,-0.00032191584
UncalMag,1676592403598,29460420303521,-193.004,774.9562,390.156,-174.57417,771.0116,430.86337
UncalAccel,1676592403600,29460422674776,-0.71425754,1.0109676,10.392627,0.037048545,-0.031444572,0.0098014325
UncalGyro,1676592403604,29460426916039,0.16203201,-0.34147367,-0.4334089,0.0011935455,-0.0017162698,-0.00032191584
UncalMag,1676592403608,29460430306410,-193.4554,774.4194,390.034,-174.57417,771.0116,430.86337
UncalAccel,1676592403609,29460431155114,-0.60000026,0.9200403,10.499107,0.037048545,-0.031444572,0.0098014325
OrientationDeg,1676592403609,29460431155114,67.0,4.0,-6.0
UncalGyro,1676592403613,29460435394566,0.19211712,-0.3622431,-0.462425,0.0011935455,-0.0017162698,-0.00032191584
UncalAccel,1676592403617,29460439633864,-0.40797627,0.74895346,10.563115,0.037048545,-0.031444572,0.0098014325
OrientationDeg,1676592403617,29460439633864,67.0,3.0,-6.0
OrientationDeg,1676592403626,29460448113784,68.0,3.0,-6.0
UncalMag,1676592403619,29460440305271,-193.7482,774.5902,389.8388,-174.57417,771.0116,430.86337
UncalGyro,1676592403621,29460443873895,0.2443461,-0.3930918,-0.4596761,0.0011935455,-0.0017162698,-0.00032191584
UncalAccel,1676592403626,29460448113784,-0.19621146,0.55393845,10.536795,0.037048545,-0.031444572,0.0098014325
UncalMag,1676592403628,29460450303359,-193.675,774.1632,390.095,-174.57417,771.0116,430.86337
UncalGyro,1676592403630,29460452354221,0.3126103,-0.45921794,-0.43279803,0.0011935455,-0.0017162698,-0.00032191584
UncalAccel,1676592403634,29460456595300,-0.0526421,0.63170516,10.470394,0.037048545,-0.031444572,0.0098014325
OrientationDeg,1676592403634,29460456595300,68.0,3.0,-7.0
UncalMag,1676592403638,29460460304457,-193.5896,773.8216,390.37558,-174.57417,771.0116,430.86337
UncalGyro,1676592403638,29460460836765,0.39400807,-0.5484043,-0.4184427,0.0011935455,-0.0017162698,-0.00032191584
UncalAccel,1676592403643,29460465074019,0.047258247,0.61734825,10.57149,0.037048545,-0.031444572,0.0098014325
OrientationDeg,1676592403643,29460465074019,68.0,3.0,-7.0
UncalGyro,1676592403647,29460469313785,0.48624873,-0.6236934,-0.4343252,0.0011935455,-0.0017162698,-0.00032191584
UncalMag,1676592403648,29460470303115,-194.1264,773.724,390.3634,-174.57417,771.0116,430.86337
UncalAccel,1676592403651,29460473548741,0.13878371,0.36430725,10.621141,0.037048545,-0.031444572,0.0098014325
OrientationDeg,1676592403651,29460473548741,68.0,2.0,-7.0
UncalGyro,1676592403655,29460477798009,0.5737552,-0.70325863,-0.47662762,0.0011935455,-0.0017162698,-0.00032191584
UncalMag,1676592403658,29460480305597,-194.3582,773.1994,390.37558,-174.57417,771.0116,430.86337
UncalAccel,1676592403660,29460482037979,0.2745764,0.20219351,10.512866,0.037048545,-0.031444572,0.0098014325
OrientationDeg,1676592403660,29460482037979,69.0,2.0,-7.0
UncalGyro,1676592403664,29460486280441,0.64644814,-0.8145888,-0.547488,0.0011935455,-0.0017162698,-0.00032191584
UncalMag,1676592403668,29460490303604,-194.6754,773.297,391.132,-174.57417,771.0116,430.86337
UncalAccel,1676592403668,29460490518447,0.48155555,0.02632105,10.491331,0.037048545,-0.031444572,0.0098014325
OrientationDeg,1676592403668,29460490518447,69.0,2.0,-8.0
UncalGyro,1676592403672,29460494760493,0.6963864,-0.93202764,-0.6418667,0.0011935455,-0.0017162698,-0.00032191584
UncalAccel,1676592403676,29460498996790,0.6729814,-0.058624156,10.535598,0.037048545,-0.031444572,0.0098014325
UncalMag,1676592403678,29460500306696,-195.00479,772.93097,390.5586,-174.57417,771.0116,430.86337
OrientationDeg,1676592403676,29460498996790,69.0,1.0,-8.0
UncalGyro,1676592403681,29460503236536,0.72143185,-1.042747,-0.76174897,0.0011935455,-0.0017162698,-0.00032191584
UncalAccel,1676592403685,29460507475886,0.88354975,-0.02871387,10.455439,0.037048545,-0.031444572,0.0098014325
OrientationDeg,1676592403685,29460507475886,70.0,1.0,-8.0
UncalMag,1676592403688,29460510305924,-195.4318,772.7846,391.8762,-174.57417,771.0116,430.86337
UncalGyro,1676592403689,29460511718776,0.7121162,-1.1621711,-0.9086621,0.0011935455,-0.0017162698,-0.00032191584
UncalAccel,1676592403693,29460515958624,1.1431711,-0.10827523,10.323833,0.037048545,-0.031444572,0.0098014325
OrientationDeg,1676592403693,29460515958624,70.0,0.0,-9.0
UncalGyro,1676592403698,29460520199366,0.66156703,-1.299463,-1.0783299,0.0011935455,-0.0017162698,-0.00032191584
UncalMag,1676592403698,29460520304215,-196.5298,771.85736,390.949,-174.57417,771.0116,430.86337
UncalAccel,1676592403702,29460524437424,1.4356936,-0.15373886,10.230514,0.037048545,-0.031444572,0.0098014325
OrientationDeg,1676592403702,29460524437424,71.0,0.0,-9.0
UncalGyro,1676592403706,29460528675389,0.56199604,-1.4431691,-1.2750285,0.0011935455,-0.0017162698,-0.00032191584
UncalMag,1676592403708,29460530305070,-196.9568,771.86957,391.5712,-174.57417,771.0116,430.86337
UncalAccel,1676592403710,29460532920476,1.7623138,-0.19501504,10.104292,0.037048545,-0.031444572,0.0098014325
OrientationDeg,1676592403710,29460532920476,71.0,0.0,-9.0
UncalGyro,1676592403715,29460537159898,0.41813725,-1.5951219,-1.5022703,0.0011935455,-0.0017162698,-0.00032191584
UncalMag,1676592403718,29460540306982,-197.7132,771.528,392.352,-174.57417,771.0116,430.86337
UncalAccel,1676592403719,29460541398556,2.2085752,-0.33080772,9.98824,0.037048545,-0.031444572,0.0098014325
OrientationDeg,1676592403719,29460541398556,72.0,-1.0,-9.0
UncalGyro,1676592403723,29460545636817,0.23060162,-1.7337883,-1.7275269,0.0011935455,-0.0017162698,-0.00032191584
UncalAccel,1676592403727,29460549877234,2.6482565,-0.42412782,10.130014,0.037048545,-0.031444572,0.0098014325
OrientationDeg,1676592403727,29460549877234,73.0,-1.0,-9.0
UncalMag,1676592403728,29460550303361,-198.189,770.4666,391.986,-174.57417,771.0116,430.86337
UncalGyro,1676592403732,29460554122229,0.018478673,-1.804954,-1.9324722,0.0011935455,-0.0017162698,-0.00032191584
UncalAccel,1676592403736,29460558358782,3.0000014,-0.29312077,10.336994,0.037048545,-0.031444572,0.0098014325
OrientationDeg,1676592403736,29460558358782,74.0,-2.0,-9.0
UncalMag,1676592403738,29460560303565,-198.189,770.4666,391.986,-174.57417,771.0116,430.86337
UncalGyro,1676592403740,29460562598059,-0.17531833,-1.8031214,-2.126269,0.0011935455,-0.0017162698,-0.00032191584
UncalAccel,1676592403744,29460566836698,3.2129626,0.00059820566,10.384252,0.037048545,-0.031444572,0.0098014325
OrientationDeg,1676592403744,29460566836698,75.0,-3.0,-9.0
UncalMag,1676592403748,29460570304094,-199.82379,769.52716,393.6208,-174.57417,771.0116,430.86337
UncalGyro,1676592403749,29460571080583,-0.31887165,-1.7449366,-2.3150265,0.0011935455,-0.0017162698,-0.00032191584
UncalAccel,1676592403753,29460575320472,3.205784,0.2542374,10.512268,0.037048545,-0.031444572,0.0098014325
OrientationDeg,1676592403753,29460575320472,77.0,-3.0,-9.0
UncalGyro,1676592403757,29460579562039,-0.39477167,-1.6340646,-2.493552,0.0011935455,-0.0017162698,-0.00032191584
UncalMag,1676592403758,29460580300432,-201.0072,769.0148,394.8652,-174.57417,771.0116,430.86337
UncalAccel,1676592403761,29460583798022,3.1190443,0.4019942,10.55833,0.037048545,-0.031444572,0.0098014325
OrientationDeg,1676592403761,29460583798022,78.0,-4.0,-9.0
UncalGyro,1676592403766,29460588042325,-0.3932445,-1.5057828,-2.6429086,0.0011935455,-0.0017162698,-0.00032191584
UncalMag,1676592403768,29460590302996,-201.4586,768.3926,394.60898,-174.57417,771.0116,430.86337
UncalAccel,1676592403770,29460592279670,2.9192436,0.5401797,10.255638,0.037048545,-0.031444572,0.0098014325
OrientationDeg,1676592403770,29460592279670,79.0,-4.0,-9.0
UncalGyro,1676592403774,29460596519966,-0.33185256,-1.4165965,-2.7661505,0.0011935455,-0.0017162698,-0.00032191584
UncalMag,1676592403778,29460600305193,-201.4586,768.3926,394.60898,-174.57417,771.0116,430.86337
UncalAccel,1676592403778,29460600760515,2.745764,0.5587241,9.834501,0.037048545,-0.031444572,0.0098014325
OrientationDeg,1676592403778,29460600760515,81.0,-5.0,-9.0
UncalGyro,1676592403782,29460604999520,-0.23640485,-1.3718506,-2.8550315,0.0011935455,-0.0017162698,-0.00032191584
UncalAccel,1676592403787,29460609241768,2.608775,0.5102694,9.633504,0.037048545,-0.031444572,0.0098014325
OrientationDeg,1676592403787,29460609241768,82.0,-5.0,-9.0
UncalMag,1676592403788,29460610303200,-202.1662,767.1726,395.30438,-174.57417,771.0116,430.86337
UncalGyro,1676592403791,29460613483243,-0.1386664,-1.3526083,-2.888629,0.0011935455,-0.0017162698,-0.00032191584
UncalAccel,1676592403795,29460617720417,2.3922246,0.61435723,9.70828,0.037048545,-0.031444572,0.0098014325
OrientationDeg,1676592403795,29460617720417,83.0,-6.0,-9.0
UncalMag,1676592403798,29460620303933,-202.5322,766.2088,395.0726,-174.57417,771.0116,430.86337
UncalGyro,1676592403799,29460621962970,-0.058184914,-1.3365731,-2.8655689,0.0011935455,-0.0017162698,-0.00032191584
UncalAccel,1676592403804,29460626201353,2.0602202,0.94277215,9.742377,0.037048545,-0.031444572,0.0098014325
OrientationDeg,1676592403804,29460626201353,85.0,-6.0,-9.0
UncalMag,1676592403808,29460630304502,-203.191,765.794,396.20718,-174.57417,771.0116,430.86337
UncalGyro,1676592403808,29460630440529,0.016187929,-1.3368785,-2.792265,0.0011935455,-0.0017162698,-0.00032191584
UncalAccel,1676592403812,29460634679787,1.7437695,1.3196417,9.5665045,0.037048545,-0.031444572,0.0098014325
OrientationDeg,1676592403812,29460634679787,86.0,-6.0,-10.0
UncalGyro,1676592403816,29460638920835,0.08384126,-1.3759739,-2.6661212,0.0011935455,-0.0017162698,-0.00032191584
UncalMag,1676592403818,29460640303201,-203.0568,764.5984,397.00018,-174.57417,771.0116,430.86337
UncalAccel,1676592403821,29460643160500,1.4763715,1.5290136,9.373284,0.037048545,-0.031444572,0.0098014325
OrientationDeg,1676592403821,29460643160500,87.0,-7.0,-10.0
UncalGyro,1676592403825,29460647400470,0.12293663,-1.4553864,-2.4868324,0.0011935455,-0.0017162698,-0.00032191584
UncalMag,1676592403828,29460650305480,-203.5326,763.5126,396.2682,-174.57417,771.0116,430.86337
UncalAccel,1676592403829,29460651639941,1.1994023,1.6809579,9.203394,0.037048545,-0.031444572,0.0098014325
UncalGyro,1676592403833,29460655882007,0.12308934,-1.5448782,-2.2692118,0.0011935455,-0.0017162698,-0.00032191584
OrientationDeg,1676592403829,29460651639941,89.0,-7.0,-10.0
UncalAccel,1676592403838,29460660122750,0.88354975,1.8945173,9.071191,0.037048545,-0.031444572,0.0098014325
UncalMag,1676592403838,29460660297057,-203.44719,763.3052,397.79318,-174.57417,771.0116,430.86337
OrientationDeg,1676592403838,29460660122750,90.0,-8.0,-10.0
UncalGyro,1676592403842,29460664360514,0.09010262,-1.6103935,-2.0320432,0.0011935455,-0.0017162698,-0.00032191584
UncalAccel,1676592403846,29460668593393,0.6203393,2.1278176,8.949157,0.037048545,-0.031444572,0.0098014325
OrientationDeg,1676592403847,29460668593393,90.0,-9.0,-10.0
UncalMag,1676592403848,29460670303120,-204.0206,762.622,398.7326,-174.57417,771.0116,430.86337
UncalGyro,1676592403850,29460672842233,0.026419923,-1.6504052,-1.7931949,0.0011935455,-0.0017162698,-0.00032191584
UncalAccel,1676592403855,29460677087015,0.4534399,2.2995026,8.7469635,0.037048545,-0.031444572,0.0098014325
OrientationDeg,1676592403855,29460677087015,91.0,-9.0,-10.0
UncalMag,1676592403858,29460680306253,-204.6794,762.073,398.2568,-174.57417,771.0116,430.86337
UncalGyro,1676592403859,29460681334126,-0.065973446,-1.6723963,-1.5622878,0.0011935455,-0.0017162698,-0.00032191584
UncalAccel,1676592403863,29460685564035,0.526421,2.4155545,8.556135,0.037048545,-0.031444572,0.0098014325
OrientationDeg,1676592403863,29460685564035,92.0,-10.0,-10.0
UncalGyro,1676592403867,29460689815825,-0.1788308,-1.6415477,-1.3460416,0.0011935455,-0.0017162698,-0.00032191584
UncalMag,1676592403868,29460690322123,-205.3138,761.829,399.184,-174.57417,771.0116,430.86337
Fix,NLP,37.4325785000,-122.1544540000,-16.5,,135.6,,1676592350508,,,29407330000000,33.282
UncalAccel,1676592403872,29460694052215,0.6538388,2.5310082,8.670393,0.037048545,-0.031444572,0.0098014325
OrientationDeg,1676592403872,29460694052215,93.0,-11.0,-10.0
UncalGyro,1676592403876,29460698295858,-0.31016684,-1.510517,-1.1439979,0.0011935455,-0.0017162698,-0.00032191584
UncalMag,1676592403878,29460700297017,-205.5578,761.3166,399.55,-174.57417,771.0116,430.86337
UncalAccel,1676592403880,29460702527262,0.71425754,2.6703901,8.770293,0.037048545,-0.031444572,0.0098014325
OrientationDeg,1676592403880,29460702527262,93.0,-11.0,-10.0
UncalGyro,1676592403884,29460706755595,-0.44700065,-1.2996159,-0.9596693,0.0011935455,-0.0017162698,-0.00032191584
UncalMag,1676592403888,29460710313660,-205.6554,761.524,400.9286,-174.57417,771.0116,430.86337
UncalAccel,1676592403889,29460711013356,0.6664011,2.7798617,8.73141,0.037048545,-0.031444572,0.0098014325
OrientationDeg,1676592403889,29460711013356,94.0,-12.0,-10.0
UncalGyro,1676592403893,29460715256074,-0.57787853,-1.0659598,-0.7893906,0.0011935455,-0.0017162698,-0.00032191584
UncalAccel,1676592403897,29460719506714,0.56111693,2.7888348,8.773883,0.037048545,-0.031444572,0.0098014325
OrientationDeg,1676592403897,29460719506714,94.0,-12.0,-10.0
UncalMag,1676592403898,29460720303040,-205.56999,761.2312,399.7696,-174.57417,771.0116,430.86337
Fix,FLP,37.4307897000,-122.1551086000,-16.5,0.012219016,297.752,,1676592350508,0.12436359,,29407330000000,4.6557255
UncalGyro,1676592403901,29460723733623,-0.70066243,-0.8553641,-0.6291912,0.0011935455,-0.0017162698,-0.00032191584
UncalAccel,1676592403905,29460727973024,0.50009996,2.6835506,8.687741,0.037048545,-0.031444572,0.0098014325
OrientationDeg,1676592403905,29460727973024,94.0,-12.0,-10.0
UncalMag,1676592403908,29460730304139,-205.9726,761.5118,400.8188,-174.57417,771.0116,430.86337
UncalGyro,1676592403910,29460732211090,-0.81138176,-0.729984,-0.48258355,0.0011935455,-0.0017162698,-0.00032191584
UncalAccel,1676592403914,29460736450369,0.424726,2.5202405,8.592627,0.037048545,-0.031444572,0.0098014325
OrientationDeg,1676592403914,29460736450369,95.0,-13.0,-9.0
UncalMag,1676592403918,29460740313823,-205.32599,761.69476,400.4772,-174.57417,771.0116,430.86337
UncalGyro,1676592403918,29460740692098,-0.9089675,-0.68768156,-0.37293324,0.0011935455,-0.0017162698,-0.00032191584
UncalAccel,1676592403922,29460744921215,0.37627137,2.400001,8.76491,0.037048545,-0.031444572,0.0098014325
OrientationDeg,1676592403922,29460744921215,95.0,-13.0,-9.0
UncalGyro,1676592403927,29460749163259,-0.9935723,-0.6774496,-0.31948254,0.0011935455,-0.0017162698,-0.00032191584
UncalMag,1676592403928,29460750296734,-206.25319,762.0364,401.07498,-174.57417,771.0116,430.86337
UncalAccel,1676592403932,29460753414358,0.3912265,2.2707887,8.779864,0.037048545,-0.031444572,0.0098014325
OrientationDeg,1676592403931,29460753414358,95.0,-13.0,-8.0
UncalGyro,1676592403935,29460757658601,-1.0641272,-0.71944654,-0.32635477,0.0011935455,-0.0017162698,-0.00032191584
UncalMag,1676592403938,29460760313580,-206.36299,761.8534,400.91638,-174.57417,771.0116,430.86337
UncalAccel,1676592403939,29460761897187,0.39780676,2.2085752,8.584849,0.037048545,-0.031444572,0.0098014325
OrientationDeg,1676592403939,29460761897187,96.0,-14.0,-8.0
UncalGyro,1676592403944,29460766135632,-1.1397219,-0.82650065,-0.38148534,0.0011935455,-0.0017162698,-0.00032191584
Fix,FLP,37.4307959000,-122.1550960000,-16.5,0.17478941,11.547,183.12401,1676592403855,,,29460677238535,4.6557255
UncalMag,1676592403948,29460770318015,-206.6314,762.622,400.37958,-174.57417,771.0116,430.86337
UncalAccel,1676592403948,29460770371797,0.48095736,2.0321047,8.500503,0.037048545,-0.031444572,0.0098014325
OrientationDeg,1676592403948,29460770371797,96.0,-14.0,-7.0
UncalGyro,1676592403952,29460774605307,-1.2444853,-0.982424,-0.4636467,0.0011935455,-0.0017162698,-0.00032191584
UncalAccel,1676592403956,29460778855795,0.49830532,1.8311075,8.262417,0.037048545,-0.031444572,0.0098014325
OrientationDeg,1676592403956,29460778855795,96.0,-14.0,-7.0
UncalMag,1676592403958,29460780312644,-207.29019,762.1828,400.526,-174.57417,771.0116,430.86337
UncalGyro,1676592403961,29460783095766,-1.365742,-1.1670581,-0.55878896,0.0011935455,-0.0017162698,-0.00032191584
UncalAccel,1676592403965,29460787337843,0.4989035,1.7066808,8.239685,0.037048545,-0.031444572,0.0098014325
OrientationDeg,1676592403965,29460787337843,97.0,-15.0,-6.0
UncalMag,1676592403969,29460790310366,-207.6684,762.805,401.4166,-174.57417,771.0116,430.86337
UncalGyro,1676592403969,29460791572064,-1.4729488,-1.2208142,-0.6395759,0.0011935455,-0.0017162698,-0.00032191584
UncalAccel,1676592403973,29460795800519,1.0408778,1.1754742,12.851253,0.037048545,-0.031444572,0.0098014325
OrientationDeg,1676592403973,29460795800519,97.0,-15.0,-6.0
UncalMag,1676592403978,29460800309959,-207.65619,763.0856,401.8436,-174.57417,771.0116,430.86337
UncalGyro,1676592403978,29460800056622,-1.2205088,-0.62598413,-0.66966105,0.0011935455,-0.0017162698,-0.00032191584
UncalAccel,1676592403982,29460804296816,1.146162,1.7521443,9.255438,0.037048545,-0.031444572,0.0098014325
OrientationDeg,1676592403982,29460804296816,98.0,-16.0,-5.0
UncalGyro,1676592403986,29460808537009,-0.95905846,-0.57971114,-0.690125,0.0011935455,-0.0017162698,-0.00032191584
UncalMag,1676592403988,29460810303449,-207.9612,763.1588,401.86798,-174.57417,771.0116,430.86337
UncalAccel,1676592403990,29460812769248,0.62871414,1.7210377,8.7367935,0.037048545,-0.031444572,0.0098014325
OrientationDeg,1676592403990,29460812769248,98.0,-16.0,-5.0
UncalGyro,1676592403995,29460817019290,-0.9755518,-0.6052147,-0.66538495,0.0011935455,-0.0017162698,-0.00032191584
UncalMag,1676592403998,29460820313581,-207.65619,763.11,402.81958,-174.57417,771.0116,430.86337
UncalAccel,1676592403999,29460821263135,0.032303106,1.5607185,8.041678,0.037048545,-0.031444572,0.0098014325
OrientationDeg,1676592403999,29460821263135,99.0,-16.0,-5.0
UncalGyro,1676592404003,29460825500838,-1.0888673,-0.50625455,-0.61422503,0.0011935455,-0.0017162698,-0.00032191584
UncalAccel,1676592404007,29460829736382,0.2213361,0.37627137,12.387045,0.037048545,-0.031444572,0.0098014325
OrientationDeg,1676592404007,29460829736382,99.0,-16.0,-4.0
UncalMag,1676592404008,29460830325829,-208.24179,763.69556,402.3682,-174.57417,771.0116,430.86337
UncalGyro,1676592404011,29460833977634,-0.784351,0.25335637,-0.38896844,0.0011935455,-0.0017162698,-0.00032191584
UncalAccel,1676592404016,29460838217868,-0.14656039,0.10767702,11.250454,0.037048545,-0.031444572,0.0098014325
OrientationDeg,1676592404016,29460838217868,99.0,-16.0,-4.0
UncalMag,1676592404018,29460840303206,-208.24179,763.781,402.1486,-174.57417,771.0116,430.86337
UncalGyro,1676592404020,29460842462975,-0.36163223,0.5459608,-0.14676037,0.0011935455,-0.0017162698,-0.00032191584
UncalAccel,1676592404024,29460846693791,0.36191443,2.6608188,7.3603225,0.037048545,-0.031444572,0.0098014325
OrientationDeg,1676592404024,29460846693791,99.0,-16.0,-4.0
UncalMag,1676592404028,29460850313907,-208.24179,763.7444,401.1726,-174.57417,771.0116,430.86337
UncalGyro,1676592404028,29460850920546,-0.3669773,0.47616947,-0.14905111,0.0011935455,-0.0017162698,-0.00032191584
UncalAccel,1676592404033,29460855175958,0.32662028,1.4638093,9.671191,0.037048545,-0.031444572,0.0098014325
OrientationDeg,1676592404033,29460855175958,99.0,-15.0,-4.0
UncalGyro,1676592404037,29460859417108,-0.48762318,0.66248333,-0.13255776,0.0011935455,-0.0017162698,-0.00032191584
UncalMag,1676592404038,29460860303613,-208.0344,763.5736,401.2458,-174.57417,771.0116,430.86337
UncalAccel,1676592404041,29460863658004,0.17706887,1.0486546,8.226524,0.037048545,-0.031444572,0.0098014325
OrientationDeg,1676592404041,29460863658004,100.0,-15.0,-3.0
UncalGyro,1676592404045,29460867892908,-0.6808093,0.68218374,-0.12904528,0.0011935455,-0.0017162698,-0.00032191584
UncalMag,1676592404049,29460870313786,-207.7172,763.7444,400.7944,-174.57417,771.0116,430.86337
UncalAccel,1676592404050,29460872127506,0.29252258,0.8356933,6.9966135,0.037048545,-0.031444572,0.0098014325
OrientationDeg,1676592404050,29460872127506,100.0,-15.0,-3.0
UncalGyro,1676592404054,29460876379857,-1.0454959,0.55680364,-0.14996742,0.0011935455,-0.0017162698,-0.00032191584
UncalMag,1676592404058,29460880303166,-207.461,764.5252,400.6114,-174.57417,771.0116,430.86337
UncalAccel,1676592404058,29460880617374,0.6586244,0.44925246,7.626524,0.037048545,-0.031444572,0.0098014325
OrientationDeg,1676592404058,29460880617374,100.0,-14.0,-2.0
UncalGyro,1676592404062,29460884851201,-1.5436565,0.4908302,-0.15653422,0.0011935455,-0.0017162698,-0.00032191584
UncalAccel,1676592404067,29460889098719,0.6837491,-0.016749758,8.406584,0.037048545,-0.031444572,0.0098014325
UncalMag,1676592404068,29460890303370,-207.034,764.6228,400.6236,-174.57417,771.0116,430.86337
OrientationDeg,1676592404067,29460889098719,100.0,-14.0,-2.0
UncalGyro,1676592404071,29460893340154,-2.126422,0.52946746,-0.0022907446,0.0011935455,-0.0017162698,-0.00032191584
UncalAccel,1676592404075,29460897581161,0.6095716,0.7800602,10.039685,0.037048545,-0.031444572,0.0098014325
OrientationDeg,1676592404075,29460897581161,100.0,-14.0,0.0
UncalMag,1676592404078,29460900313787,-206.88759,765.245,400.892,-174.57417,771.0116,430.86337
UncalGyro,1676592404079,29460901820409,-2.6497808,0.66675943,0.09819659,0.0011935455,-0.0017162698,-0.00032191584
UncalAccel,1676592404084,29460906061884,2.5758736,1.7012969,10.619946,0.037048545,-0.031444572,0.0098014325
OrientationDeg,1676592404084,29460906061884,101.0,-13.0,0.0
UncalGyro,1676592404088,29460910300420,-2.8961122,0.63499445,-0.08155051,0.0011935455,-0.0017162698,-0.00032191584
UncalMag,1676592404088,29460910312485,-206.912,766.526,399.9892,-174.57417,771.0116,430.86337
UncalAccel,1676592404092,29460914540278,1.3920245,1.9657038,8.825927,0.037048545,-0.031444572,0.0098014325
OrientationDeg,1676592404092,29460914540278,101.0,-13.0,1.0
UncalGyro,1676592404096,29460918778956,-2.950479,0.37858373,-0.35643986,0.0011935455,-0.0017162698,-0.00032191584
UncalMag,1676592404098,29460920310369,-206.57039,767.1482,400.12338,-174.57417,771.0116,430.86337
UncalAccel,1676592404101,29460923015935,1.21017,2.0111675,9.512068,0.037048545,-0.031444572,0.0098014325
OrientationDeg,1676592404101,29460923015935,102.0,-13.0,3.0
UncalGyro,1676592404105,29460927257351,-2.9232957,0.19272798,-0.6178902,0.0011935455,-0.0017162698,-0.00032191584
UncalMag,1676592404108,29460930313543,-206.851,767.5386,398.8912,-174.57417,771.0116,430.86337
UncalAccel,1676592404109,29460931499476,1.1617154,1.6558332,9.8428755,0.037048545,-0.031444572,0.0098014325
OrientationDeg,1676592404109,29460931499476,103.0,-13.0,4.0
UncalGyro,1676592404113,29460935738969,-2.809064,0.08628472,-0.96852684,0.0011935455,-0.0017162698,-0.00032191584
UncalAccel,1676592404117,29460939970657,0.60598236,0.90029955,9.833304,0.037048545,-0.031444572,0.0098014325
OrientationDeg,1676592404117,29460939970657,103.0,-13.0,5.0
UncalMag,1676592404118,29460940303045,-206.07019,768.4414,399.4524,-174.57417,771.0116,430.86337
UncalGyro,1676592404122,29460944223293,-2.6908615,0.049632803,-1.4124732,0.0011935455,-0.0017162698,-0.00032191584
UncalAccel,1676592404126,29460948467626,0.95473623,-0.050847482,9.926624,0.037048545,-0.031444572,0.0098014325
UncalMag,1676592404128,29460950303452,-206.6436,769.1612,397.4638,-174.57417,771.0116,430.86337
OrientationDeg,1676592404126,29460948467626,104.0,-13.0,6.0
UncalGyro,1676592404130,29460952703883,-2.6207647,-0.015882496,-1.791515,0.0011935455,-0.0017162698,-0.00032191584
UncalAccel,1676592404134,29460956937883,4.134199,-0.2943172,9.561121,0.037048545,-0.031444572,0.0098014325
OrientationDeg,1676592404134,29460956937883,106.0,-13.0,7.0
UncalMag,1676592404138,29460960313788,-206.0092,769.2832,398.4398,-174.57417,771.0116,430.86337
UncalGyro,1676592404139,29460961170091,-2.387414,0.03313944,-1.7435621,0.0011935455,-0.0017162698,-0.00032191584
UncalAccel,1676592404143,29460965420977,6.7585278,-0.32422748,8.518449,0.037048545,-0.031444572,0.0098014325
OrientationDeg,1676592404143,29460965420977,107.0,-13.0,8.0
UncalGyro,1676592404147,29460969659532,-1.7767016,0.08582657,-1.43141,0.0011935455,-0.0017162698,-0.00032191584
UncalMag,1676592404148,29460970302924,-205.77739,769.6492,398.8912,-174.57417,771.0116,430.86337
UncalAccel,1676592404151,29460973894060,6.1477594,-1.7928224,8.063812,0.037048545,-0.031444572,0.0098014325
OrientationDeg,1676592404151,29460973894060,107.0,-14.0,8.0
UncalGyro,1676592404156,29460978142616,-1.0111347,-0.060170226,-1.321607,0.0011935455,-0.0017162698,-0.00032191584
UncalMag,1676592404158,29460980311510,-206.607,769.8932,398.8424,-174.57417,771.0116,430.86337
UncalAccel,1676592404160,29460982382493,5.9210396,-2.067997,8.560323,0.037048545,-0.031444572,0.0098014325
OrientationDeg,1676592404160,29460982382493,108.0,-14.0,8.0
UncalGyro,1676592404164,29460986624956,-0.37308595,-0.19700404,-1.3381003,0.0011935455,-0.0017162698,-0.00032191584
UncalMag,1676592404168,29460990310005,-206.0336,769.0392,398.9888,-174.57417,771.0116,430.86337
UncalAccel,1676592404168,29460990860806,5.683552,-1.3938192,8.512466,0.037048545,-0.031444572,0.0098014325
OrientationDeg,1676592404168,29460990860806,109.0,-14.0,8.0
UncalGyro,1676592404173,29460995099291,0.18646662,-0.2510656,-1.4164438,0.0011935455,-0.0017162698,-0.00032191584
UncalAccel,1676592404177,29460999342139,5.2977095,-0.6442675,8.429914,0.037048545,-0.031444572,0.0098014325
UncalMag,1676592404178,29461000303535,-206.04579,768.8562,398.8302,-174.57417,771.0116,430.86337
OrientationDeg,1676592404177,29460999342139,109.0,-14.0,8.0
UncalGyro,1676592404181,29461003582995,0.71883565,-0.09208794,-1.4828753,0.0011935455,-0.0017162698,-0.00032191584
UncalAccel,1676592404185,29461007823057,7.41117,-2.1110678,13.972888,0.037048545,-0.031444572,0.0098014325
OrientationDeg,1676592404185,29461007823057,110.0,-14.0,7.0
UncalMag,1676592404188,29461010313789,-206.07019,768.3438,398.818,-174.57417,771.0116,430.86337
UncalGyro,1676592404190,29461012064603,1.003957,0.24465153,-1.3545936,0.0011935455,-0.0017162698,-0.00032191584
UncalAccel,1676592404194,29461016308500,6.3248286,-1.2891332,8.3581295,0.037048545,-0.031444572,0.0098014325
OrientationDeg,1676592404194,29461016308500,111.0,-14.0,7.0
UncalMag,1676592404198,29461020314074,-206.20439,767.9168,399.5744,-174.57417,771.0116,430.86337
UncalGyro,1676592404198,29461020542641,1.1945469,0.14110987,-1.2426527,0.0011935455,-0.0017162698,-0.00032191584
UncalAccel,1676592404202,29461024776171,6.378667,-1.1096715,10.033105,0.037048545,-0.031444572,0.0098014325
OrientationDeg,1676592404202,29461024776171,111.0,-14.0,6.0
UncalGyro,1676592404207,29461029010770,1.259146,0.03573562,-1.146594,0.0011935455,-0.0017162698,-0.00032191584
UncalMag,1676592404208,29461030313546,-206.058,766.76996,398.8058,-174.57417,771.0116,430.86337
UncalAccel,1676592404211,29461033262907,5.615955,-0.13519448,9.016156,0.037048545,-0.031444572,0.0098014325
OrientationDeg,1676592404212,29461033262907,111.0,-14.0,5.0
UncalGyro,1676592404216,29461037503172,1.3029755,-0.122478485,-1.0500773,0.0011935455,-0.0017162698,-0.00032191584
UncalMag,1676592404218,29461040313831,-206.1068,766.0624,398.6472,-174.57417,771.0116,430.86337
UncalAccel,1676592404219,29461041738697,4.514658,0.6239285,9.258429,0.037048545,-0.031444572,0.0098014325
OrientationDeg,1676592404219,29461041738697,112.0,-14.0,4.0
UncalGyro,1676592404223,29461045983631,1.3610078,-0.23273966,-1.0195341,0.0011935455,-0.0017162698,-0.00032191584
UncalAccel,1676592404228,29461050219064,3.4923246,1.1826526,9.315857,0.037048545,-0.031444572,0.0098014325
UncalMag,1676592404228,29461050308867,-206.41179,764.45197,400.1966,-174.57417,771.0116,430.86337
OrientationDeg,1676592404228,29461050219064,112.0,-15.0,4.0
UncalGyro,1676592404232,29461054463754,1.4353806,-0.32589662,-1.0506883,0.0011935455,-0.0017162698,-0.00032191584
UncalAccel,1676592404236,29461058703286,2.5914268,1.2197413,9.510274,0.037048545,-0.031444572,0.0098014325
UncalMag,1676592404238,29461060313709,-206.41179,764.45197,400.1966,-174.57417,771.0116,430.86337
UncalGyro,1676592404240,29461062942686,1.5201381,-0.41905355,-1.1007792,0.0011935455,-0.0017162698,-0.00032191584
OrientationDeg,1676592404236,29461058703286,112.0,-15.0,3.0
UncalAccel,1676592404245,29461067184590,2.2097716,0.9056834,9.657433,0.037048545,-0.031444572,0.0098014325
OrientationDeg,1676592404245,29461067184590,113.0,-15.0,2.0
UncalMag,1676592404248,29461070304310,-205.75299,763.4028,399.69638,-174.57417,771.0116,430.86337
UncalGyro,1676592404249,29461071422351,1.5749633,-0.52122074,-1.1249083,0.0011935455,-0.0017162698,-0.00032191584
UncalAccel,1676592404253,29461075654988,2.2157538,0.41694933,9.779466,0.037048545,-0.031444572,0.0098014325
OrientationDeg,1676592404253,29461075654988,113.0,-15.0,1.0
UncalGyro,1676592404257,29461079903451,1.600467,-0.63621616,-1.0897835,0.0011935455,-0.0017162698,-0.00032191584
UncalMag,1676592404258,29461080306548,-206.68019,761.8534,400.7944,-174.57417,771.0116,430.86337
UncalAccel,1676592404262,29461084135620,2.2528424,-0.3589234,9.859626,0.037048545,-0.031444572,0.0098014325
OrientationDeg,1676592404262,29461084135620,113.0,-16.0,0.0
UncalGyro,1676592404266,29461088388550,1.6288722,-0.78786343,-0.97203934,0.0011935455,-0.0017162698,-0.00032191584
UncalMag,1676592404268,29461090323557,-206.4362,760.7066,400.5138,-174.57417,771.0116,430.86337
UncalAccel,1676592404270,29461092623921,2.1595225,-1.1503495,10.140184,0.037048545,-0.031444572,0.0098014325
OrientationDeg,1676592404270,29461092623921,113.0,-16.0,0.0
UncalGyro,1676592404274,29461096864014,1.7030923,-0.9401216,-0.77396625,0.0011935455,-0.0017162698,-0.00032191584
UncalMag,1676592404278,29461100313588,-206.4362,760.7066,400.5138,-174.57417,771.0116,430.86337
UncalAccel,1676592404279,29461101102660,2.1337996,-1.3334004,10.451251,0.037048545,-0.031444572,0.0098014325
OrientationDeg,1676592404279,29461101102660,113.0,-17.0,-1.0
UncalGyro,1676592404283,29461105333455,1.8553505,-1.0425943,-0.56673026,0.0011935455,-0.0017162698,-0.00032191584
UncalAccel,1676592404287,29461109575550,2.027319,-1.0570294,11.06501,0.037048545,-0.031444572,0.0098014325
UncalMag,1676592404288,29461110306752,-205.9848,759.6452,402.55118,-174.57417,771.0116,430.86337
OrientationDeg,1676592404287,29461109575550,113.0,-17.0,-2.0
UncalGyro,1676592404291,29461113823557,2.067168,-1.0044152,-0.39522982,0.0011935455,-0.0017162698,-0.00032191584
UncalAccel,1676592404296,29461118069408,1.8933209,-0.5694918,11.386247,0.037048545,-0.031444572,0.0098014325
OrientationDeg,1676592404296,29461118069408,113.0,-18.0,-3.0
UncalMag,1676592404298,29461120313914,-207.4122,758.5838,402.9416,-174.57417,771.0116,430.86337
UncalGyro,1676592404300,29461122309316,2.329382,-0.9077458,-0.29794952,0.0011935455,-0.0017162698,-0.00032191584
UncalAccel,1676592404304,29461126547007,1.8257236,0.30149564,11.476576,0.037048545,-0.031444572,0.0098014325
OrientationDeg,1676592404304,29461126547007,113.0,-18.0,-4.0
UncalMag,1676592404308,29461130313955,-207.65619,757.98596,403.5272,-174.57417,771.0116,430.86337
UncalGyro,1676592404308,29461130784332,2.612976,-0.7771733,-0.2782491,0.0011935455,-0.0017162698,-0.00032191584
UncalAccel,1676592404313,29461135018708,1.7377875,1.1485549,11.81516,0.037048545,-0.031444572,0.0098014325
OrientationDeg,1676592404314,29461135018708,113.0,-18.0,-5.0
UncalGyro,1676592404317,29461139279093,2.8561006,-0.54137933,-0.3031419,0.0011935455,-0.0017162698,-0.00032191584
UncalMag,1676592404318,29461140322297,-207.60739,756.949,403.759,-174.57417,771.0116,430.86337
UncalAccel,1676592404321,29461143506816,1.5810575,1.6163517,11.979069,0.037048545,-0.031444572,0.0098014325
OrientationDeg,1676592404321,29461143506816,112.0,-19.0,-7.0
UncalGyro,1676592404325,29461147748139,3.0396655,-0.28771752,-0.34437528,0.0011935455,-0.0017162698,-0.00032191584
UncalMag,1676592404328,29461150313589,-207.33899,756.3146,405.41818,-174.57417,771.0116,430.86337
UncalAccel,1676592404329,29461151974661,1.3094722,1.8215362,11.666206,0.037048545,-0.031444572,0.0098014325
OrientationDeg,1676592404329,29461151974661,112.0,-19.0,-8.0
UncalGyro,1676592404334,29461156227856,3.1729867,-0.12858713,-0.37522396,0.0011935455,-0.0017162698,-0.00032191584
UncalMag,1676592404338,29461160313834,-207.2292,754.8262,405.0644,-174.57417,771.0116,430.86337
UncalAccel,1676592404338,29461160467459,1.0133604,1.9393828,11.515459,0.037048545,-0.031444572,0.0098014325
OrientationDeg,1676592404338,29461160467459,112.0,-19.0,-10.0
UncalGyro,1676592404342,29461164711519,3.2517884,-0.023060163,-0.39492437,0.0011864104,-0.0017176139,-0.00032155606
UncalAccel,1676592404346,29461168947603,0.76630145,1.9046868,11.380862,0.037048545,-0.031444572,0.0098014325
UncalMag,1676592404349,29461170312288,-207.6928,754.06976,406.3454,-174.57417,771.0116,430.86337
OrientationDeg,1676592404346,29461168947603,111.0,-19.0,-11.0
UncalGyro,1676592404351,29461173186057,3.261104,0.044745877,-0.4005749,0.0011825555,-0.0017183401,-0.00032136164
UncalAccel,1676592404355,29461177416974,0.5808577,1.5547365,10.84188,0.037048545,-0.031444572,0.0098014325
OrientationDeg,1676592404355,29461177416974,111.0,-19.0,-13.0
UncalMag,1676592404358,29461180303133,-207.6684,752.7522,406.2722,-174.57417,771.0116,430.86337
UncalGyro,1676592404359,29461181664186,3.2032247,0.04505131,-0.3575089,0.0011819722,-0.00171845,-0.00032133222
UncalAccel,1676592404363,29461185895581,0.40378883,1.1324034,10.479965,0.037048545,-0.031444572,0.0098014325
OrientationDeg,1676592404363,29461185895581,110.0,-19.0,-14.0
UncalGyro,1676592404368,29461190138145,3.0834951,-0.010995574,-0.22800545,0.001181884,-0.0017184666,-0.00032132777
UncalMag,1676592404368,29461190303743,-207.7172,751.9836,406.809,-174.57417,771.0116,430.86337
UncalAccel,1676592404372,29461194378298,0.38644084,0.82672024,9.813564,0.037048545,-0.031444572,0.0098014325
OrientationDeg,1676592404372,29461194378298,110.0,-19.0,-16.0
UncalGyro,1676592404376,29461198629182,2.9208522,-0.16157386,-0.013744468,0.0011818706,-0.0017184692,-0.00032132713
UncalMag,1676592404378,29461200313591,-207.2292,751.41016,407.3946,-174.57417,771.0116,430.86337
UncalAccel,1676592404380,29461202860639,0.49950173,0.78065836,9.427721,0.037048545,-0.031444572,0.0098014325
OrientationDeg,1676592404380,29461202860639,110.0,-19.0,-17.0
UncalGyro,1676592404385,29461207109835,2.7462974,-0.3268129,0.23976462,0.0011818685,-0.0017184695,-0.000321327
UncalMag,1676592404388,29461210313591,-207.49759,750.483,408.74878,-174.57417,771.0116,430.86337
UncalAccel,1676592404389,29461211338869,1.0666007,1.1563315,10.059426,0.037048545,-0.031444572,0.0098014325
OrientationDeg,1676592404389,29461211338869,109.0,-20.0,-18.0
UncalGyro,1676592404393,29461215592837,2.601675,-0.33078352,0.4541783,0.0011818681,-0.0017184695,-0.000321327
UncalAccel,1676592404397,29461219830843,1.2143575,1.7880367,11.01177,0.037048545,-0.031444572,0.0098014325
OrientationDeg,1676592404397,29461219830843,108.0,-20.0,-19.0
UncalMag,1676592404398,29461220305697,-207.705,750.3854,408.49258,-174.57417,771.0116,430.86337
UncalGyro,1676592404402,29461224070895,2.4741569,-0.18585575,0.6388123,0.0011818681,-0.0017184695,-0.000321327
UncalAccel,1676592404406,29461228302789,1.2029916,2.3204398,10.837093,0.037048545,-0.031444572,0.0098014325
OrientationDeg,1676592404406,29461228302789,107.0,-20.0,-20.0
UncalMag,1676592404408,29461230313713,-207.5464,749.62897,409.5174,-174.57417,771.0116,430.86337
UncalGyro,1676592404410,29461232550764,2.300824,-0.07941248,0.79061234,0.0011818681,-0.0017184695,-0.000321327
UncalAccel,1676592404414,29461236789462,1.2095718,2.818147,10.872986,0.037048545,-0.031444572,0.0098014325
OrientationDeg,1676592404414,29461236789462,107.0,-21.0,-21.0
UncalMag,1676592404419,29461240306796,-207.94899,749.8852,409.4686,-174.57417,771.0116,430.86337
UncalGyro,1676592404419,29461241029625,2.1175644,-0.010995574,0.84559023,0.0011818681,-0.0017184695,-0.000321327
UncalAccel,1676592404423,29461245257999,1.16351,3.7226338,11.312069,0.037048545,-0.031444572,0.0098014325
OrientationDeg,1676592404423,29461245257999,106.0,-21.0,-22.0
UncalGyro,1676592404427,29461249506910,1.9588921,0.10262536,0.79458296,0.0011818681,-0.0017184695,-0.000321327
UncalMag,1676592404428,29461250303053,-208.5224,749.1288,410.87158,-174.57417,771.0116,430.86337
UncalAccel,1676592404431,29461253751295,1.2005987,4.6378884,11.422139,0.037048545,-0.031444572,0.0098014325
OrientationDeg,1676592404431,29461253751295,105.0,-21.0,-22.0
UncalGyro,1676592404435,29461257994002,1.8150333,0.25870144,0.6424775,0.0011818681,-0.0017184695,-0.000321327
UncalMag,1676592404438,29461260313592,-208.62,749.31177,411.1644,-174.57417,771.0116,430.86337
UncalAccel,1676592404440,29461262228102,1.3453646,5.3904314,11.376077,0.037048545,-0.031444572,0.0098014325
OrientationDeg,1676592404440,29461262228102,104.0,-21.0,-23.0
UncalGyro,1676592404444,29461266457493,1.6804903,0.4335616,0.4008803,0.0011818681,-0.0017184695,-0.000321327
UncalMag,1676592404448,29461270313836,-208.3272,748.8482,410.07858,-174.57417,771.0116,430.86337
UncalAccel,1676592404448,29461270707951,1.4685949,5.875576,11.22174,0.037048545,-0.031444572,0.0098014325
OrientationDeg,1676592404448,29461270707951,104.0,-21.0,-24.0
UncalGyro,1676592404452,29461274941268,1.5512923,0.6012441,0.13164146,0.0011818681,-0.0017184695,-0.000321327
UncalAccel,1676592404457,29461279192977,1.5816557,5.838487,10.811969,0.037048545,-0.031444572,0.0098014325
UncalMag,1676592404458,29461280303379,-208.01,748.99457,411.55478,-174.57417,771.0116,430.86337
OrientationDeg,1676592404457,29461279192977,104.0,-21.0,-24.0
UncalGyro,1676592404461,29461283425114,1.4332426,0.7134906,-0.10277808,0.0011818681,-0.0017184695,-0.000321327
UncalAccel,1676592404465,29461287674789,1.6450655,5.389833,10.328021,0.037048545,-0.031444572,0.0098014325
OrientationDeg,1676592404465,29461287674789,104.0,-21.0,-25.0
UncalMag,1676592404468,29461290303176,-208.4858,748.0186,411.3352,-174.57417,771.0116,430.86337
UncalGyro,1676592404469,29461291912063,1.3332134,0.75961095,-0.2706133,0.0011818681,-0.0017184695,-0.000321327
UncalAccel,1676592404474,29461296153488,1.6749759,4.786842,9.920643,0.037048545,-0.031444572,0.0098014325
OrientationDeg,1676592404474,29461296153488,103.0,-20.0,-26.0
UncalMag,1676592404478,29461300313593,-207.9612,748.1162,411.45718,-174.57417,771.0116,430.86337
UncalGyro,1676592404478,29461300396377,1.2783883,0.77396625,-0.35735616,0.0011818681,-0.0017184695,-0.000321327
UncalAccel,1676592404482,29461304643224,1.7946169,4.4434714,9.584451,0.037048545,-0.031444572,0.0098014325
OrientationDeg,1676592404482,29461304643224,103.0,-20.0,-26.0
UncalGyro,1676592404486,29461308865951,1.2826643,0.79244494,-0.3733914,0.0011818681,-0.0017184695,-0.000321327
UncalMag,1676592404488,29461310310582,-207.47319,747.5428,412.3966,-174.57417,771.0116,430.86337
UncalAccel,1676592404491,29461313102035,1.9980069,4.219743,9.34816,0.037048545,-0.031444572,0.0098014325
OrientationDeg,1676592404491,29461313102035,103.0,-19.0,-27.0
UncalGyro,1676592404495,29461317352748,1.3350459,0.83276206,-0.33490688,0.0011818681,-0.0017184695,-0.000321327
UncalMag,1676592404498,29461320313716,-207.18039,747.1646,411.3352,-174.57417,771.0116,430.86337
UncalAccel,1676592404499,29461321594142,2.167299,4.058227,9.226126,0.037048545,-0.031444572,0.0098014325
OrientationDeg,1676592404499,29461321594142,103.0,-19.0,-28.0
UncalGyro,1676592404503,29461325836045,1.4253013,0.88606006,-0.2591596,0.0011818681,-0.0017184695,-0.000321327
UncalAccel,1676592404508,29461330071620,2.3587248,4.1072803,9.160323,0.037048545,-0.031444572,0.0098014325
UncalMag,1676592404508,29461330294958,-207.0096,746.66437,411.9452,-174.57417,771.0116,430.86337
OrientationDeg,1676592404508,29461330071620,103.0,-19.0,-28.0
UncalGyro,1676592404512,29461334315649,1.5160148,0.9298896,-0.17150041,0.0011818681,-0.0017184695,-0.000321327
UncalAccel,1676592404516,29461338561803,2.4963121,4.3238306,9.178867,0.037048545,-0.031444572,0.0098014325
UncalMag,1676592404518,29461340303055,-207.1682,745.79816,411.98178,-174.57417,771.0116,430.86337
OrientationDeg,1676592404516,29461338561803,103.0,-18.0,-29.0
UncalGyro,1676592404520,29461342793828,1.5676329,0.95310247,-0.10445796,0.0011818681,-0.0017184695,-0.000321327
UncalAccel,1676592404525,29461347030351,2.3551357,4.701298,9.266804,0.037048545,-0.031444572,0.0098014325
UncalMag,1676592404528,29461350313838,-206.2166,745.81036,411.9574,-174.57417,771.0116,430.86337
OrientationDeg,1676592404525,29461347030351,103.0,-18.0,-30.0
UncalGyro,1676592404529,29461351261734,1.5746579,0.93859446,-0.10369437,0.0011818681,-0.0017184695,-0.000321327
UncalAccel,1676592404533,29461355514227,1.8735801,5.244469,9.270393,0.037048545,-0.031444572,0.0098014325
UncalGyro,1676592404537,29461359751938,1.5575536,0.8923214,-0.18096884,0.0011818681,-0.0017184695,-0.000321327
UncalMag,1676592404538,29461360300655,-206.2776,744.9442,412.116,-174.57417,771.0116,430.86337
OrientationDeg,1676592404533,29461355514227,102.0,-18.0,-31.0
OrientationDeg,1676592404541,29461363987210,102.0,-17.0,-31.0
OrientationDeg,1676592404550,29461372473324,102.0,-17.0,-32.0
OrientationDeg,1676592404558,29461380951443,102.0,-17.0,-33.0
UncalAccel,1676592404541,29461363987210,1.3555341,5.753542,9.111869,0.037048545,-0.031444572,0.0098014325
UncalGyro,1676592404546,29461368235399,1.5506815,0.8034405,-0.31642818,0.0011818681,-0.0017184695,-0.000321327
UncalMag,1676592404548,29461370310584,-205.9604,745.0418,412.25018,-174.57417,771.0116,430.86337
UncalAccel,1676592404550,29461372473324,1.0402796,5.9246287,8.985049,0.037048545,-0.031444572,0.0098014325
UncalGyro,1676592404554,29461376713985,1.5917621,0.689056,-0.4746423,0.0011818681,-0.0017184695,-0.000321327
UncalMag,1676592404558,29461380316240,-205.692,744.1756,412.2746,-174.57417,771.0116,430.86337
UncalAccel,1676592404558,29461380951443,0.9595219,5.6171513,9.138788,0.037048545,-0.031444572,0.0098014325
UncalGyro,1676592404563,29461385182380,1.6888897,0.61407226,-0.59895337,0.0011818681,-0.0017184695,-0.000321327
UncalAccel,1676592404567,29461389425940,1.0893325,4.956134,9.500702,0.037048545,-0.031444572,0.0098014325
UncalMag,1676592404568,29461390310462,-205.6066,743.8584,413.40918,-174.57417,771.0116,430.86337
OrientationDeg,1676592404567,29461389425940,102.0,-16.0,-34.0
UncalGyro,1676592404571,29461393675341,1.8145752,0.6218608,-0.65179324,0.0011818681,-0.0017184695,-0.000321327
UncalAccel,1676592404575,29461397917356,1.2287145,4.2424746,9.925428,0.037048545,-0.031444572,0.0098014325
OrientationDeg,1676592404575,29461397917356,102.0,-16.0,-35.0
UncalMag,1676592404578,29461400313718,-205.43579,743.224,412.40878,-174.57417,771.0116,430.86337
UncalGyro,1676592404580,29461402159217,1.9385809,0.72066826,-0.63346726,0.0011818681,-0.0017184695,-0.000321327
UncalAccel,1676592404584,29461406400123,1.204188,3.6574295,10.372288,0.037048545,-0.031444572,0.0098014325
OrientationDeg,1676592404584,29461406400123,102.0,-16.0,-36.0
UncalMag,1676592404588,29461410303708,-204.5452,742.3944,413.275,-174.57417,771.0116,430.86337
UncalGyro,1676592404588,29461410633348,2.0366247,0.89919364,-0.5564982,0.0011818681,-0.0017184695,-0.000321327
UncalAccel,1676592404592,29461414864571,1.0289137,3.1292138,10.5792675,0.037048545,-0.031444572,0.0098014325
OrientationDeg,1676592404592,29461414864571,102.0,-15.0,-37.0
UncalGyro,1676592404597,29461419115272,2.094504,1.132086,-0.43111816,0.0011818681,-0.0017184695,-0.000321327
UncalMag,1676592404598,29461420313108,-204.4964,741.6258,413.45798,-174.57417,771.0116,430.86337
UncalAccel,1676592404601,29461423356250,0.7399804,2.6913273,10.445868,0.037048545,-0.031444572,0.0098014325
OrientationDeg,1676592404601,29461423356250,102.0,-15.0,-38.0
UncalGyro,1676592404605,29461427599038,2.121535,1.3800973,-0.27046058,0.0011818681,-0.0017184695,-0.000321327
UncalMag,1676592404608,29461430310463,-203.8864,741.3818,413.7386,-174.57417,771.0116,430.86337
UncalAccel,1676592404609,29461431835151,0.49172506,2.379662,9.992428,0.037048545,-0.031444572,0.0098014325
OrientationDeg,1676592404609,29461431835151,102.0,-14.0,-39.0
UncalGyro,1676592404614,29461436074420,2.1503985,1.6114625,-0.094989546,0.0011818681,-0.0017184695,-0.000321327
UncalAccel,1676592404618,29461440314390,0.32961133,2.1780667,9.424132,0.037048545,-0.031444572,0.0098014325
UncalMag,1676592404618,29461440323077,-203.58139,741.14996,414.6536,-174.57417,771.0116,430.86337
OrientationDeg,1676592404618,29461440314390,102.0,-13.0,-40.0
UncalGyro,1676592404623,29461444550749,2.2046127,1.8344283,0.0777326,0.0011818681,-0.0017184695,-0.000321327
UncalAccel,1676592404626,29461448792244,0.20638095,1.933999,8.804391,0.037048545,-0.031444572,0.0098014325
UncalMag,1676592404628,29461450303221,-203.5326,740.357,414.2144,-174.57417,771.0116,430.86337
OrientationDeg,1676592404626,29461448792244,101.0,-13.0,-41.0
UncalGyro,1676592404631,29461453014575,2.2901337,2.0662518,0.24556783,0.0011818681,-0.0017184695,-0.000321327
UncalAccel,1676592404635,29461457263152,0.1896312,1.7006987,8.056036,0.037048545,-0.031444572,0.0098014325
OrientationDeg,1676592404635,29461457263152,101.0,-12.0,-42.0
UncalMag,1676592404638,29461460295571,-203.0446,739.686,414.7634,-174.57417,771.0116,430.86337
UncalGyro,1676592404639,29461461497872,2.4066563,2.2908974,0.40378192,0.0011818681,-0.0017184695,-0.000321327
UncalAccel,1676592404643,29461465743478,0.3080759,1.4249259,7.0606213,0.037048545,-0.031444572,0.0098014325
OrientationDeg,1676592404643,29461465743478,100.0,-11.0,-43.0
UncalGyro,1676592404647,29461469985441,2.5405886,2.4627032,0.5580254,0.0011818681,-0.0017184695,-0.000321327
UncalMag,1676592404648,29461470306354,-202.1418,739.0882,414.4828,-174.57417,771.0116,430.86337
UncalAccel,1676592404652,29461474223509,0.36251262,0.94337034,5.9180484,0.037048545,-0.031444572,0.0098014325
OrientationDeg,1676592404652,29461474223509,99.0,-11.0,-44.0
UncalGyro,1676592404656,29461478468402,2.6974282,2.547308,0.71959925,0.0011818681,-0.0017184695,-0.000321327
UncalMag,1676592404658,29461480303018,-202.0686,738.6734,415.47098,-174.57417,771.0116,430.86337
UncalAccel,1676592404660,29461482704161,0.4229314,0.44805604,4.570291,0.037048545,-0.031444572,0.0098014325
UncalGyro,1676592404664,29461486944660,2.8825204,2.4929411,0.9230174,0.0011818681,-0.0017184695,-0.000321327
UncalAccel,1676592404670,29461491185158,0.59760743,0.14955142,3.1932218,0.037048545,-0.031444572,0.0098014325
OrientationDeg,1676592404660,29461482704161,98.0,-10.0,-46.0
UncalMag,1676592404668,29461490303466,-201.43419,738.6856,415.0928,-174.57417,771.0116,430.86337
UncalGyro,1676592404673,29461495425657,3.0804408,2.2855523,1.1717923,0.0011818681,-0.0017184695,-0.000321327
OrientationDeg,1676592404669,29461491185158,97.0,-10.0,-47.0
UncalAccel,1676592404677,29461499667012,0.8500503,0.11964113,2.0733807,0.037048545,-0.031444572,0.0098014325
UncalMag,1676592404678,29461500308675,-201.43419,738.6856,415.0928,-174.57417,771.0116,430.86337
OrientationDeg,1676592404677,29461499667012,96.0,-10.0,-48.0
UncalGyro,1676592404681,29461503909037,3.2623258,1.9517145,1.4524848,0.0011818681,-0.0017184695,-0.000321327
UncalAccel,1676592404686,29461508150371,1.2179468,0.3385844,1.3112668,0.037048545,-0.031444572,0.0098014325
UncalMag,1676592404688,29461510304321,-201.7758,738.2708,416.0932,-174.57417,771.0116,430.86337
OrientationDeg,1676592404687,29461508150371,94.0,-10.0,-50.0
UncalGyro,1676592404690,29461512397470,3.4153476,1.5268577,1.7556267,0.0011818681,-0.0017184695,-0.000321327
UncalAccel,1676592404694,29461516621461,1.7688942,0.5772685,1.0845468,0.037048545,-0.031444572,0.0098014325
OrientationDeg,1676592404694,29461516621461,92.0,-11.0,-51.0
UncalMag,1676592404698,29461520313721,-201.8978,737.9414,416.8618,-174.57417,771.0116,430.86337
UncalGyro,1676592404698,29461520870494,3.5311065,1.0844386,2.0722077,0.0011818681,-0.0017184695,-0.000321327
UncalAccel,1676592404703,29461525109223,2.492723,0.8446664,1.2640085,0.037048545,-0.031444572,0.0098014325
OrientationDeg,1676592404703,29461525109223,90.0,-13.0,-53.0
UncalGyro,1676592404707,29461529364257,3.620293,0.6959282,2.3806946,0.0011818681,-0.0017184695,-0.000321327
UncalMag,1676592404708,29461530303345,-202.7518,737.673,417.1912,-174.57417,771.0116,430.86337
UncalAccel,1676592404711,29461533604614,3.2590244,1.3184453,1.4811572,0.037048545,-0.031444572,0.0098014325
OrientationDeg,1676592404711,29461533604614,87.0,-15.0,-54.0
UncalGyro,1676592404715,29461537855663,3.706883,0.41065416,2.6532931,0.0011818681,-0.0017184695,-0.000321327
UncalMag,1676592404718,29461540313599,-203.3496,738.29517,418.0818,-174.57417,771.0116,430.86337
UncalAccel,1676592404720,29461542079346,3.8500516,2.126621,1.7814565,0.037048545,-0.031444572,0.0098014325
OrientationDeg,1676592404720,29461542079346,84.0,-17.0,-56.0
UncalGyro,1676592404724,29461546317862,3.783852,0.25411993,2.8328876,0.0011818681,-0.0017184695,-0.000321327
UncalMag,1676592404728,29461550313925,-204.34999,739.0882,419.1432,-174.57417,771.0116,430.86337
UncalAccel,1676592404728,29461550544027,4.2855453,2.9389844,1.7994026,0.037048545,-0.031444572,0.0098014325
OrientationDeg,1676592404728,29461550544027,80.0,-20.0,-57.0
UncalGyro,1676592404732,29461554795147,3.8319576,0.17684549,2.924212,0.0011818681,-0.0017184695,-0.000321327
UncalAccel,1676592404737,29461559039663,4.7102714,3.6029928,1.5218352,0.037048545,-0.031444572,0.0098014325
UncalMag,1676592404738,29461560303468,-205.082,739.02716,420.107,-174.57417,771.0116,430.86337
OrientationDeg,1676592404737,29461559039663,76.0,-23.0,-58.0
UncalGyro,1676592404741,29461563279643,3.8411207,0.11560625,2.957504,0.0011818681,-0.0017184695,-0.000321327
UncalAccel,1676592404745,29461567520987,5.148158,4.1521454,1.3740784,0.037048545,-0.031444572,0.0098014325
OrientationDeg,1676592404745,29461567520987,72.0,-27.0,-59.0
UncalMag,1676592404749,29461570313763,-206.22879,739.2956,421.41238,-174.57417,771.0116,430.86337
UncalGyro,1676592404749,29461571771587,3.7879753,0.095753126,2.97583,0.0011818681,-0.0017184695,-0.000321327
UncalAccel,1676592404754,29461576000816,5.5914283,4.3992043,1.3944174,0.037048545,-0.031444572,0.0098014325
OrientationDeg,1676592404754,29461576000816,68.0,-30.0,-60.0
UncalGyro,1676592404758,29461580239401,3.6490035,0.13561209,3.0019445,0.0011818681,-0.0017184695,-0.000321327
UncalMag,1676592404758,29461580303143,-207.6928,741.1012,424.42578,-174.57417,771.0116,430.86337
UncalAccel,1676592404762,29461584467338,5.951548,4.545765,1.1192428,0.037048545,-0.031444572,0.0098014325
OrientationDeg,1676592404762,29461584467338,63.0,-34.0,-61.0
UncalGyro,1676592404766,29461588721416,3.424205,0.17379116,3.0502028,0.0011818681,-0.0017184695,-0.000321327
UncalMag,1676592404768,29461590310101,-207.6928,741.1012,424.42578,-174.57417,771.0116,430.86337
UncalAccel,1676592404770,29461592958701,6.134599,4.9256253,0.6556334,0.037048545,-0.031444572,0.0098014325
OrientationDeg,1676592404770,29461592958701,59.0,-38.0,-61.0
UncalGyro,1676592404775,29461597202680,3.142749,0.15134187,3.1091514,0.0011818681,-0.0017184695,-0.000321327
UncalMag,1676592404778,29461600303225,-208.9738,740.662,424.8284,-174.57417,771.0116,430.86337
UncalAccel,1676592404779,29461601430280,6.306284,5.535795,0.3385844,0.037048545,-0.031444572,0.0098014325
OrientationDeg,1676592404779,29461601430280,55.0,-42.0,-61.0
UncalGyro,1676592404783,29461605672020,2.827848,0.074067414,3.1595478,0.0011818681,-0.0017184695,-0.000321327
UncalAccel,1676592404787,29461609921032,6.538986,6.0167527,0.22791636,0.037048545,-0.031444572,0.0098014325
OrientationDeg,1676592404787,29461609921032,50.0,-46.0,-61.0
UncalMag,1676592404788,29461610306399,-211.04779,742.73596,425.8654,-174.57417,771.0116,430.86337
UncalGyro,1676592404792,29461614162570,2.5222626,-0.038026363,3.196658,0.0011818681,-0.0017184695,-0.000321327
UncalAccel,1676592404796,29461618397647,7.0205417,6.3738813,0.1381855,0.037048545,-0.031444572,0.0098014325
OrientationDeg,1676592404796,29461618397647,46.0,-49.0,-61.0
UncalMag,1676592404798,29461620313845,-211.04779,742.73596,425.8654,-174.57417,771.0116,430.86337
UncalGyro,1676592404800,29461622640474,2.29273,-0.18891008,3.2071953,0.0011818681,-0.0017184695,-0.000321327
UncalAccel,1676592404804,29461626872419,7.701898,6.780661,0.18364914,0.037048545,-0.031444572,0.0098014325
OrientationDeg,1676592404804,29461626872419,43.0,-53.0,-60.0
UncalMag,1676592404808,29461630310672,-212.0482,745.1394,427.91498,-174.57417,771.0116,430.86337
UncalGyro,1676592404809,29461631123894,2.182316,-0.34865135,3.2064316,0.0011818681,-0.0017184695,-0.000321327
UncalAccel,1676592404813,29461635358991,8.241479,6.856035,0.2865405,0.037048545,-0.031444572,0.0098014325
OrientationDeg,1676592404813,29461635358991,39.0,-56.0,-59.0
UncalGyro,1676592404817,29461639606529,2.1670444,-0.4868596,3.2128458,0.0011818681,-0.0017184695,-0.000321327
UncalMag,1676592404818,29461640302981,-213.6586,746.1764,428.6958,-174.57417,771.0116,430.86337
UncalAccel,1676592404821,29461643838758,8.59143,6.8482585,0.18424734,0.037048545,-0.031444572,0.0098014325
OrientationDeg,1676592404821,29461643838758,36.0,-59.0,-59.0
UncalGyro,1676592404826,29461648067824,2.212554,-0.62781674,3.2142203,0.0011818681,-0.0017184695,-0.000321327
UncalMag,1676592404828,29461650313765,-213.71959,746.945,428.2688,-174.57417,771.0116,430.86337
UncalAccel,1676592404830,29461652314049,8.831908,8.017152,1.052842,0.037048545,-0.031444572,0.0098014325
OrientationDeg,1676592404830,29461652314049,32.0,-62.0,-58.0
UncalGyro,1676592404834,29461656565963,2.0740402,-0.7652614,3.1839824,0.0011818681,-0.0017184695,-0.000321327
UncalMag,1676592404838,29461660313643,-214.6956,748.2016,430.05,-174.57417,771.0116,430.86337
UncalAccel,1676592404838,29461660813236,8.970692,7.926225,1.7461623,0.037048545,-0.031444572,0.0098014325
OrientationDeg,1676592404838,29461660813236,30.0,-65.0,-57.0
UncalGyro,1676592404843,29461665032861,1.902998,-0.79305583,3.1311426,0.0011818681,-0.0017184695,-0.000321327
UncalAccel,1676592404847,29461669272617,9.0029955,8.142776,1.1443675,0.037048545,-0.031444572,0.0098014325
UncalMag,1676592404848,29461670303267,-215.9766,749.5924,430.78198,-174.57417,771.0116,430.86337
OrientationDeg,1676592404847,29461669272617,27.0,-68.0,-56.0
UncalGyro,1676592404851,29461673521966,1.7708983,-0.7872526,3.1138856,0.0011818681,-0.0017184695,-0.000321327
UncalAccel,1676592404855,29461677767419,8.386844,8.95454,0.42951167,0.037048545,-0.031444572,0.0098014325
OrientationDeg,1676592404855,29461677767419,25.0,-70.0,-55.0
UncalMag,1676592404859,29461680303267,-215.879,751.1906,431.636,-174.57417,771.0116,430.86337
UncalGyro,1676592404860,29461682013309,1.6711746,-0.86391616,3.0379856,0.0011818681,-0.0017184695,-0.000321327
UncalAccel,1676592404864,29461686243718,7.874779,8.68475,-0.55034924,0.037048545,-0.031444572,0.0098014325
OrientationDeg,1676592404864,29461686243718,23.0,-72.0,-53.0
UncalMag,1676592404868,29461690305628,-216.76959,752.069,432.47778,-174.57417,771.0116,430.86337
UncalGyro,1676592404868,29461690484226,1.5448782,-1.069625,2.9567406,0.0011818681,-0.0017184695,-0.000321327
UncalAccel,1676592404872,29461694720280,7.789236,9.672387,-1.3387842,0.037048545,-0.031444572,0.0098014325
OrientationDeg,1676592404872,29461694720280,21.0,-74.0,-52.0
UncalGyro,1676592404876,29461698965153,1.3623822,-1.3707817,2.8127291,0.0011818681,-0.0017184695,-0.000321327
UncalMag,1676592404878,29461700305180,-216.5866,753.3744,432.551,-174.57417,771.0116,430.86337
UncalAccel,1676592404881,29461703204594,7.676175,10.277173,-2.6027927,0.037048545,-0.031444572,0.0098014325
OrientationDeg,1676592404881,29461703204594,19.0,-76.0,-51.0
UncalGyro,1676592404885,29461707447036,1.1626292,-1.7197384,2.6516132,0.0011818681,-0.0017184695,-0.000321327
UncalMag,1676592404888,29461710313644,-218.319,754.16736,433.8686,-174.57417,771.0116,430.86337
UncalAccel,1676592404889,29461711683405,8.1230345,10.380065,-2.3234308,0.037048545,-0.031444572,0.0098014325
OrientationDeg,1676592404889,29461711683405,18.0,-78.0,-50.0
